index,Place_name,Latitude,Longitude,Category,Region,haversine_distance_from_centroid,haversine_distance_from_voosh_kitchen,09_30_voosh,19_00_voosh,distance_in_meters_from_voosh
0,Genesis Apartments,12.9260858,77.6669695,Apartments,"Bellandur, Bengaluru",8.995750552968463,3.5936498847861102,15,17,1011
1,Kristal Olivine,12.9262221,77.6745085,Apartments,"Bellandur, Bengaluru",9.083430782511625,2.7768247432092017,16,18,1078
2,Green Fields,12.9220953,77.676976,Apartments,"Bellandur, Bengaluru",8.670473758335289,2.543146958364913,10,12,723
3,Sobha Primrose Apartments,12.9292984,77.6685994,Apartments,"Bellandur, Bengaluru",9.361761325823421,3.438608337333779,16,19,1111
4,Srinivasa Diamond Apartment,12.9230847,77.6725453,Apartments,"Bellandur, Bengaluru",8.710850215417397,3.0047683767134887,11,13,757
5,Sobha Hibiscus,12.922925,77.668866,Apartments,"Bellandur, Bengaluru",8.656454467054568,3.4033450155211207,13,15,885
6,Pearl Regency Apartments,12.9230434,77.6739085,Apartments,"Bellandur, Bengaluru",8.724476371117383,2.8583229928723983,11,12,737
7,Sterling Ascentia,12.9288752,77.6816475,Apartments,"Bellandur, Bengaluru",9.506909341087827,2.0312477885690376,11,13,767
8,Green View Apartments,12.9445811,77.6791039,Apartments,"Bellandur, Bengaluru",11.175245919651305,3.0886689104988823,14,14,860
9,Elegance Opal Apartment,12.9263908,77.6759556,Apartments,"Bellandur, Bengaluru",9.12422778056365,2.6203939086261188,9,11,645
10,1BHK bellandur,12.9222679,77.6778497,Apartments,"Bellandur, Bengaluru",8.706006665300917,2.446596075912921,11,13,774
11,Parijatha Apartment,12.9266246,77.6724282,Apartments,"Bellandur, Bengaluru",9.100600087799684,3.003242782079592,17,18,1103
12,Vintha Paradise Apartments,12.9257495,77.6696381,Apartments,"Bellandur, Bengaluru",8.975782910793251,3.3043316258992843,14,16,948
13,Surabhi Spring Apartments,12.9275782,77.6731625,Apartments,"Bellandur, Bengaluru",9.214884482421308,2.9288283618010307,17,18,1095
14,Mathru Shree Apartments,12.9216284,77.6770139,Apartments,"Bellandur, Bengaluru",8.620028573299944,2.5480949702170834,11,13,751
15,Vandana Sunshine Apartment,12.9255069,77.6690579,Apartments,"Bellandur, Bengaluru",8.944300181940815,3.3673903054618686,16,18,1070
16,Prestige Kew Gardens,12.9481002,77.6780419,Apartments,"Bellandur, Bengaluru",11.545638604963539,3.4442244268355187,16,17,1035
17,Altair Apartment,12.9250299,77.6674172,Apartments,"Bellandur, Bengaluru",8.88074271304708,3.5461276126346895,17,19,1127
18,Sobha Jasmine Apartments,12.9265426,77.6683252,Apartments,"Bellandur, Bengaluru",9.054094266103586,3.4475235172793703,16,18,1077
19,Balaji apartments,12.9267505,77.6866412,Apartments,"Bellandur, Bengaluru",9.406730105372723,1.4651716052195922,7,8,471
21,Sobha Daisy Apartment,12.9286054,77.6682569,Apartments,"Bellandur, Bengaluru",9.282638121928937,3.4677860193632526,16,18,1082
22,Lakeland Apartments,12.9239571,77.674755,Apartments,"Bellandur, Bengaluru",8.837593952729312,2.757619414233325,10,12,715
23,Sindhu Amazon Apartment,12.925522,77.6733881,Apartments,"Bellandur, Bengaluru",8.99075150504637,2.8981041554058944,15,17,1014
24,SLS Splendor,12.9270612,77.6875317,Apartments,"Bellandur, Bengaluru",9.466306523956876,1.3719407796457275,7,7,446
25,Ittina Anai Apartment,12.9453114,77.6772659,Apartments,"Bellandur, Bengaluru",11.226966909933138,3.2912728949965913,15,15,927
26,Srinivasa Apartment,12.9281903,77.6724008,Apartments,"Bellandur, Bengaluru",9.27337649344415,3.016365172621581,17,18,1089
28,Aarmane Nest Apartments,12.9175001,77.6752097,Apartments,"Bellandur, Bengaluru",8.134972938391845,2.854831907680867,14,16,985
29,SR Heritage Apartment,12.9274987,77.6891487,Apartments,"Bellandur, Bengaluru",9.562875732440036,1.2042485301493855,5,6,347
30,Viceroy Saiharsha Apartment,12.9213313,77.6739686,Apartments,"Bellandur, Bengaluru",8.536665458960465,2.8787437474663737,12,13,809
31,Abhee Prince,12.9296125,77.6733168,Apartments,"Bellandur, Bengaluru",9.44150933485314,2.935949033674046,13,13,801
32,Nikhar Aventino - Apartments near Ecoworld Tech Park Doddakannelli Bellandur,12.9156027,77.6980774,Apartments,"Bellandur, Bengaluru",8.681087853646579,1.1583373614753296,6,7,413
33,Citilights Liberty,12.9283223,77.679446,Apartments,"Bellandur, Bengaluru",9.399535636238458,2.2584693678468666,11,12,749
34,Golden Residency,12.9249891,77.6732024,Apartments,"Bellandur, Bengaluru",8.929501353647426,2.9195204506725547,14,16,976
35,Angel Lake View Apartment,12.9278277,77.6732084,Apartments,"Bellandur, Bengaluru",9.24301700820003,2.925842562813694,17,18,1102
36,Kristal Jade,12.9234361,77.672153,Apartments,"Bellandur, Bengaluru",8.744914935685312,3.0434053785791724,10,12,701
37,Springfields Apartments,12.9177962,77.6694615,Apartments,"Bellandur, Bengaluru",8.092671478901165,3.441374995595085,14,16,975
38,Mayflower Apartments,12.921026,77.6659327,Apartments,"Bellandur, Bengaluru",8.429193902234976,3.7441829862787004,11,13,795
39,Times Square Apartment,12.9245655,77.667256,Apartments,"Bellandur, Bengaluru",8.828308900781709,3.56525328733854,14,16,958
40,Sobha Carnation,12.9278089,77.6711205,Apartments,"Bellandur, Bengaluru",9.21745870772005,3.151367737571243,16,18,1090
41,Sapthagiri Hills Apartment,12.9216104,77.6769213,Apartments,"Bellandur, Bengaluru",8.61633504665177,2.5583277255488603,11,12,748
42,Durga Saffron Square Apartments,12.9302466,77.684759,Apartments,"Bellandur, Bengaluru",9.731039353309631,1.7365458885690546,12,13,800
43,VijayaSri Golden Orchid,12.926942,77.6864228,Apartments,"Bellandur, Bengaluru",9.420925229726567,1.4904042203175236,7,8,464
44,Sai Sunrise Apartment,12.9268226,77.6719833,Apartments,"Bellandur, Bengaluru",9.117400055003156,3.0521575497415507,16,17,1042
45,SV Residency,12.9261561,77.6696702,Apartments,"Bellandur, Bengaluru",9.02112847223452,3.3010423879169792,14,16,957
46,Mana Carnations Apartments,12.9261402,77.6717787,Apartments,"Bellandur, Bengaluru",9.039652965674902,3.072523338358203,16,17,1026
47,Vista Lagos Apartments,12.9443608,77.6796624,Apartments,"Bellandur, Bengaluru",11.160480831503413,3.0275686014886833,14,14,853
48,Infra Sirenish Apartment,12.9278693,77.6719997,Apartments,"Bellandur, Bengaluru",9.233358736066645,3.0568146884046143,16,18,1066
49,MAK Park View Apartments,12.9262462,77.6712504,Apartments,"Bellandur, Bengaluru",9.045764629224802,3.129928376620979,15,17,1020
50,Sai Sunshine Apartment,12.9279016,77.671416,Apartments,"Bellandur, Bengaluru",9.230709420367162,3.1201663379441587,16,18,1079
51,Mirage apartment,12.928341,77.6707856,Apartments,"Bellandur, Bengaluru",9.273144242443607,3.192209300126698,17,19,1114
52,Athmiya Residency,12.9243292,77.6746305,Apartments,"Bellandur, Bengaluru",8.87669087980066,2.768275947846275,11,12,737
53,Haryana Goyal %26 Sons,12.9315164,77.6786494,Apartments,"Bellandur, Bengaluru",9.733636284351768,2.4121258688699503,11,12,703
54,Sai Sarovar Apartments,12.9264984,77.6701534,Apartments,"Bellandur, Bengaluru",9.063204167346758,3.2493277948100956,14,17,990
55,Hampton Court Apartment,12.925638,77.677937,Apartments,"Bellandur, Bengaluru",9.076467905800607,2.404998665024695,9,10,609
56,Pearl Drop,12.9229225,77.6739098,Apartments,"Bellandur, Bengaluru",8.711168265500675,2.859670422733056,10,12,729
57,Sri Hari Residency,12.9210429,77.6758103,Apartments,"Bellandur, Bengaluru",8.534252178548826,2.6885607963842917,10,12,729
58,Sobha Quartz,12.9247345,77.6694838,Apartments,"Bellandur, Bengaluru",8.861977543570744,3.323268971163254,13,15,927
59,Friends Enclave,12.9244315,77.6748436,Apartments,"Bellandur, Bengaluru",8.891170278919958,2.7445558426624714,11,12,743
60,Sri Dakshayani Apartments,12.9487179,77.6851732,Apartments,"Bellandur, Bengaluru",11.744782742501279,3.0175210405258985,17,18,1055
61,Mana Callista Apartment,12.9230296,77.6727843,Apartments,"Bellandur, Bengaluru",8.707774663977442,2.9796344469416174,11,13,752
62,Om Shakthi Apartment,12.9279206,77.6703438,Apartments,"Bellandur, Bengaluru",9.222505572726877,3.23621259152681,17,19,1126
63,Sonestaa iWoods,12.9295644,77.6743329,Apartments,"Bellandur, Bengaluru",9.449464497595702,2.826218347549824,13,14,813
64,SVN APARTMENTS,12.9365024,77.6851584,Apartments,"Bellandur, Bengaluru",10.417611374199513,2.0101915701063793,11,12,724
65,Paras Meadows,12.9266471,77.6695502,Apartments,"Bellandur, Bengaluru",9.074591812879945,3.3150969564945316,14,16,970
66,Sri Nilaya Apartments,12.926499,77.674148,Apartments,"Bellandur, Bengaluru",9.108833601227198,2.816537634324536,12,13,786
67,Sujatha Residency,12.922034,77.6645671,Apartments,"Bellandur, Bengaluru",8.537609348433776,3.8769348466245876,13,15,888
68,Surya Chandra Apartment,12.9238904,77.6738908,Apartments,"Bellandur, Bengaluru",8.817600781323934,2.851572551457914,10,12,695
69,Silver Spring Apartment,12.9283111,77.6709352,Apartments,"Bellandur, Bengaluru",9.271259912934367,3.175767971356627,17,19,1111
70,Santhosai Apartment,12.9255927,77.6720101,Apartments,"Bellandur, Bengaluru",8.981681941909837,3.0473610387237744,16,17,1036
71,"Mayflower N Block, Adarsh Palm Retreat",12.9178596,77.6916752,Apartments,"Bellandur, Bengaluru",8.63734342866188,1.2743067872684855,14,14,855
72,Oceanus Triton,12.9189814,77.6754551,Apartments,"Bellandur, Bengaluru",8.301819603554835,2.780145951545159,13,14,851
73,Elite Unique Apartments,12.9186134,77.673652,Apartments,"Bellandur, Bengaluru",8.232586248283704,2.9793362105612604,12,13,808
74,Gayanam Apartments,12.928051,77.6729254,Apartments,"Bellandur, Bengaluru",9.26418606225078,2.958396530096249,17,18,1104
75,Sri Sathya Sai Shakthi Nilayam Apartments,12.9212666,77.6764167,Apartments,"Bellandur, Bengaluru",8.56944807467578,2.6192415167061873,11,12,736
76,DKS Kutira Apartments,12.9305903,77.6750233,Apartments,"Bellandur, Bengaluru",9.572259113444572,2.771747422237218,12,12,741
77,Sreepadmam Apartments,12.9158148,77.6987132,Apartments,"Bellandur, Bengaluru",8.732392287455951,1.1237488173242194,6,6,376
78,psychologist,12.9227862,77.6750947,Apartments,"Bellandur, Bengaluru",8.714012222276923,2.733946490358434,10,12,701
79,Elegance Garnet Apartment,12.9259087,77.6775684,Apartments,"Bellandur, Bengaluru",9.099246328226526,2.444871028455481,9,10,593
80,Annapurneshwari Grand,12.9293626,77.6767439,Apartments,"Bellandur, Bengaluru",9.463818460654851,2.5645157503641625,11,13,755
81,Pritam Woods,12.9282359,77.6704992,Apartments,"Bellandur, Bengaluru",9.258844997752199,3.2221382193714927,17,19,1121
82,DSR Daffodil,12.9216893,77.6758895,Apartments,"Bellandur, Bengaluru",8.606580975817902,2.6668098024673803,10,12,716
83,Maruti Grandeur,12.9272402,77.6716323,Apartments,"Bellandur, Bengaluru",9.15977377258344,3.0921832346582776,16,17,1049
84,Lisha Vistara Apartments,12.9271978,77.6708913,Apartments,"Bellandur, Bengaluru",9.147535952194197,3.172159629040645,15,17,1024
85,Marouthu Homes,12.93108,77.683756,Apartments,"Bellandur, Bengaluru",9.795911326448005,1.8679325961740558,9,9,552
86,Om Nilaya Apartment,12.9298974,77.6727694,Apartments,"Bellandur, Bengaluru",9.466383744511278,2.9992891924093144,13,13,808
87,SJR Residency,12.9276542,77.6889908,Apartments,"Bellandur, Bengaluru",9.574424400772164,1.223910651820975,6,6,382
88,Srinivasa's signature,12.9203955,77.6759707,Apartments,"Bellandur, Bengaluru",8.465979209217728,2.68678543438858,11,12,740
89,BPNR Apartment,12.9290972,77.675682,Apartments,"Bellandur, Bengaluru",9.41760693950521,2.6741265759209,11,13,778
90,Kristal Ruby,12.9228143,77.6726032,Apartments,"Bellandur, Bengaluru",8.68170655407144,3.0017334502818085,11,13,756
91,Kalpa Vruksha Apartments,12.9216853,77.676416,Apartments,"Bellandur, Bengaluru",8.615353915019167,2.610701013443058,10,12,732
92,Ushodaya Eleganza,12.928386,77.6691835,Apartments,"Bellandur, Bengaluru",9.264618543305296,3.365626130448501,15,17,1029
93,Sheshadri Residency,12.9273343,77.6749995,Apartments,"Bellandur, Bengaluru",9.213167126419348,2.728413139922712,11,14,813
94,"Orchid Lakeview Apartment, Kariyamanna Agrahara Road, Bellandur, 560103",12.9315882,77.6790615,Apartments,"Bellandur, Bengaluru",9.749216643910481,2.3712010589201684,12,12,740
95,SVM Apartments,12.9364925,77.6851406,Apartments,"Bellandur, Bengaluru",10.416101250450478,2.011099303579483,11,12,726
96,Sri Siva Sai Vue Grande Apartments,12.9238309,77.674399,Apartments,"Bellandur, Bengaluru",8.818366705447174,2.7971726125723495,10,12,703
97,"Zephyr Block A, Suncity Corporate Leisure",12.9239799,77.6643186,Apartments,"Bellandur, Bengaluru",8.75358667737033,3.886276420119247,13,15,910
98,Pearl Paradise,12.9232376,77.6741589,Apartments,"Bellandur, Bengaluru",8.74948345906579,2.829066279305787,11,12,744
99,Brindavan Sapthagiri,12.9220044,77.6775841,Apartments,"Bellandur, Bengaluru",8.672015611718148,2.4798610814826003,11,12,737
100,SLV nilaya,12.9299414,77.6775003,Apartments,"Bellandur, Bengaluru",9.54027537916643,2.494536971842129,10,11,655
101,ARB Enclave,12.9223404,77.6743041,Apartments,"Bellandur, Bengaluru",8.652781371784938,2.825368395432671,10,12,723
102,I Life,12.9300399,77.6875407,Apartments,"Bellandur, Bengaluru",9.785239031904151,1.4422860606909673,7,8,464
103,Jayani Apartments,12.9461338,77.6804383,Apartments,"Bellandur, Bengaluru",11.368590515373851,3.1067207563384565,14,15,886
104,Suncity Block 9 - Galaxy,12.9258374,77.6648788,Apartments,"Bellandur, Bengaluru",8.961048259684059,3.8201209217360663,15,17,1009
105,Kumara Krupa Apartment,12.9299561,77.6767582,Apartments,"Bellandur, Bengaluru",9.529270996906032,2.5739320127358343,11,11,676
106,Unitech Blossoms,12.930474,77.682351,Apartments,"Bellandur, Bengaluru",9.696764352200164,1.994618534417895,9,9,545
107,G K J House,12.9220398,77.6742731,Apartments,"Bellandur, Bengaluru",8.619211732700014,2.8334720177845543,10,12,730
108,Adarsh Palm Retreat Tower 1 (Gulmohar),12.9202513,77.6889567,Apartments,"Bellandur, Bengaluru",8.788857799574618,1.3601291660140957,8,8,479
109,Ambience Diva Apartments,12.9184055,77.6718202,Apartments,"Bellandur, Bengaluru",8.184987185810185,3.176913281820527,14,16,943
110,DSR WINDSOR APARTMENTS,12.9252335,77.6717127,Apartments,"Bellandur, Bengaluru",8.938627035297417,3.0801896936652833,15,16,989
111,"122, Samruddhi Residency , Green Glen Layout",12.9281281,77.6706516,Apartments,"Bellandur, Bengaluru",9.2483034233384,3.2047002174075248,17,19,1119
112,Hamilton Surabhi Apartment,12.9270963,77.6716201,Apartments,"Bellandur, Bengaluru",9.143720317794664,3.092732812328078,16,18,1074
113,Holiday Apartments Bellandur,12.92793,77.6722055,Apartments,"Bellandur, Bengaluru",9.242368611907603,3.0350851432020844,16,18,1079
114,Reddy apartments,12.9302649,77.6740127,Apartments,"Bellandur, Bengaluru",9.522455897075226,2.8728953837165037,12,13,774
115,Navya Gruha,12.9187989,77.6750684,Apartments,"Bellandur, Bengaluru",8.275234475348775,2.826023023008313,11,13,778
116,"882,Bellandur Main Road",12.9278592,77.675775,Apartments,"Bellandur, Bengaluru",9.282826330187458,2.648868669728065,10,12,714
117,Girish Apartment,12.946116,77.680329,Apartments,"Bellandur, Bengaluru",11.364711032248644,3.11343357980218,14,15,884
118,Srinesh Apartment,12.9279392,77.6719096,Apartments,"Bellandur, Bengaluru",9.240102893244725,3.0671376491519218,16,18,1070
119,Naveen House,12.9291685,77.6776545,Apartments,"Bellandur, Bengaluru",9.458193849628316,2.4636943870021635,11,11,685
120,JNR Nilaya Apartment,12.9266409,77.6742619,Apartments,"Bellandur, Bengaluru",9.12607591596937,2.8046621492187276,11,13,774
121,Annapoorneswari Mansion,12.920781,77.675692,Apartments,"Bellandur, Bengaluru",8.503469635101991,2.707016441296144,11,12,742
122,Krishna Residency Building,12.9218084,77.6761347,Apartments,"Bellandur, Bengaluru",8.623895535659386,2.6383622365864148,10,12,712
123,Sharath house,12.928431,77.6743584,Apartments,"Bellandur, Bengaluru",9.324811658128153,2.807707453833693,12,14,829
124,Hamilton Court Apartments,12.9250353,77.6713943,Apartments,"Bellandur, Bengaluru",8.913251830111209,3.115235020832263,15,17,997
125,Chandrappa Apartment,12.9459012,77.680365,Apartments,"Bellandur, Bengaluru",11.341777706973453,3.093468028381707,14,15,879
126,Ushoodaya Trinity,12.9264128,77.6705592,Apartments,"Bellandur, Bengaluru",9.057417067189446,3.205152890124373,15,17,994
127,Sai Ram Apartments,12.9213003,77.6768539,Apartments,"Bellandur, Bengaluru",8.581112305152613,2.5720350582272293,11,13,757
128,80 Trees,12.9176613,77.6979436,Apartments,"Bellandur, Bengaluru",8.881738007542435,0.9382634773110523,5,6,338
129,Sree Shore's Icon Apartment Homes,12.9443548,77.6775583,Apartments,"Bellandur, Bengaluru",11.12592328986048,3.197948726857796,14,15,909
130,Orchid Lakeview - Goyal %26 Co %7C Hariyana Group,12.9315276,77.6777491,Apartments,"Bellandur, Bengaluru",9.718693351497054,2.506726054747827,14,14,840
131,SRV Life Style,12.9268123,77.67043,Apartments,"Bellandur, Bengaluru",9.100478695977001,3.220355692852188,15,17,1003
132,Sobha Dahlia,12.9294968,77.6706532,Apartments,"Bellandur, Bengaluru",9.399958287696728,3.2202488484964715,17,19,1135
133,Land Mark Apartment,12.928329,77.671246,Apartments,"Bellandur, Bengaluru",9.276297902890033,3.142389013085463,16,18,1099
134,Banyan Tree Apartments,12.9345341,77.6869822,Apartments,"Bellandur, Bengaluru",10.252228187758735,1.7224801941045473,9,10,613
135,PLY (lekha house ),12.9293923,77.6765038,Apartments,"Bellandur, Bengaluru",9.463119647990682,2.5907356197344313,10,12,741
136,Venugopal Building,12.9279843,77.6749254,Apartments,"Bellandur, Bengaluru",9.283673766132674,2.7418028152001424,11,12,748
137,Brother Nivas Apartments,12.9449233,77.680733,Apartments,"Bellandur, Bengaluru",11.24112973697182,2.98775836793959,14,14,866
138,AVR Mansion Lakeview Flats,12.9298267,77.6720782,Apartments,"Bellandur, Bengaluru",9.45075733420942,3.0722141821663804,13,14,826
139,1B Tower,12.922438,77.6711145,Apartments,"Bellandur, Bengaluru",8.622863307797088,3.16682742540279,12,14,816
140,Suncity Apartments,12.9255055,77.6654327,Apartments,"Bellandur, Bengaluru",8.925480378542586,3.7602623731417872,14,15,927
141,Oceanus Freesia Enclave,12.920717,77.674338,Apartments,"Bellandur, Bengaluru",8.474534672557771,2.852146478668216,12,13,800
142,Sri Anjana Galaxy,12.9257755,77.6703344,Apartments,"Bellandur, Bengaluru",8.98472844253471,3.228862116179612,14,17,993
143,Malibu Rivona,12.9270245,77.6724289,Apartments,"Bellandur, Bengaluru",9.144814511286258,3.0048073184989312,16,18,1085
144,Mana Campbell,12.9258134,77.6711184,Apartments,"Bellandur, Bengaluru",8.996503949009593,3.1438893068436737,15,17,1016
145,Garudadari Residency,12.927286,77.6867779,Apartments,"Bellandur, Bengaluru",9.468066293979387,1.4558219609282017,6,8,451
146,Shwetha Residency,12.9163581,77.6746981,Apartments,"Bellandur, Bengaluru",8.000886397618256,2.95023895794346,13,16,932
147,The House Project,12.9198219,77.6699982,Apartments,"Bellandur, Bengaluru",8.32202966685085,3.3328960375393883,12,14,838
148,Bhavanna Residency,12.9291708,77.6748204,Apartments,"Bellandur, Bengaluru",9.412895887287286,2.7677528073619957,12,13,806
149,Suncity Apartments Owners Association,12.9232058,77.6664831,Apartments,"Bellandur, Bengaluru",8.67359082387911,3.6578961382056767,13,15,912
150,SVM Encalve Apartment,12.9365173,77.6851681,Apartments,"Bellandur, Bengaluru",10.419463681561025,2.0103225474868482,11,12,723
151,MAARQ ALPHA,12.9139886,77.7025234,Apartments,"Bellandur, Bengaluru",8.743495103819177,1.3416923142952328,12,13,752
152,My home,12.9331591,77.6853759,Apartments,"Bellandur, Bengaluru",10.061499235735434,1.7945897622189741,9,10,588
153,Reliaable Acacia Apartments,12.9246428,77.6674314,Apartments,"Bellandur, Bengaluru",8.837830258442112,3.545928617768947,14,16,957
154,Asad's Home,12.921192,77.6717829,Apartments,"Bellandur, Bengaluru",8.492501239880989,3.1148261437294966,12,13,803
155,Block 2 Sobha Jasmine,12.9260617,77.6680693,Apartments,"Bellandur, Bengaluru",8.999090843193548,3.474439359921705,16,18,1056
156,Mantri Espana,12.9345051,77.6835708,Apartments,"Bellandur, Bengaluru",10.162918991271033,2.037342778250242,11,11,676
157,GR Flat BG,12.9249046,77.6711743,Apartments,"Bellandur, Bengaluru",8.896478023117822,3.1395104088127317,16,17,1027
158,Flat apartment,12.9300508,77.6838345,Apartments,"Bellandur, Bengaluru",9.686415130292838,1.8271452984412693,12,13,808
159,Hamesh Tiwari,12.922769,77.671671,Apartments,"Bellandur, Bengaluru",8.66557876170935,3.102701264660567,12,13,804
160,Melody Park - Suncity Apartments,12.9249554,77.6662502,Apartments,"Bellandur, Bengaluru",8.867052862845966,3.6727758780020303,15,16,989
161,Sri Balaji Residency,12.9273644,77.672787,Apartments,"Bellandur, Bengaluru",9.186640304642175,2.967971735028142,16,18,1076
162,Sumeru Apartment,12.9271566,77.6767412,Apartments,"Bellandur, Bengaluru",9.221466236321719,2.5388091195308924,10,11,680
163,Suncity Apartments 6th Block,12.926564,77.6651591,Apartments,"Bellandur, Bengaluru",9.042443661494591,3.790624183129853,14,16,954
164,NCCCL,12.9226019,77.6720017,Apartments,"Bellandur, Bengaluru",8.650921170205581,3.0691951463710048,11,13,790
165,Vajram Esteva,12.9304665,77.6862651,Apartments,"Bellandur, Bengaluru",9.794942006722108,1.588441833392925,6,7,403
166,ViceroySree Apartments,12.919247,77.6730022,Apartments,"Bellandur, Bengaluru",8.293192641803524,3.0294348501047956,13,14,857
167,Paras Pearl Apartment,12.9273038,77.6695154,Apartments,"Bellandur, Bengaluru",9.14713608303027,3.3216724365686265,14,17,992
168,Home Adarsh,12.9246268,77.6859241,Apartments,"Bellandur, Bengaluru",9.158394517877884,1.545058298614639,8,9,517
169,AKME Harmony Back Gate,12.9304278,77.678404,Apartments,"Bellandur, Bengaluru",9.609828136500036,2.4092273096928323,10,10,625
170,Vishranti Park - Suncity Apartments,12.9261621,77.6655805,Apartments,"Bellandur, Bengaluru",8.998887465361749,3.7442558055104738,14,16,945
171,The Central Regency Address,12.9210555,77.6706568,Apartments,"Bellandur, Bengaluru",8.46508886079497,3.237705438418076,12,14,812
172,No. 3,12.917411,77.674375,Apartments,"Bellandur, Bengaluru",8.111343147334093,2.943687813846064,14,16,984
173,Kodeeshwar residency,12.925576,77.6722686,Apartments,"Bellandur, Bengaluru",8.982814245316657,3.019363145078034,13,14,852
174,NIRMAN SONESTAA DEVELOPERS,12.9298924,77.6739949,Apartments,"Bellandur, Bengaluru",9.481109102154884,2.8679774403425675,13,13,801
175,Siesta Bellandur,12.9310673,77.6838338,Apartments,"Bellandur, Bengaluru",9.796445426349745,1.8594827021063014,9,9,554
176,Satish Reddy Building,12.9211544,77.6768245,Apartments,"Bellandur, Bengaluru",8.564583090584787,2.578380380986877,11,13,761
177,The Waves Serviced Apartments,12.9262149,77.6764431,Apartments,"Bellandur, Bengaluru",9.112982756633526,2.5671727994528735,9,11,639
178,Apartment,12.9224363,77.6705931,Apartments,"Bellandur, Bengaluru",8.617328092823884,3.2229635494897457,12,14,837
179,Sunpride apartment,12.9216464,77.6766927,Apartments,"Bellandur, Bengaluru",8.616078882784306,2.58196367253446,11,12,740
180,Sobha Mayflower,12.9281297,77.6698471,Apartments,"Bellandur, Bengaluru",9.241406219873479,3.291632191222943,16,18,1082
181,Sobha Marvella,12.9267833,77.6726791,Apartments,"Bellandur, Bengaluru",9.121124507431205,2.9766404386616983,17,18,1092
182,Brindavan Lake View Residency,12.9217132,77.6784259,Apartments,"Bellandur, Bengaluru",8.65693859317077,2.3960002770143984,11,13,763
183,Sobha Iris Condominium,12.9330271,77.6848047,Apartments,"Bellandur, Bengaluru",10.032696883378424,1.8435281440767763,9,9,542
184,Adarsh Palm Retreat Tower 2- Plumeria,12.9196245,77.6888967,Apartments,"Bellandur, Bengaluru",8.720693420929907,1.398933570675169,8,8,509
185,"Mayflower, Tower 7, Adarsh Palm Retreat Phase 3 Condominiums",12.9177155,77.6908839,Apartments,"Bellandur, Bengaluru",8.59217929000227,1.3479518139282582,14,15,873
186,Minent Serviced Apartment,12.9267367,77.6712223,Apartments,"Bellandur, Bengaluru",9.099774161880045,3.1342572912361013,17,18,1090
187,Primrose,12.9246969,77.674662,Apartments,"Bellandur, Bengaluru",8.917657494487091,2.762705609177718,9,11,655
188,Swami Narendra PG,12.9270637,77.6760846,Apartments,"Bellandur, Bengaluru",9.200301899634129,2.609287465110525,10,11,685
189,KRISTAL BROOKITE,12.9230184,77.6725081,Apartments,"Bellandur, Bengaluru",8.703064811190146,3.0095356098700043,11,13,758
191,The Bha House,12.9161131,77.6662878,Apartments,"Bellandur, Bengaluru",7.884702247535882,3.8232248572015157,15,18,1066
192,Shivalaya Apartments,12.9060107,77.694967,Apartments,"Bellandur, Bengaluru",7.575538835743398,2.2732861334752985,11,12,739
193,Bhanwar Sarjapur- Apartment,12.9117171,77.7001118,Apartments,"Bellandur, Bengaluru",8.396391833745549,1.5688967413633066,8,9,526
194,Bellanduru Junction City Light Apartment,12.925542,77.676131,Apartments,"Bellandur, Bengaluru",9.033825213568795,2.600829973501181,9,10,616
195,Nandu Associates,12.929869,77.684837,Apartments,"Bellandur, Bengaluru",9.692301443427384,1.7169736146824481,6,7,416
196,Lotus Palace Apartment (Sarjapur Road),12.9084475,77.6794482,Apartments,"Bellandur, Bengaluru",7.2397900509774376,2.9592897890816747,16,18,1062
197,DSR Emerald,12.9248214,77.6668214,Apartments,"Bellandur, Bengaluru",8.854592307514014,3.6113238535200884,14,16,978
198,JNR Krupa,12.9266517,77.6741888,Apartments,"Bellandur, Bengaluru",9.126241348373643,2.8126192698915515,11,13,775
199,Colive The Address,12.9299384,77.6775426,Apartments,"Bellandur, Bengaluru",9.540685431175998,2.489969301246417,11,11,656
200,August Grand,12.9090972,77.6904703,Apartments,"Bellandur, Bengaluru",7.6835789265775105,2.1344331147845983,14,15,928
201,Sobha Lakeview Clubhouse,12.9291578,77.6723717,Apartments,"Bellandur, Bengaluru",9.380027989806253,3.0307614315599825,17,19,1132
202,avigna apartments,12.9039839,77.7029845,Apartments,"Bellandur, Bengaluru",7.817372074699744,2.448454183172884,12,13,764
203,RC Sainikethan,12.9293218,77.6853883,Apartments,"Bellandur, Bengaluru",9.6478888696516,1.6439462636920656,7,8,471
204,Kamadhenu Apartment,12.9347005,77.7040163,Apartments,"Bellandur, Bengaluru",10.878977395964096,1.0729973132387778,4,5,279
205,Polaris Apartment,12.9066204,77.6897894,Apartments,"Bellandur, Bengaluru",7.400997420839834,2.411684588643195,13,14,838
206,PNR HOMES,12.9076527,77.6971615,Apartments,"Bellandur, Bengaluru",7.847091556827194,2.046238239963492,9,10,621
207,Veerabadhra Apartments,12.9349926,77.7049312,Apartments,"Bellandur, Bengaluru",10.949142958775449,1.1445055169312903,5,5,328
208,Ashoka Residency,12.9075138,77.6980691,Apartments,"Bellandur, Bengaluru",7.87997901389612,2.0484618176154097,10,11,684
209,Susheelaa PG Accommodation,12.9235872,77.6738196,Apartments,"Bellandur, Bengaluru",8.78317050991503,2.862004753313368,10,11,681
210,HAVELI STUDIO ROOMS FOR GENTS (PG),12.9259759,77.6704028,Apartments,"Bellandur, Bengaluru",9.007560407532045,3.221485658994185,14,16,987
211,Accenture accommodation,12.9277189,77.6725174,Apartments,"Bellandur, Bengaluru",9.222612526108836,2.999647285554847,16,18,1086
212,3 Dimension Yoga,12.9271895,77.6713435,Apartments,"Bellandur, Bengaluru",9.151139093002008,3.1231641509357018,15,17,1039
213,Rangesh Apartments,12.9331887,77.7053367,Apartments,"Bellandur, Bengaluru",10.785164627223523,0.9944543515415837,5,5,297
215,Vijayanikethan apartment,12.9093187,77.6776951,Apartments,"Bellandur, Bengaluru",7.290900282778513,3.0463298927061087,16,18,1107
217,Malibu Projects,12.9257992,77.6707488,Apartments,"Bellandur, Bengaluru",8.991260370606469,3.1839468129755777,15,17,1021
218,Ivory Studio One,12.9291179,77.6771432,Apartments,"Bellandur, Bengaluru",9.443698482010918,2.517663472305609,11,12,706
219,"Boulevard Springsfield, Sarjapur Road",12.917967,77.670175,Apartments,"Bellandur, Bengaluru",8.118302414741569,3.3617663377992537,14,16,969
220,Simpal Apartment,12.8955085,77.7187764,Apartments,"Bellandur, Bengaluru",8.2061406785365,3.9307341739815276,16,18,1061
221,Absolute Care,12.9264778,77.6760118,Apartments,"Bellandur, Bengaluru",9.134707127575979,2.6145544754286183,9,11,646
222,Home,12.9085556,77.675479,Apartments,"Bellandur, Bengaluru",7.159976195083771,3.290047693140513,18,20,1228
224,Sai PG Accommodation,12.922245,77.6727568,Apartments,"Bellandur, Bengaluru",8.620789758371115,2.992958272352709,12,13,805
225,Humaid's Apartment,12.9114648,77.6796769,Apartments,"Bellandur, Bengaluru",7.571576508087581,2.7317939530641766,15,17,1037
226,PEPPER MINT RESTAURANT,12.9232947,77.6758328,Apartments,"Bellandur, Bengaluru",8.781940310925593,2.6479754437855725,10,11,672
227,My rent House,12.9113602,77.6975448,Apartments,"Bellandur, Bengaluru",8.232439330328301,1.6327467559074915,8,9,522
228,Tirth Hospitality Bellandur,12.9301687,77.6866831,Apartments,"Bellandur, Bengaluru",9.774551943324884,1.5349316247862699,7,7,431
229,TrustedStay Service Apartments in Marathahalli,12.9389529,77.6961732,Apartments,"Bellandur, Bengaluru",11.009304838761205,1.521190462866269,6,7,408
230,I Cloud Elite Suites,12.9328997,77.6846307,Apartments,"Bellandur, Bengaluru",10.014552802281933,1.854480283853532,8,9,534
231,Oakhaven service Apartments sarjapur road,12.9153327,77.6781705,Apartments,"Bellandur, Bengaluru",7.9557375755879365,2.650338701870106,15,17,1011
232,"283, Duplex Apartment",12.9035581,77.6788791,Apartments,"Bellandur, Bengaluru",6.697678742108762,3.3815131533521594,20,24,1414
234,Bellandur,12.9259792,77.6760837,Apartments,"Bellandur, Bengaluru",9.081083807669302,2.6058168656779293,16,18,1054
235,"The Irish House, Sarjapur, Bengaluru",12.920359,77.6842016,Apartments,"Bellandur, Bengaluru",8.651357172409119,1.8299275590964734,11,11,687
236,Sri Lakshmi PG for Ladies,12.9249173,77.6757835,Apartments,"Bellandur, Bengaluru",8.959440002652384,2.640238372584004,9,11,641
237,RmZ Ecospace,12.9271463,77.6810426,Apartments,"Bellandur, Bengaluru",9.305242106033258,2.073523826134764,8,9,516
238,Bellandur Main Layout,12.9225815,77.6723276,Apartments,"Bellandur, Bengaluru",8.652576831794727,3.0343883970845944,11,13,766
239,Adarsh Palm Retreat,12.9234947,77.6851069,Apartments,"Bellandur, Bengaluru",9.013557021401567,1.6483786024475673,9,10,595
240,NYNA PG for Ladies,12.9276021,77.6719687,Apartments,"Bellandur, Bengaluru",9.203459757235041,3.058104860649241,16,18,1064
242,K K Comforts Gents PG,12.9270379,77.6764886,Apartments,"Bellandur, Bengaluru",9.204149994470736,2.5654129196956648,10,11,672
243,Sobha Dream Acres - Flats for Sale in Bangalore,12.9382954,77.7262934,Apartments,"Bellandur, Bengaluru",12.393169269761936,3.156564025636137,13,14,831
244,IM compact tea square,12.9277009,77.6724601,Apartments,"Bellandur, Bengaluru",9.219953987046908,3.0057026768137693,16,18,1085
245,"E-STAMP CENTRE BELLANDUR, NOTARY AFFIDAVITS %26 RENTAL AGREEMENTS",12.9280105,77.6766071,Apartments,"Bellandur, Bengaluru",9.312982844594359,2.560568671315061,10,12,698
246,Eidgah and Masjid E Bilal,12.9309821,77.678263,Apartments,"Bellandur, Bengaluru",9.668000978931007,2.4379127115424346,10,11,635
247,Capital O 8739 Stay Inn Rooms Bellandur,12.9243373,77.6743052,Apartments,"Bellandur, Bengaluru",8.872786450819621,2.803414828489932,10,11,682
249,Balaji service apartment,12.9348836,77.7024834,Apartments,"Bellandur, Bengaluru",10.831416855989154,1.0389763047467737,5,6,331
250,Primemover Mobility Technologies (P) Ltd,12.9336953,77.6812996,Apartments,"Bellandur, Bengaluru",10.02428687349186,2.2201325309589195,10,11,634
251,PG,12.9295836,77.6854381,Apartments,"Bellandur, Bengaluru",9.677429284162256,1.6458491676740357,7,7,441
252,"E-STAMP CENTRE BELLANDUR , AFFIDAVITS, RENTAL AGREEMENT and NOTARY",12.9268144,77.6789449,Apartments,"Bellandur, Bengaluru",9.224718764144272,2.298294940173063,8,9,538
254,New Donne Biriyani House,12.9261658,77.6778691,Apartments,"Bellandur, Bengaluru",9.132989385674117,2.4125586314943397,8,10,581
257,sri sitha byraveshwara medicals,12.9220483,77.6720397,Apartments,"Bellandur, Bengaluru",8.590182454649971,3.0729176326042773,11,13,780
258,"Ruan Thai Spa Bellandur, Sarjapur Road",12.9191192,77.6688491,Apartments,"Bellandur, Bengaluru",8.234205504596869,3.4709509614128824,12,14,856
259,Thali House,12.9274125,77.6692169,Apartments,"Bellandur, Bengaluru",9.156878932188196,3.3545967838096082,15,17,1004
260,Apartment,12.9066194,77.7282448,Apartments,"Bellandur, Bengaluru",9.801117574650448,3.721325744326629,19,21,1280
262,100Krafts - Interior Designer in Bangalore,12.9218522,77.6720087,Apartments,"Bellandur, Bengaluru",8.568139978926622,3.0793007137161825,11,13,784
264,"FNP: Florist In Bellandur, Bangalore",12.9266988,77.6695297,Apartments,"Bellandur, Bengaluru",9.08015999198446,3.3174806103432135,14,16,971
267,Aapni Rasoi,12.925604,77.6766334,Apartments,"Bellandur, Bengaluru",9.04915565933532,2.546308593050611,9,10,609
268,BBMP Office,12.9271952,77.6762859,Office,"Bellandur, Bengaluru",9.21805716437989,2.588319664987855,10,11,678
269,Bellandur Post Office,12.9298321,77.6755284,Office,"Bellandur, Bengaluru",9.49616848910058,2.702874214808808,12,13,755
270,Pencil Interiors - Interior Designers Bangalore,12.9229634,77.6734526,Office,"Bellandur, Bengaluru",8.709294341047421,2.908407775863069,11,12,739
271,SOBHA Limited (Head Office),12.9322721,77.6844191,Office,"Bellandur, Bengaluru",9.941361488798824,1.847093145882362,8,8,493
272,"E-STAMP CENTRE BELLANDUR, NOTARY AFFIDAVITS %26 RENTAL AGREEMENTS",12.9280105,77.6766071,Office,"Bellandur, Bengaluru",9.312982844594359,2.560568671315061,10,12,698
273,Flipkart Internet Private Limited,12.9268755,77.6917056,Office,"Bellandur, Bengaluru",9.581971976058414,0.9201221511943627,5,6,344
274,Bellandur Ward150 Corporater Office,12.9266135,77.6769984,Office,"Bellandur, Bengaluru",9.166301335116236,2.508152644780089,9,11,656
275,"E-STAMP CENTRE BELLANDUR , AFFIDAVITS, RENTAL AGREEMENT and NOTARY",12.9268144,77.6789449,Office,"Bellandur, Bengaluru",9.224718764144272,2.298294940173063,8,9,538
276,Synechron Office Bellendur,12.9277791,77.680738,Office,"Bellandur, Bengaluru",9.367396509134565,2.1125200877668657,8,8,505
277,Bellandur Ward Property Tax Office,12.9271931,77.6762492,Office,"Bellandur, Bengaluru",9.217221158813466,2.592276547249164,10,11,679
278,Royal Office Furniture,12.9282668,77.6808258,Office,"Bellandur, Bengaluru",9.42243156878767,2.1093416571280543,10,12,726
279,Accenture office,12.9214754,77.6812459,Office,"Bellandur, Bengaluru",8.694108909983475,2.1027325341787533,11,12,707
280,Synergy Office,12.9287385,77.6915024,Office,"Bellandur, Bengaluru",9.771482773960017,0.9892134977600648,6,7,406
281,Genpact,12.9240792,77.6710866,Office,"Bellandur, Bengaluru",8.804209353888504,3.1533375667176244,14,16,944
282,Psk Marathalli,12.9300057,77.6842769,Office,"Bellandur, Bengaluru",9.692655010567524,1.7795376060994401,12,13,788
283,Standard Chartered Global Business Services,12.9210879,77.6842242,Office,"Bellandur, Bengaluru",8.730246939384486,1.802275209574415,11,11,654
284,Xerox,12.9268113,77.6789752,Office,"Bellandur, Bengaluru",9.224983117550094,2.2949984093469573,8,9,538
285,Livspace Corporate Office,12.9301391,77.6868052,Office,"Bellandur, Bengaluru",9.774809854651766,1.5213356838322805,7,7,431
286,eMudhra Limited,12.9240273,77.671683,Office,"Bellandur, Bengaluru",8.80487743939909,3.0891950994487525,14,16,950
287,"SAP LABS, BELLANDUR",12.9245864,77.6703116,Office,"Bellandur, Bengaluru",8.85277489118328,3.2342767011120874,14,16,980
288,Meredith India Services Private Limited,12.9197389,77.6847392,Office,"Bellandur, Bengaluru",8.600365013047377,1.7998622992120288,10,11,654
289,Reliance Jio infocomm Pvt Ltd Bangalore,12.9215774,77.6641717,Office,"Bellandur, Bengaluru",8.486275040956388,3.9253268046776553,18,21,1258
290,Cyient Limited,12.9235953,77.6807052,Office,"Bellandur, Bengaluru",8.91145854295147,2.1194762248651324,11,12,697
291,Bharath solutions,12.9288781,77.6777069,Office,"Bellandur, Bengaluru",9.427279753848993,2.453407845923155,11,12,700
292,AIG Bangalore Finance Centre,12.9221345,77.6805673,Office,"Bellandur, Bengaluru",8.749558128908758,2.159242910429441,11,11,686
293,Kerry Ingredients India Pvt. Ltd.,12.9246787,77.682405,Office,"Bellandur, Bengaluru",9.069463488519007,1.9249162368158452,10,11,652
294,Vodafone Shared Services India,12.9269039,77.6827146,Office,"Bellandur, Bengaluru",9.31805789435931,1.8909171589288527,10,10,592
295,WeWork Embassy TechVillage,12.9275892,77.6927147,Office,"Bellandur, Bengaluru",9.69255621649051,0.8268997372371272,5,6,357
296,Passport Seva Kendra,12.9303144,77.684182,Office,"Bellandur, Bengaluru",9.723632638491646,1.798686218471462,7,8,451
297,Airtel Office,12.9257174,77.6765806,Office,"Bellandur, Bengaluru",9.060695222609912,2.551938981609646,9,10,604
298,Honeywell Technology Solutions,12.9248881,77.6863003,Office,"Bellandur, Bengaluru",9.197349979912994,1.5021446462432808,9,9,539
299,eMudhra Limited,12.9302777,77.6841564,Office,"Bellandur, Bengaluru",9.71901874234337,1.8002257657472494,12,13,788
300,Wells Fargo Center,12.933244,77.6903181,Office,"Bellandur, Bengaluru",10.211053043685398,1.34550039386311,5,6,353
301,Quess Corp Ltd,12.9263984,77.6780705,Office,"Bellandur, Bengaluru",9.162248128379991,2.3912810122871853,8,9,559
302,Smartworks Global Technology Park,12.9247126,77.6830551,Office,"Bellandur, Bengaluru",9.089451196331158,1.854365101389122,10,10,602
303,Searce %7C Bangalore,12.9254549,77.674651,Office,"Bellandur, Bengaluru",9.000984584580442,2.7613459370278637,15,17,1005
304,LinkedIn,12.9268337,77.6827534,Office,"Bellandur, Bengaluru",9.311403321486795,1.8862412878996038,9,10,590
305,KPMG New Building,12.9210072,77.6832241,Office,"Bellandur, Bengaluru",8.694060193483603,1.9086925052115047,11,12,709
306,BDA Site Office Bellandur lake,12.9412681,77.679249,Office,"Bellandur, Bengaluru",10.81384063342183,2.8403794024118736,12,13,787
307,Wipro pritech park,12.9223571,77.6821579,Office,"Bellandur, Bengaluru",8.81206787485238,1.9853120974598075,12,12,719
308,Hinduja Global Solutions,12.9248717,77.6816242,Office,"Bellandur, Bengaluru",9.071484132601244,2.008109476427955,9,10,591
309,Intel Technologies India Pvt. Ltd. SRR2,12.925622,77.6845305,Office,"Bellandur, Bengaluru",9.226291967350287,1.69047335074028,11,12,713
310,Robert Bosch Engineering and Business Solutions Limited,12.9258549,77.6819585,Office,"Bellandur, Bengaluru",9.186094537754842,1.9690689296396722,9,10,587
311,Biggie's office,12.925886,77.6772837,Office,"Bellandur, Bengaluru",9.091573948575672,2.475717950322819,8,10,583
312,Xiaomi,12.9312787,77.6855883,Office,"Bellandur, Bengaluru",9.864123751362937,1.6882700076629256,8,9,536
313,Ping Identity,12.9247871,77.6830682,Office,"Bellandur, Bengaluru",9.097836742769905,1.8524129463017809,10,10,604
314,"Amazon Transport Pvt Ltd ,Bellandur",12.9240033,77.6760532,Office,"Bellandur, Bengaluru",8.863483129996082,2.6169418391116754,10,11,667
315,Microsoft Corporation (India) Pvt Ltd,12.9215646,77.669147,Office,"Bellandur, Bengaluru",8.507758290445615,3.3908522243300765,11,13,759
316,Airtel Store Bellandur,12.9257181,77.67658,Office,"Bellandur, Bengaluru",9.060761765472252,2.5520036349567294,9,10,604
317,NCR Corporation,12.9256769,77.6820014,Office,"Bellandur, Bengaluru",9.16781252952616,1.9644881361834543,9,10,575
318,SEZ office-RMZ Ecoworld,12.9259062,77.6860213,Office,"Bellandur, Bengaluru",9.298334189770577,1.528776055244283,8,9,531
319,Bellandur Froth Point,12.9309259,77.6781022,Office,"Bellandur, Bengaluru",9.658935420256144,2.4534028066649616,10,11,637
320,Manu Office,12.9327764,77.6834966,Office,"Bellandur, Bengaluru",9.97355074441567,1.961036196233747,9,9,562
321,ITRON INDIA PRIVATE LIMITED,12.9214588,77.684166,Office,"Bellandur, Bengaluru",8.768456244141001,1.7967228948510734,11,11,656
322,Genpact India,12.923926,77.6812845,Office,"Bellandur, Bengaluru",8.960831173088582,2.053025977489366,10,10,604
323,TwinQ ,12.9246825,77.674536,Office,"Bellandur, Bengaluru",8.914200256836684,2.7764201289678927,9,11,658
324,Traveloka Office,12.9288803,77.6916023,Office,"Bellandur, Bengaluru",9.789845767027602,0.9843168300939674,4,5,283
325,HSBC Electronic Data Processing,12.9268804,77.6804732,Office,"Bellandur, Bengaluru",9.263736242097298,2.133256291054691,10,10,619
326,WeWork Vaishnavi Signature,12.92544,77.6747613,Office,"Bellandur, Bengaluru",9.00098133186458,2.749418720747659,15,17,1008
327,Directi Internet Solutions Pvt Ltd,12.924479,77.6821939,Office,"Bellandur, Bengaluru",9.042642549006983,1.9493267959813918,10,10,624
328,Zebra Technologies,12.9250146,77.6817969,Office,"Bellandur, Bengaluru",9.091093611812408,1.9886338255107552,9,10,577
329,Bangalore JDA Office,12.9260329,77.6761578,Office,"Bellandur, Bengaluru",9.088210813311882,2.5978318814325996,9,11,631
330,Netskope India Office,12.9241994,77.6952718,Office,"Bellandur, Bengaluru",9.435537632848146,0.5564418885542161,3,4,229
331,Say arcade passport office parking,12.9304278,77.678404,Office,"Bellandur, Bengaluru",9.609828136500036,2.4092273096928323,10,10,625
332,Kmart office solutions,12.9272636,77.6771277,Office,"Bellandur, Bengaluru",9.239904028897996,2.497726112061283,10,12,707
333,Fastenal,12.9262723,77.6828671,Office,"Bellandur, Bengaluru",9.253419133155324,1.8712497875980822,9,9,562
334,P V R REAL ESTATE %26 CONSTRUCTION OFFICE,12.9246998,77.6745011,Office,"Bellandur, Bengaluru",8.915591409165847,2.780111094751129,9,11,659
335,Microland Limited,12.9260035,77.6798853,Office,"Bellandur, Bengaluru",9.155529397774199,2.193842143432017,11,11,670
336,Intel Technology India Pvt. Ltd. - SRR 3,12.9244864,77.6845575,Office,"Bellandur, Bengaluru",9.104793171012814,1.6939648495279902,9,10,584
337,Vodafone Bangalore office,12.9262475,77.683029,Office,"Bellandur, Bengaluru",9.254767894068573,1.8536381090985887,9,9,546
338,AIG Bangalore FC Pritech Park,12.9222669,77.6805325,Office,"Bellandur, Bengaluru",8.76313778166574,2.1601992900642486,11,11,683
339,Accenture Office BDC7C,12.9232907,77.6794264,Office,"Bellandur, Bengaluru",8.849988635919837,2.2611502490608903,13,13,789
340,Optum,12.9222146,77.6840677,Office,"Bellandur, Bengaluru",8.846974099717201,1.7862268467789522,10,11,642
341,Microsoft Prestige Ferns Galaxy,12.9214996,77.6691194,Office,"Bellandur, Bengaluru",8.500329123100437,3.394831364855813,11,13,758
342,Passport Office Parking Area,12.9308485,77.6842886,Office,"Bellandur, Bengaluru",9.784080856065918,1.8050684449652725,8,8,482
343,Street Letter Box,12.9301778,77.675495,Office,"Bellandur, Bengaluru",9.53373415865506,2.71303385573755,12,12,741
344,Intel Entry Gate,12.9293796,77.6844532,Office,"Bellandur, Bengaluru",9.629513192890062,1.7440256115703523,7,7,439
345,CX100 India Headquarters,12.9271787,77.6829313,Office,"Bellandur, Bengaluru",9.35313738888548,1.869687489810413,8,9,520
346,Honeywell Technology Solutions Lab Pvt. Ltd,12.919418,77.6860944,Office,"Bellandur, Bengaluru",8.606970663498902,1.679514090533278,10,10,613
347,Bengaluru Office,12.9326915,77.68353,Office,"Bellandur, Bengaluru",9.965134942511826,1.9540028410984935,9,9,561
348,Sree Rajeshwari Printers,12.927309,77.676062,Office,"Bellandur, Bengaluru",9.22690242437713,2.6133108070942725,10,11,686
349,IndiQube Edge,12.9221884,77.6695377,Office,"Bellandur, Bengaluru",8.580149795499166,3.339815903418287,10,12,720
350,Plate IQ India,12.9322679,77.6836842,Office,"Bellandur, Bengaluru",9.922892404081981,1.9205728071486663,9,9,541
351,"CoWrks Ecoworld, Bengaluru",12.9208663,77.6849997,Office,"Bellandur, Bengaluru",8.728696766340653,1.7297743395325882,10,10,613
352,Intel,12.9247295,77.6808195,Office,"Bellandur, Bengaluru",9.037356505471882,2.0960653866745114,11,11,646
353,Genpact Headstrong Capital Markets,12.9224362,77.6806874,Office,"Bellandur, Bengaluru",8.785113369069359,2.1403013005939133,11,11,676
354,Veveo India Pvt Ltd,12.9297205,77.6904696,Office,"Bellandur, Bengaluru",9.841222326498153,1.1326753861502266,5,6,333
355,SLN rice traders bellandur,12.9274041,77.6759597,Office,"Bellandur, Bengaluru",9.235708060921317,2.6250607508200687,10,12,690
356,Accenture bdc7 tower c pritech park,12.9237829,77.6796776,Office,"Bellandur, Bengaluru",8.909026695865768,2.2278928051041507,13,13,801
357,Extreme Networks,12.9249469,77.6818947,Office,"Bellandur, Bengaluru",9.086092606214178,1.978403618691579,10,10,598
358,"882,Bellandur Main Road",12.9278592,77.675775,Office,"Bellandur, Bengaluru",9.282826330187458,2.648868669728065,10,12,714
359,Genpact Pritech Park Tower 12,12.9224437,77.6794871,Office,"Bellandur, Bengaluru",8.758988343806573,2.268331082763546,12,13,768
360,PEARL MARK DEVELOPERS,12.9288486,77.6763339,Office,"Bellandur, Bengaluru",9.400580824063058,2.600434758261026,10,12,725
361,Aurbis Business Parks Pvt Ltd,12.9302304,77.6868217,Office,"Bellandur, Bengaluru",9.785077451457568,1.5228725735545836,7,7,428
362,ZEE TECH %26 INNOVATION CENTRE,12.9263648,77.6798781,Office,"Bellandur, Bengaluru",9.194775773276737,2.1953487315431532,11,12,702
363,Replicon,12.9331831,77.6836457,Office,"Bellandur, Bengaluru",10.02121769180052,1.9645896658803528,9,9,556
364,"C To C Sourcing Servicess, (Head office), Bengaluru",12.9277639,77.6726818,Office,"Bellandur, Bengaluru",9.229527215222735,2.9822312734139325,17,18,1088
365,Shell India Markets Private Limited,12.9246453,77.6884596,Office,"Bellandur, Bengaluru",9.2376525844816,1.271299919521596,9,10,596
366,EPAM Bangalore,12.9263892,77.6830389,Office,"Bellandur, Bengaluru",9.270346945111434,1.8530300895663527,9,9,543
367,N S Builders %26 Developers,12.9290306,77.6769125,Office,"Bellandur, Bengaluru",9.430177713117912,2.541024188423384,11,12,746
368,"Time Inc. India, Mapletree Office",12.9271672,77.6827902,Office,"Bellandur, Bengaluru",9.348429193978298,1.884828849972542,8,9,520
369,Altaf Building,12.9300516,77.675149,Office,"Bellandur, Bengaluru",9.514714197005292,2.7475054889659605,12,13,760
370,HSBC East Campus,12.9268844,77.6803669,Office,"Bellandur, Bengaluru",9.261867691540825,2.1447838181240533,11,11,676
371,Precept Labs Pvt Ltd,12.9264538,77.6761133,Office,"Bellandur, Bengaluru",9.133731444422313,2.603485676316642,9,11,645
372,"Higrid - Car Wrapping, Vehicle Branding, Office Interior Design, Fleet Graphics Bangalore",12.928578,77.672104,Office,"Bellandur, Bengaluru",9.312904541545297,3.0524273151661343,16,18,1089
373,2gethr @ ORR,12.9332801,77.6835518,Office,"Bellandur, Bengaluru",10.0295108831023,1.9783406081436739,9,10,580
374,SAP India Pvt. Ltd.,12.9197868,77.6849156,Office,"Bellandur, Bengaluru",8.61066986619784,1.7801460046948474,10,11,632
375,Super jumbo Xerox and prints,12.9272015,77.6765185,Office,"Bellandur, Bengaluru",9.222623931843861,2.5631968426747833,9,11,671
376,Bright Computers Bellandur - Laptop Services%7C Computer Services,12.9286096,77.6764262,Office,"Bellandur, Bengaluru",9.37581614182991,2.58720379695129,10,12,718
377,Symbol Technologies India Pvt Ltd,12.9250972,77.6816641,Office,"Bellandur, Bengaluru",9.096897519765902,2.002618359264987,9,10,580
378,Geo Tourist Bellandur,12.9277039,77.6766302,Office,"Bellandur, Bengaluru",9.279690257068934,2.5550668759983317,10,12,704
379,"Accenture BDC7, Tower C",12.9238188,77.6799708,Office,"Bellandur, Bengaluru",8.91931175110833,2.1958749334121492,13,13,795
380,Leon Job Solutions,12.9269846,77.669353,Office,"Bellandur, Bengaluru",9.110460132188848,3.337695822871502,15,17,1016
381,"Advaith Hyundai Service Center, Bellandur, Outer Ring Road",12.9300393,77.6839595,Office,"Bellandur, Bengaluru",9.688288774383102,1.813726237195981,12,13,783
382,Bangalore 2 - KPMG Global Services Private Limited,12.9269305,77.6828633,Office,"Bellandur, Bengaluru",9.324586192220407,1.8750253482075723,8,9,527
383,Venkateshwara Enterprises,12.9305505,77.6852381,Office,"Bellandur, Bengaluru",9.776342045427327,1.6969629705676617,7,8,506
384,Zolo Symphone Co-Living %7C Redefining PG,12.9267189,77.6698394,PG,"Bellandur, Bengaluru",9.084934382804748,3.2839973113761465,14,16,972
385,Cozy Room%E2%80%99s. Men Pg,12.9230283,77.6741546,PG,"Bellandur, Bengaluru",8.726358652388917,2.8319934792296584,11,12,737
386,Zolo Branka PG,12.9267897,77.6741725,PG,"Bellandur, Bengaluru",9.141230962440206,2.814926177977067,11,13,772
387,Sunshine PG For Men,12.925855,77.6704598,PG,"Bellandur, Bengaluru",8.994694539634366,3.215267652558546,14,17,990
388,Zolo Nirvana Co-Living %7C Redefining PG,12.9281779,77.6707757,PG,"Bellandur, Bengaluru",9.254983843193665,3.1917423142317016,17,19,1115
389,Elite PG for Men,12.9266337,77.6690557,PG,"Bellandur, Bengaluru",9.069280330001579,3.3686295945823015,15,17,1028
390,Ashrita PG for Gents,12.9274536,77.6741341,PG,"Bellandur, Bengaluru",9.213915443192242,2.8228498510832316,11,12,749
391,Lakshmi Ramana PG For Ladies,12.925055,77.6761236,PG,"Bellandur, Bengaluru",8.98019594288624,2.602856204554777,9,11,630
392,SLNS PG for Gents,12.9216302,77.6637828,PG,"Bellandur, Bengaluru",8.491797588358503,3.966476595117751,14,16,959
393,Colive Glory PG,12.9259981,77.6723225,PG,"Bellandur, Bengaluru",9.030105984446436,3.013450976769128,13,14,868
394,Sai PG Accommodation,12.922245,77.6727568,PG,"Bellandur, Bengaluru",8.620789758371115,2.992958272352709,12,13,805
395,Ramya PG For Gents,12.9293274,77.6780513,PG,"Bellandur, Bengaluru",9.482766089359531,2.423965229484855,11,12,700
396,SLNS PG for Ladies,12.927724,77.6721856,PG,"Bellandur, Bengaluru",9.219362371562106,3.035558580108075,16,18,1072
397,Sri Laxmi PG,12.9212962,77.6648536,PG,"Bellandur, Bengaluru",8.45612930780167,3.8559334950041184,13,14,868
398,Susheelaa PG Accommodation,12.9235872,77.6738196,PG,"Bellandur, Bengaluru",8.78317050991503,2.862004753313368,10,11,681
399,VRR PG Bellandur,12.9290722,77.6778927,PG,"Bellandur, Bengaluru",9.45190889084216,2.436568893340433,11,12,703
400,SSM PG,12.9283835,77.6858512,PG,"Bellandur, Bengaluru",9.5595351661293,1.5730861332916986,6,7,443
401,New raghavendra luxury pg for gents,12.9269755,77.6693417,PG,"Bellandur, Bengaluru",9.10936315923857,3.3388807616858647,15,17,1016
402,Sri Sai Gents PG,12.9286508,77.6773329,PG,"Bellandur, Bengaluru",9.395719847673778,2.4902451580715317,11,12,740
403,Sri Venkateswara Pg For Gents,12.9293268,77.6779926,PG,"Bellandur, Bengaluru",9.481631716909112,2.4302338974984043,11,12,698
404,SLV PG for Ladies,12.9310156,77.6835257,PG,"Bellandur, Bengaluru",9.78331998973821,1.8894569632747549,9,9,543
405,Lifestyle PG For Ladies,12.9274873,77.6725727,PG,"Bellandur, Bengaluru",9.197661771842975,2.9919703296941482,16,18,1078
406,Prasanna Anjaneya Girls Pg,12.9269713,77.6771552,PG,"Bellandur, Bengaluru",9.20831657844908,2.4928824339919258,10,12,695
407,Lotus Luxury pg for ladies,12.923481,77.6740296,PG,"Bellandur, Bengaluru",8.774440839761711,2.840392934515847,10,12,721
408,New Sapthagiri Ladies Pg In Bellandur,12.9277148,77.6728307,PG,"Bellandur, Bengaluru",9.225888220587617,2.965745077422337,17,18,1088
409,Ravindra PG for Ladies,12.9277781,77.671345,PG,"Bellandur, Bengaluru",9.216310342305514,3.126857794412576,16,18,1081
410,PG,12.9295836,77.6854381,PG,"Bellandur, Bengaluru",9.677429284162256,1.6458491676740357,7,7,441
411,k.k comforts new pg for ladies,12.9276332,77.6764247,PG,"Bellandur, Bengaluru",9.26848698224411,2.5766400382528913,10,11,685
412,NYNA PG for Ladies,12.9276021,77.6719687,PG,"Bellandur, Bengaluru",9.203459757235041,3.058104860649241,16,18,1064
413,Yeti PG for men 1 (Raghavendra Yeti),12.9252367,77.6714881,PG,"Bellandur, Bengaluru",8.936539160253675,3.1045182059349896,15,17,996
414,Nikhil Sai Girls PG,12.9241218,77.6742585,PG,"Bellandur, Bengaluru",8.848361815523589,2.8099831447512065,10,11,689
415,SR Stays Royal PG for Men,12.9252417,77.67438,PG,"Bellandur, Bengaluru",8.973531723784683,2.7911658509434285,15,17,997
416,LVS PG,12.9221444,77.6648539,PG,"Bellandur, Bengaluru",8.550427809261883,3.8447103726008534,13,15,878
417,Krish PG for Gents,12.927531,77.6722671,PG,"Bellandur, Bengaluru",9.1989447759886,3.0253281809583217,16,18,1066
418,Amaravathi Luxury Pg for Ladies,12.9223248,77.6759909,PG,"Bellandur, Bengaluru",8.678094144120102,2.6446586633673435,10,12,699
419,Sai Krupa Gents PG,12.9229362,77.6737894,PG,"Bellandur, Bengaluru",8.710970195220245,2.872465144588341,10,12,732
420,ShivSai PG,12.93071,77.682794,PG,"Bellandur, Bengaluru",9.732703735369798,1.9554103522484043,8,9,531
421,Sri Rama PG,12.9261553,77.6782681,PG,"Bellandur, Bengaluru",9.139402542229613,2.3693031891572502,8,10,583
422,Sri Sai Manasa PG,12.927017,77.6701302,PG,"Bellandur, Bengaluru",9.120475175246025,3.2536737803345015,15,17,1013
423,CSR Stay Inn PG for Ladies,12.9242397,77.674826,PG,"Bellandur, Bengaluru",8.869786559071267,2.747748338779758,11,12,734
424,Sri Lakshmi Sai Pg For Women,12.927933,77.6705822,PG,"Bellandur, Bengaluru",9.226045509280393,3.2105432436758985,17,19,1112
425,Happy 2 Stay for Gents PG(Co-Living),12.9267675,77.6692358,PG,"Bellandur, Bengaluru",9.08547800130978,3.3495486688376843,15,17,1023
426,Zolo Zeppelin Co-Living %7C Redefining PG,12.9281343,77.6719719,PG,"Bellandur, Bengaluru",9.262367624485426,3.0621461278451623,16,18,1075
427,LNS PG,12.9273221,77.6867051,PG,"Bellandur, Bengaluru",9.4698187330384,1.4641133178950148,6,8,450
428,SRI SAI HI TECH LADIES PG,12.925429,77.6692253,PG,"Bellandur, Bengaluru",8.936938101144062,3.3493525581173853,16,18,1073
429,Orchids PG For Ladies,12.9240368,77.6743626,PG,"Bellandur, Bengaluru",8.840514758552187,2.7993833167756614,10,12,704
430,Sri Sai Balaji PG For Gents,12.9264837,77.671299,PG,"Bellandur, Bengaluru",9.072554601343851,3.1251663278348794,15,17,1028
431,Sri rama pg for gents,12.9300484,77.6773534,PG,"Bellandur, Bengaluru",9.549470686774947,2.512384536865187,11,11,659
432,SLR PG FOR LADIES,12.9274339,77.6775825,PG,"Bellandur, Bengaluru",9.266682284298776,2.449847094132097,10,12,703
433,HAVELI STUDIO ROOMS FOR GENTS (PG),12.9259759,77.6704028,PG,"Bellandur, Bengaluru",9.007560407532045,3.221485658994185,14,16,987
434,Sri Durga PG (Bellandur),12.9194618,77.671122,PG,"Bellandur, Bengaluru",8.293659288124884,3.2222210425883,12,14,840
435,Sairam mens PG,12.9291492,77.6764287,PG,"Bellandur, Bengaluru",9.43517022815006,2.5947936495118,10,12,734
436,Sai Balaji PG for Gents,12.9293919,77.6764954,PG,"Bellandur, Bengaluru",9.462938328923725,2.5916284603506092,10,12,741
437,Lotus premium pg for Gents,12.9273856,77.6710898,PG,"Bellandur, Bengaluru",9.17028302720245,3.1517502783023517,15,17,1030
438,Sri Lakshmi PG for gents,12.9280529,77.6761433,PG,"Bellandur, Bengaluru",9.310008454823738,2.6110542633809186,11,12,747
439,Queens Royal pg for ladies,12.9234864,77.6739678,PG,"Bellandur, Bengaluru",8.77415316783107,2.847007491255613,10,12,721
440,Anusha PG for Gents,12.9273279,77.6709478,PG,"Bellandur, Bengaluru",9.162494207293499,3.166772284901673,15,17,1025
441,Shri Lakshmi Gents PG,12.9292345,77.6768606,PG,"Bellandur, Bengaluru",9.451698374654228,2.5498633223982767,11,13,759
442,Mounika PG,12.9288071,77.6855265,PG,"Bellandur, Bengaluru",9.596198058548636,1.616702739555206,6,8,456
443,Sivasai PG,12.9307606,77.682852,PG,"Bellandur, Bengaluru",9.739560421443516,1.9509471648084424,8,9,531
444,Paradise Pg For Gents,12.9264978,77.677045,PG,"Bellandur, Bengaluru",9.154424446038554,2.5026891715602972,9,11,656
445,Sri Thirumala Sai Baba Life Style PG for Gents,12.9275631,77.6866947,PG,"Bellandur, Bengaluru",9.495341388045597,1.4685153979607197,6,7,442
446,New Life Style PG For Gents,12.928167,77.6766638,PG,"Bellandur, Bengaluru",9.331126127814775,2.556163770409697,10,12,708
447,Srinivasa luxury Men's PG,12.9293908,77.6775755,PG,"Bellandur, Bengaluru",9.481179555554744,2.4759937571377986,11,11,673
448,Sns pg for gents,12.9261576,77.6735505,PG,"Bellandur, Bengaluru",9.063044365417822,2.8805374750390187,12,13,794
449,K K Comforts Gents PG,12.9270379,77.6764886,PG,"Bellandur, Bengaluru",9.204149994470736,2.5654129196956648,10,11,672
450,Paradise PG-1,12.9310687,77.6831098,PG,"Bellandur, Bengaluru",9.779092294787734,1.9341975841766916,8,9,518
451,Sri Lakshmi Pg For Gents,12.9280977,77.6771633,PG,"Bellandur, Bengaluru",9.332059750240335,2.501527512062836,10,12,726
452,Sri lakshmi cennakesava swamy pg for ladies,12.9201862,77.6779841,PG,"Bellandur, Bengaluru",8.481166608988948,2.4804285325255377,12,13,794
453,Sri Lakshmi PG for Ladies,12.9249173,77.6757835,PG,"Bellandur, Bengaluru",8.959440002652384,2.640238372584004,9,11,641
454,JAYALAKSHMI PG FOR GENTS,12.9289592,77.6783766,PG,"Bellandur, Bengaluru",9.44843326353149,2.38284781531516,12,12,723
455,Swami Narendra PG for Gents In Bellandur,12.9262039,77.6761103,PG,"Bellandur, Bengaluru",9.106217017782056,2.603215804937503,9,11,639
456,SNS PG For Ladies,12.9252429,77.6719819,PG,"Bellandur, Bengaluru",8.942679825435567,3.050998731716075,15,17,1007
457,Royal PG for Gents,12.9300792,77.6764269,PG,"Bellandur, Bengaluru",9.537387362195933,2.611712067656901,11,11,686
458,Lexus Premium PG For Gents,12.9279092,77.6716017,PG,"Bellandur, Bengaluru",9.23348350533146,3.100159161147323,16,18,1072
459,Swamy Narendra Gents PG,12.9262913,77.6766688,PG,"Bellandur, Bengaluru",9.125218472445859,2.542873614302709,9,11,645
460,ARTOS Luxury A%2FC PG FOR GENTS,12.9260004,77.6712823,PG,"Bellandur, Bengaluru",9.018886486705163,3.12618453828078,15,17,1006
461,Sri Venkateshwara Luxury PG for Ladies,12.9259352,77.6691062,PG,"Bellandur, Bengaluru",8.992173743802342,3.361986983653041,15,18,1055
462,Laxmi PG For Ladies,12.9279235,77.6777545,PG,"Bellandur, Bengaluru",9.323474084317956,2.4358613496669514,10,12,715
463,Shri Sai Luxury Pg Bellandur,12.926863,77.6761287,PG,"Bellandur, Bengaluru",9.17896040520855,2.6034323446701726,10,11,667
464,Jayanthi PG For Ladies,12.9278814,77.6709118,PG,"Bellandur, Bengaluru",9.223443331199238,3.174500633177982,16,18,1098
465,Navadeep Pg For gents,12.9269584,77.6714068,PG,"Bellandur, Bengaluru",9.126213944276168,3.115169398513828,16,18,1080
466,Laxmi Narasimha PG for Men,12.9278732,77.6867459,PG,"Bellandur, Bengaluru",9.530054456836767,1.4679631199307583,6,7,430
467,Balaji Pg for gents,12.9217401,77.6766909,PG,"Bellandur, Bengaluru",8.626316954882387,2.5802999604006835,11,12,731
468,Suresh Mens PG,12.9219991,77.6761795,PG,"Bellandur, Bengaluru",8.645605589977114,2.6300617232962744,10,12,708
469,YETI PG FOR LADIES,12.925823,77.6704136,PG,"Bellandur, Bengaluru",8.990720407179177,3.220273358528117,14,17,991
470,Venkata sai pg for gents,12.9270951,77.6759357,PG,"Bellandur, Bengaluru",9.201343197062217,2.625587626167451,10,12,690
471,SURYA ROYAL HOMES PAYING GUEST FOR LADIES,12.9283075,77.6708717,PG,"Bellandur, Bengaluru",9.270251704486553,3.182589168923472,17,19,1112
472,New Swamy Narendra PG for Gents,12.9286534,77.6771217,PG,"Bellandur, Bengaluru",9.392334236010864,2.5129893920326483,11,12,741
473,Kethan pg for gents,12.9296005,77.6775249,PG,"Bellandur, Bengaluru",9.503296956744084,2.485236956796753,11,11,667
474,Balaji PG for Ladies,12.9272155,77.6773686,PG,"Bellandur, Bengaluru",9.238891050801174,2.4713323215743506,10,12,698
475,Sri Venkata Sai pg for gents new pg,12.9280394,77.6746037,PG,"Bellandur, Bengaluru",9.285090673664147,2.7770714710889823,12,13,762
476,Narendra Pg,12.9270863,77.676987,PG,"Bellandur, Bengaluru",9.217988257699094,2.511768001336819,10,11,688
477,LNS PG 2 For Men,12.9275611,77.6891759,PG,"Bellandur, Bengaluru",9.57037329302439,1.2024294428640396,5,6,350
478,Sri Venkateshwara Lifestyle Pg For Gents,12.9279862,77.6755284,PG,"Bellandur, Bengaluru",9.292957509852743,2.6767272563396656,11,12,727
479,Sri Ganesh Sai Balaji Paying Guest,12.9220666,77.6650789,PG,"Bellandur, Bengaluru",8.542284859445472,3.8214021897395125,13,15,870
480,Sri Manjunath PG,12.926357,77.6779659,PG,"Bellandur, Bengaluru",9.155743856321491,2.4024960514467204,8,9,562
481,Varsha Ladies Pg,12.9273264,77.6770322,PG,"Bellandur, Bengaluru",9.245126392585508,2.5085092969973526,10,12,703
482,Shri Rama Luxury New PG For Gents,12.9288326,77.6766242,PG,"Bellandur, Bengaluru",9.403592352768753,2.569007979325401,10,12,724
483,SLV PG FOR GENTS,12.9269195,77.6874592,PG,"Bellandur, Bengaluru",9.448990230234672,1.3782806378134087,7,8,451
484,Venkateswara Paradise pg for Ladies,12.9278286,77.6875223,PG,"Bellandur, Bengaluru",9.548043905538758,1.3840918101238924,6,7,398
485,Sssg Pg For Gents,12.9306063,77.6849823,PG,"Bellandur, Bengaluru",9.775667133310055,1.725246594029695,7,7,439
486,Ashwini PG Gents,12.9241391,77.6741656,PG,"Bellandur, Bengaluru",8.84892596717867,2.8198998438085536,10,11,689
487,Guru Lohitha Pg for gents,12.9281389,77.677031,PG,"Bellandur, Bengaluru",9.334289132668815,2.516256750215389,10,12,721
488,Sai best PG,12.9252933,77.6744536,PG,"Bellandur, Bengaluru",8.98028572719857,2.783063000765675,15,17,999
489,Sri Rama PG for Men,12.9300509,77.6764152,PG,"Bellandur, Bengaluru",9.534086871338907,2.61239160711561,11,11,686
490,Oxygen PG For Ladies,12.9253331,77.6696109,PG,"Bellandur, Bengaluru",8.929391284537493,3.307726188023198,14,16,938
491,SSM Luxury Homes For Ladies,12.9288961,77.6854203,PG,"Bellandur, Bengaluru",9.602901729563701,1.6300128754717873,7,8,461
492,Narendra Ladies PG,12.9281929,77.6775023,PG,"Bellandur, Bengaluru",9.348476001931454,2.4660847941121617,11,12,749
493,Sri Lakshmi Pg For Gents,12.9197496,77.669935,PG,"Bellandur, Bengaluru",8.313427909123595,3.341224058462622,12,14,840
494,Sri balaji pg,12.9292391,77.6768402,PG,"Bellandur, Bengaluru",9.451860826224202,2.5521256553513294,11,13,758
495,Kings and Queens Pg For Gents,12.9273833,77.6707056,PG,"Bellandur, Bengaluru",9.166302321976236,3.193312686659321,15,17,1017
496,SNS LuxuryPG For Gents,12.9273616,77.6760256,PG,"Bellandur, Bengaluru",9.232096569123042,2.6176225129316526,10,11,687
497,Nissi PG Bellandur,12.9253864,77.6771807,PG,"Bellandur, Bengaluru",9.034938076200199,2.48735592051003,10,12,691
498,New Sri Jp Comforts Ladies Pg,12.9239174,77.6745275,PG,"Bellandur, Bengaluru",8.829799575794317,2.782539368816978,10,12,708
499,Swami Narendra PG,12.9270637,77.6760846,PG,"Bellandur, Bengaluru",9.200301899634129,2.609287465110525,10,11,685
500,RVR Pg For Gents,12.9276453,77.6893358,PG,"Bellandur, Bengaluru",9.58440932022413,1.1868868734385538,5,6,351
501,Colive Alpha,12.9260398,77.6702214,PG,"Bellandur, Bengaluru",9.012989088652791,3.241188854325807,14,16,985
502,Sri lakshmi ladies pg,12.9201082,77.668839,PG,"Bellandur, Bengaluru",8.343812133689239,3.4500627672429176,13,15,885
503,New Csr Ladies Pg,12.9241811,77.674787,PG,"Bellandur, Bengaluru",8.862741873494812,2.752392145807765,11,12,732
504,Vishnu Pg For Ladies,12.9281734,77.6709122,PG,"Bellandur, Bengaluru",9.255787413641677,3.1769577011332752,17,19,1111
505,SRI SAI FRIENDS MENS PG,12.9246927,77.672937,PG,"Bellandur, Bengaluru",8.89336723040281,2.9494960085170128,14,16,970
506,Sri Ganesh PG Ladies,12.9296005,77.6855561,PG,"Bellandur, Bengaluru",9.682424529792772,1.6339643690151995,7,7,441
507,Sri Ravindra Gents Pg,12.9279352,77.687578,PG,"Bellandur, Bengaluru",9.561099855256678,1.3800982366620151,6,7,397
508,shanivi ladies pg,12.9299414,77.6775003,PG,"Bellandur, Bengaluru",9.54027537916643,2.494536971842129,10,11,655
509,Lotus pg gents,12.9205654,77.6699147,PG,"Bellandur, Bengaluru",8.403620200458569,3.326226344272304,13,14,857
510,PVR PG for Gents,12.9265333,77.6886858,PG,"Bellandur, Bengaluru",9.445559803159068,1.2424653439523505,5,6,348
511,RAGHAVENDRA Gents Luxury PG Iblur,12.9221221,77.6650768,PG,"Bellandur, Bengaluru",8.548449622720739,3.8209577852777605,13,15,870
512,Sri Durga PG for ladies,12.9307952,77.6832687,PG,"Bellandur, Bengaluru",9.75322504031496,1.908761491880773,8,9,533
513,Chandra PG for Ladies,12.9239605,77.6740709,PG,"Bellandur, Bengaluru",8.827883036056306,2.8315275331006773,10,12,704
514,Thirupathi Narendra PG for Ladies,12.9279033,77.6776455,PG,"Bellandur, Bengaluru",9.319285234354133,2.4474075914445748,10,12,714
515,Shiva Mallikarjuna PG for Gents,12.9311507,77.6847925,PG,"Bellandur, Bengaluru",9.829551967509573,1.7642076452768223,7,8,456
517,SNS Balaji PG,12.927353,77.6727341,PG,"Bellandur, Bengaluru",9.184742454489111,2.9736228187696185,16,18,1075
518,GOODWILL PG FOR LADIES,12.9253562,77.6772112,PG,"Bellandur, Bengaluru",9.032176859012186,2.4841196211099286,10,12,690
519,Sri Lakshmi chennakesava swamy PG for GENTS,12.9216535,77.6765791,PG,"Bellandur, Bengaluru",8.61479580380607,2.5939338817158406,11,12,737
520,Om Sai Ram Mens pg,12.9296552,77.6775198,PG,"Bellandur, Bengaluru",9.509209672400146,2.486815531577519,11,11,665
521,Kiran PG,12.9264041,77.6736952,PG,"Bellandur, Bengaluru",9.092173795970426,2.865338467534083,12,13,791
522,Swami Narendra Thirupathi PG for GENTS.,12.9279748,77.6775067,PG,"Bellandur, Bengaluru",9.32463357128485,2.4631416000214097,11,12,739
523,SAI LAKSHMI LUXURY P.G FOR LADIES,12.9274252,77.6769422,PG,"Bellandur, Bengaluru",9.25440951563797,2.5189926956293576,10,12,699
524,Geejay Ladies PG for Women,12.9197848,77.668833,PG,"Bellandur, Bengaluru",8.307897559896343,3.457511011906459,13,15,883
525,Chandra Ladies PG,12.912888,77.6805439,PG,"Bellandur, Bengaluru",7.74761808517999,2.564092273232195,14,16,970
526,Sri venkateshwara pg for ladies,12.9392499,77.6970306,PG,"Bellandur, Bengaluru",11.070875723752165,1.5298750764680649,7,7,430
527,haveli pg mens,12.9304278,77.678404,PG,"Bellandur, Bengaluru",9.609828136500036,2.4092273096928323,10,10,625
528,Sri Lakshmi Narasimha Swamy PG For Men,12.9272866,77.6761739,PG,"Bellandur, Bengaluru",9.226262154623265,2.6010511270153347,10,11,682
529,Amaravathi PG for Ladies,12.9239331,77.6740323,PG,"Bellandur, Bengaluru",8.824311899384535,2.835924402826062,10,12,705
530,Paradise Studio Rooms for Gents,12.931054,77.6831078,PG,"Bellandur, Bengaluru",9.777449981386974,1.9339123853155746,8,9,519
531,Sri venkateshwara luxury Pg for ladies,12.9199216,77.6688083,PG,"Bellandur, Bengaluru",8.322878396508338,3.4572148722723406,12,15,876
532,Shatamanam bhavati pg,12.9250326,77.6670665,PG,"Bellandur, Bengaluru",8.87922745091946,3.584116484280861,14,16,953
533,SRI VAISHNAVI LADIES PG,12.9271174,77.677374,PG,"Bellandur, Bengaluru",9.228228551124616,2.470090815736016,10,12,698
534,Chandana new exclusive pg,12.9260363,77.6761585,PG,"Bellandur, Bengaluru",9.088596032918705,2.5977593701460147,9,11,631
535,Om Sri Ram PG for Gents,12.9217049,77.6635639,PG,"Bellandur, Bengaluru",8.499999865633125,3.9890734458147397,14,16,957
536,Venkateshwara Girls PG,12.9219147,77.6646679,PG,"Bellandur, Bengaluru",8.524524279803709,3.8675457057311755,13,15,884
537,Sree Ganesh Balaji pg,12.9271203,77.6701899,PG,"Bellandur, Bengaluru",9.132448692550678,3.2476969021800084,15,17,999
538,OYO LIFe,12.9204846,77.670154,PG,"Bellandur, Bengaluru",8.396913356418619,3.302303531555736,13,14,845
539,cozy Pg Ladies bellandur main road,12.9247639,77.6758296,PG,"Bellandur, Bengaluru",8.943333489556375,2.635956138107267,9,11,640
540,Vasavi PG for Gents,12.9307549,77.6757049,PG,"Bellandur, Bengaluru",9.600444390677806,2.702926987797749,11,12,719
541,Pg,12.9315705,77.6833594,PG,"Bellandur, Bengaluru",9.83947378986557,1.9261959103087065,8,8,505
542,Haveli PG for men,12.9260387,77.6704461,PG,"Bellandur, Bengaluru",9.014918504510353,3.2168362166424256,14,16,983
543,Lakshmi Balaji Pg For Gents,12.9290751,77.6765947,PG,"Bellandur, Bengaluru",9.429751390366572,2.5758196542094933,10,12,736
544,Sathyanaraya Gents PG,12.9280133,77.6764086,PG,"Bellandur, Bengaluru",9.3099898807339,2.5820146218985176,10,12,697
545,Lotus comfort PG for gents,12.9283349,77.6868495,PG,"Bellandur, Bengaluru",9.5825295609399,1.4657679500706675,6,7,421
546,Sri Durga Luxury Gents Pg,12.9290591,77.6767546,PG,"Bellandur, Bengaluru",9.430651868416174,2.5584121330937104,11,12,741
547,Narendra boys pg sjp,12.9195919,77.6689582,PG,"Bellandur, Bengaluru",8.287491503312294,3.448450885237424,13,15,878
548,Shiva Sai PG For Ladies,12.9278765,77.6709114,PG,"Bellandur, Bengaluru",9.222896779911677,3.1745047318503623,16,18,1098
549,Half BHK PG,12.9261401,77.6703569,PG,"Bellandur, Bengaluru",9.025331262281213,3.2266047216787186,14,16,981
550,Tranquil homes,12.9268674,77.6771376,PG,"Bellandur, Bengaluru",9.196607009066318,2.494225092933677,10,12,696
551,BHAVIKA'S PG FOR LADIES,12.9351645,77.6885165,PG,"Bellandur, Bengaluru",10.36267876449135,1.6314034931121684,11,12,704
552,SWASTIK LUXURY ACCOMMODATION,12.9266193,77.670384,PG,"Bellandur, Bengaluru",9.0786738340409,3.224681376640805,15,17,995
553,Sai Ram Gents PG and Mess,12.9274509,77.6763333,PG,"Bellandur, Bengaluru",9.246940518812204,2.5850211522435016,10,11,679
554,SNS Gents PG,12.9260886,77.6722653,PG,"Bellandur, Bengaluru",9.039443970372076,3.0197298490786193,13,15,870
555,Bhavika Pg,12.9154244,77.6906093,PG,"Bellandur, Bengaluru",8.34318565814444,1.5498177460710576,9,10,571
556,My PG,12.9215278,77.6718093,PG,"Bellandur, Bengaluru",8.529931352791785,3.1060374530962234,11,13,792
557,Sri Nivas Luxury Paying Guest,12.9247051,77.6730596,PG,"Bellandur, Bengaluru",8.896302172859162,2.9361621495099035,14,16,972
558,Pg,12.9256282,77.6703415,PG,"Bellandur, Bengaluru",8.968473300093152,3.2281639156325617,15,17,998
559,Raghavendra studio rooms,12.9315868,77.6834268,PG,"Bellandur, Bengaluru",9.842855866427794,1.9199100045767115,8,8,504
560,Kaveri Residency,12.927481,77.672589,PG,"Bellandur, Bengaluru",9.197158045005532,2.990164008600708,16,18,1078
561,New Ongole PG,12.9271487,77.6892787,PG,"Bellandur, Bengaluru",9.529818190814462,1.1848756053808085,5,6,341
562,Narayan Swami jends PG,12.9213706,77.6717184,PG,"Bellandur, Bengaluru",8.511495274413551,3.118502461918058,12,13,800
563,Ram sri pg,12.9219991,77.6761799,PG,"Bellandur, Bengaluru",8.645612575157646,2.6300189433308807,10,12,708
564,CHANDANA MENS PG,12.924975,77.6729519,PG,"Bellandur, Bengaluru",8.924730955654159,2.946705406815182,14,16,972
565,SSLN Gents-Pg,12.9248766,77.6956031,PG,"Bellandur, Bengaluru",9.518763623374408,0.5015486642944637,3,4,225
566,J.p.comforts Pg,12.9502816,77.7011463,PG,"Bellandur, Bengaluru",12.376025531872058,2.7215290878033396,16,18,1054
567,Sri Jp Comforts,12.9512683,77.6939371,PG,"Bellandur, Bengaluru",12.24521437717816,2.907449114523124,13,15,890
568,NEW SHRI SAINATHA PG FOR GENTS,12.9155298,77.6982968,PG,"Bellandur, Bengaluru",8.684139072452243,1.1619994227881019,6,7,401
569,LOCL Colive %26 Work,12.9244754,77.674401,PG,"Bellandur, Bengaluru",8.889399906689459,2.79218132769331,10,11,677
570,Nyna PG- Gents,12.936879,77.701322,PG,"Bellandur, Bengaluru",10.988094500495484,1.235787324457726,7,8,474
571,Colive Kingston,12.9261506,77.6691329,PG,"Bellandur, Bengaluru",9.016268610272002,3.3592634459152784,15,17,1045
572,Kings n Queens Colive PG,12.9088259,77.6846649,PG,"Bellandur, Bengaluru",7.436621042713754,2.526240305498727,15,17,1005
573,Happy 2 Stay PG,12.9082007,77.685298,PG,"Bellandur, Bengaluru",7.3924018726250935,2.5346199188310465,15,17,1005
574,Sri Ganesh Sai Balaji Luxury PG for Gents,12.9095555,77.6817083,PG,"Bellandur, Bengaluru",7.421391241035897,2.6941433815614233,15,17,1034
575,KNR PG for Gents (Home Like PG),12.9032006,77.7057131,PG,"Bellandur, Bengaluru",7.912764807015289,2.5877083130641676,12,13,801
576,LOTUS LUXURY PG FOR GENTS,12.9518441,77.7039764,PG,"Bellandur, Bengaluru",12.643679484785276,2.9229499220087196,14,17,997
578,No,12.9188275,77.6708005,PG,"Bellandur, Bengaluru",8.219991995964081,3.2722807612728935,13,15,896
579,Vajram Esteva,12.9304665,77.6862651,appartments,bellandur,9.794942006722108,1.588441833392925,6,7,403
581,Kumari Amaranthine - Apartments in Bellandur,12.9173397,77.6982201,appartments,bellandur,8.86208817614074,0.966057927764981,6,6,357
582,Genesis Apartments,12.9260858,77.6669695,appartments,bellandur,8.995750552968463,3.5936498847861102,15,17,1011
583,Lakeland Apartments,12.9239571,77.674755,appartments,bellandur,8.837593952729312,2.757619414233325,10,12,715
584,Green Fields,12.9220953,77.676976,appartments,bellandur,8.670473758335289,2.543146958364913,10,12,723
585,Elegance Opal Apartment,12.9263908,77.6759556,appartments,bellandur,9.12422778056365,2.6203939086261188,9,11,645
586,Kristal Olivine,12.9262221,77.6745085,appartments,bellandur,9.083430782511625,2.7768247432092017,16,18,1078
587,Parijatha Apartment,12.9266246,77.6724282,appartments,bellandur,9.100600087799684,3.003242782079592,17,18,1103
588,Altair Apartment,12.9250299,77.6674172,appartments,bellandur,8.88074271304708,3.5461276126346895,17,19,1127
589,Sobha Primrose Apartments,12.9292984,77.6685994,appartments,bellandur,9.361761325823421,3.438608337333779,16,19,1111
590,Mathru Shree Apartments,12.9216284,77.6770139,appartments,bellandur,8.620028573299944,2.5480949702170834,11,13,751
591,Srinivasa Diamond Apartment,12.9230847,77.6725453,appartments,bellandur,8.710850215417397,3.0047683767134887,11,13,757
592,Prestige Kew Gardens,12.9481002,77.6780419,appartments,bellandur,11.545638604963539,3.4442244268355187,16,17,1035
593,Nikhar Aventino - Apartments near Ecoworld Tech Park Doddakannelli Bellandur,12.9156027,77.6980774,appartments,bellandur,8.681087853646579,1.1583373614753296,6,7,413
594,Green View Apartments,12.9445811,77.6791039,appartments,bellandur,11.175245919651305,3.0886689104988823,14,14,860
595,Srinivasa Apartment,12.9281903,77.6724008,appartments,bellandur,9.27337649344415,3.016365172621581,17,18,1089
596,Sterling Ascentia,12.9288752,77.6816475,appartments,bellandur,9.506909341087827,2.0312477885690376,11,13,767
597,Balaji apartments,12.9267505,77.6866412,appartments,bellandur,9.406730105372723,1.4651716052195922,7,8,471
598,Pearl Regency Apartments,12.9230434,77.6739085,appartments,bellandur,8.724476371117383,2.8583229928723983,11,12,737
599,Sobha Jasmine Apartments,12.9265426,77.6683252,appartments,bellandur,9.054094266103586,3.4475235172793703,16,18,1077
600,SR Heritage Apartment,12.9274987,77.6891487,appartments,bellandur,9.562875732440036,1.2042485301493855,5,6,347
601,Vintha Paradise Apartments,12.9257495,77.6696381,appartments,bellandur,8.975782910793251,3.3043316258992843,14,16,948
602,Abhee Prince,12.9296125,77.6733168,appartments,bellandur,9.44150933485314,2.935949033674046,13,13,801
603,Urban Lake Front Apartments,12.9237022,77.6641198,appartments,bellandur,8.722472040237049,3.9095382996503707,14,16,933
604,Sindhu Amazon Apartment,12.925522,77.6733881,appartments,bellandur,8.99075150504637,2.8981041554058944,15,17,1014
605,DKS Kutira Apartments,12.9305903,77.6750233,appartments,bellandur,9.572259113444572,2.771747422237218,12,12,741
606,Haryana Goyal %26 Sons,12.9315164,77.6786494,appartments,bellandur,9.733636284351768,2.4121258688699503,11,12,703
607,Vandana Sunshine Apartment,12.9255069,77.6690579,appartments,bellandur,8.944300181940815,3.3673903054618686,16,18,1070
608,Viceroy Saiharsha Apartment,12.9213313,77.6739686,appartments,bellandur,8.536665458960465,2.8787437474663737,12,13,809
609,Sai Sarovar Apartments,12.9264984,77.6701534,appartments,bellandur,9.063204167346758,3.2493277948100956,14,17,990
610,Mirage apartment,12.928341,77.6707856,appartments,bellandur,9.273144242443607,3.192209300126698,17,19,1114
611,1BHK bellandur,12.9222679,77.6778497,appartments,bellandur,8.706006665300917,2.446596075912921,11,13,774
612,Silver Spring Apartment,12.9283111,77.6709352,appartments,bellandur,9.271259912934367,3.175767971356627,17,19,1111
613,Sobha Daisy Apartment,12.9286054,77.6682569,appartments,bellandur,9.282638121928937,3.4677860193632526,16,18,1082
614,Sai Sunrise Apartment,12.9268226,77.6719833,appartments,bellandur,9.117400055003156,3.0521575497415507,16,17,1042
615,Sobha Hibiscus,12.922925,77.668866,appartments,bellandur,8.656454467054568,3.4033450155211207,13,15,885
616,Citilights Liberty,12.9283223,77.679446,appartments,bellandur,9.399535636238458,2.2584693678468666,11,12,749
618,Imperial Solace Apartments,12.9254937,77.6697984,appartments,bellandur,8.948766753819937,3.287157615083412,14,16,942
620,Om Shakthi Apartment,12.9279206,77.6703438,appartments,bellandur,9.222505572726877,3.23621259152681,17,19,1126
621,Golden Residency,12.9249891,77.6732024,appartments,bellandur,8.929501353647426,2.9195204506725547,14,16,976
622,SLS Splendor,12.9270612,77.6875317,appartments,bellandur,9.466306523956876,1.3719407796457275,7,7,446
623,Om Nilaya Apartment,12.9298974,77.6727694,appartments,bellandur,9.466383744511278,2.9992891924093144,13,13,808
624,Annapurneshwari Grand,12.9293626,77.6767439,appartments,bellandur,9.463818460654851,2.5645157503641625,11,13,755
625,MAK Park View Apartments,12.9262462,77.6712504,appartments,bellandur,9.045764629224802,3.129928376620979,15,17,1020
626,Kristal Jade,12.9234361,77.672153,appartments,bellandur,8.744914935685312,3.0434053785791724,10,12,701
627,Sai Sunshine Apartment,12.9279016,77.671416,appartments,bellandur,9.230709420367162,3.1201663379441587,16,18,1079
628,Oceanus Ebony Apartment,12.9204602,77.6752995,appartments,bellandur,8.461617997943632,2.756149458869836,11,13,753
629,Infra Sirenish Apartment,12.9278693,77.6719997,appartments,bellandur,9.233358736066645,3.0568146884046143,16,18,1066
630,Elegance Garnet Apartment,12.9259087,77.6775684,appartments,bellandur,9.099246328226526,2.444871028455481,9,10,593
631,Sobha Carnation,12.9278089,77.6711205,appartments,bellandur,9.21745870772005,3.151367737571243,16,18,1090
632,Gayanam Apartments,12.928051,77.6729254,appartments,bellandur,9.26418606225078,2.958396530096249,17,18,1104
633,Aarmane Nest Apartments,12.9175001,77.6752097,appartments,bellandur,8.134972938391845,2.854831907680867,14,16,985
634,Sri Nilaya Apartments,12.926499,77.674148,appartments,bellandur,9.108833601227198,2.816537634324536,12,13,786
635,Santhosai Apartment,12.9255927,77.6720101,appartments,bellandur,8.981681941909837,3.0473610387237744,16,17,1036
636,Times Square Apartment,12.9245655,77.667256,appartments,bellandur,8.828308900781709,3.56525328733854,14,16,958
637,"Orchid Lakeview Apartment, Kariyamanna Agrahara Road, Bellandur, 560103",12.9315882,77.6790615,appartments,bellandur,9.749216643910481,2.3712010589201684,12,12,740
638,BPNR Apartment,12.9290972,77.675682,appartments,bellandur,9.41760693950521,2.6741265759209,11,13,778
639,Athmiya Residency,12.9243292,77.6746305,appartments,bellandur,8.87669087980066,2.768275947846275,11,12,737
640,Surya Chandra Apartment,12.9238904,77.6738908,appartments,bellandur,8.817600781323934,2.851572551457914,10,12,695
641,Challas Bliss Apartment,12.9277598,77.6706972,appartments,bellandur,9.207929398086964,3.196761495440749,16,18,1106
642,Friends Enclave,12.9244315,77.6748436,appartments,bellandur,8.891170278919958,2.7445558426624714,11,12,743
643,SV Residency,12.9261561,77.6696702,appartments,bellandur,9.02112847223452,3.3010423879169792,14,16,957
644,Kumara Krupa Apartment,12.9299561,77.6767582,appartments,bellandur,9.529270996906032,2.5739320127358343,11,11,676
645,Sheshadri Residency,12.9273343,77.6749995,appartments,bellandur,9.213167126419348,2.728413139922712,11,14,813
646,Sapthagiri Hills Apartment,12.9216104,77.6769213,appartments,bellandur,8.61633504665177,2.5583277255488603,11,12,748
647,Durga Saffron Square Apartments,12.9302466,77.684759,appartments,bellandur,9.731039353309631,1.7365458885690546,12,13,800
648,Mana Callista Apartment,12.9230296,77.6727843,appartments,bellandur,8.707774663977442,2.9796344469416174,11,13,752
649,Mana Regency,12.9228991,77.6743606,appartments,bellandur,8.71515832031866,2.8114316778692507,10,12,719
650,Brindavan Sapthagiri,12.9220044,77.6775841,appartments,bellandur,8.672015611718148,2.4798610814826003,11,12,737
651,HMR building,12.9297776,77.6771016,appartments,bellandur,9.515424419272195,2.5338052492831187,11,12,695
652,Springfields Apartments,12.9177962,77.6694615,appartments,bellandur,8.092671478901165,3.441374995595085,14,16,975
653,Marriott Serviced Apartments,12.9291077,77.6715135,appartments,bellandur,9.36521942468401,3.1224381820989,16,18,1109
654,Maruti Grandeur,12.9272402,77.6716323,appartments,bellandur,9.15977377258344,3.0921832346582776,16,17,1049
655,Elite Unique Apartments,12.9186134,77.673652,appartments,bellandur,8.232586248283704,2.9793362105612604,12,13,808
656,Pritam Woods,12.9282359,77.6704992,appartments,bellandur,9.258844997752199,3.2221382193714927,17,19,1121
657,Vista Lagos Apartments,12.9443608,77.6796624,appartments,bellandur,11.160480831503413,3.0275686014886833,14,14,853
658,Maruthi Residency,12.926976,77.6728223,appartments,bellandur,9.144152949357066,2.96197691801131,16,18,1083
659,Aishwarya,12.9282951,77.6713472,appartments,bellandur,9.273566059937817,3.1311320059721424,16,18,1096
660,Mayflower Apartments,12.921026,77.6659327,appartments,bellandur,8.429193902234976,3.7441829862787004,11,13,795
661,Sobha Quartz,12.9247345,77.6694838,appartments,bellandur,8.861977543570744,3.323268971163254,13,15,927
662,"882,Bellandur Main Road",12.9278592,77.675775,appartments,bellandur,9.282826330187458,2.648868669728065,10,12,714
663,Pearl Drop,12.9229225,77.6739098,appartments,bellandur,8.711168265500675,2.859670422733056,10,12,729
664,psychologist,12.9227862,77.6750947,appartments,bellandur,8.714012222276923,2.733946490358434,10,12,701
665,SLV nilaya,12.9299414,77.6775003,appartments,bellandur,9.54027537916643,2.494536971842129,10,11,655
666,VijayaSri Golden Orchid,12.926942,77.6864228,appartments,bellandur,9.420925229726567,1.4904042203175236,7,8,464
667,Sri Hari Residency,12.9210429,77.6758103,appartments,bellandur,8.534252178548826,2.6885607963842917,10,12,729
668,Reddy apartments,12.9302649,77.6740127,appartments,bellandur,9.522455897075226,2.8728953837165037,12,13,774
669,Holiday Apartments Bellandur,12.92793,77.6722055,appartments,bellandur,9.242368611907603,3.0350851432020844,16,18,1079
670,SVN APARTMENTS,12.9365024,77.6851584,appartments,bellandur,10.417611374199513,2.0101915701063793,11,12,724
671,Krishna Nilaya Appartments,12.9472841,77.6815213,appartments,bellandur,11.51432325440886,3.123878334814894,15,16,941
672,Ittina Anai Apartment,12.9453114,77.6772659,appartments,bellandur,11.226966909933138,3.2912728949965913,15,15,927
673,Marouthu Homes,12.93108,77.683756,appartments,bellandur,9.795911326448005,1.8679325961740558,9,9,552
674,Apple Blossom,12.9254341,77.6709718,appartments,bellandur,8.95303053075283,3.160080750330415,15,17,1029
675,Jayani Apartments,12.9461338,77.6804383,appartments,bellandur,11.368590515373851,3.1067207563384565,14,15,886
676,Sri Sathya Sai Shakthi Nilayam Apartments,12.9212666,77.6764167,appartments,bellandur,8.56944807467578,2.6192415167061873,11,12,736
677,KR residency,12.9295158,77.6761862,appartments,bellandur,9.471569006055828,2.6268647453553418,11,13,752
678,"Zephyr Block A, Suncity Corporate Leisure",12.9239799,77.6643186,appartments,bellandur,8.75358667737033,3.886276420119247,13,15,910
679,Srinivasa's signature,12.9203955,77.6759707,appartments,bellandur,8.465979209217728,2.68678543438858,11,12,740
680,CANSA PRIDE,12.9160034,77.6975652,appartments,bellandur,8.697417595857356,1.1270182894050724,6,7,423
681,VR Sunshine Apartment,12.9236186,77.673708,appartments,bellandur,8.785075476897289,2.8737534920769767,10,11,684
682,Srinesh Apartment,12.9279392,77.6719096,appartments,bellandur,9.240102893244725,3.0671376491519218,16,18,1070
683,DSR Daffodil,12.9216893,77.6758895,appartments,bellandur,8.606580975817902,2.6668098024673803,10,12,716
684,Golden Corner,12.9194386,77.6696308,appartments,bellandur,8.27618896683004,3.380616777833176,12,14,850
685,Sujatha Residency,12.922034,77.6645671,appartments,bellandur,8.537609348433776,3.8769348466245876,13,15,888
686,I Life,12.9300399,77.6875407,appartments,bellandur,9.785239031904151,1.4422860606909673,7,8,464
687,Oceanus Triton,12.9189814,77.6754551,appartments,bellandur,8.301819603554835,2.780145951545159,13,14,851
688,"Mayflower N Block, Adarsh Palm Retreat",12.9178596,77.6916752,appartments,bellandur,8.63734342866188,1.2743067872684855,14,14,855
689,Sri Siva Sai Vue Grande Apartments,12.9238309,77.674399,appartments,bellandur,8.818366705447174,2.7971726125723495,10,12,703
690,Sri Dakshayani Apartments,12.9487179,77.6851732,appartments,bellandur,11.744782742501279,3.0175210405258985,17,18,1055
691,Kristal Ruby,12.9228143,77.6726032,appartments,bellandur,8.68170655407144,3.0017334502818085,11,13,756
692,SJR Residency,12.9276542,77.6889908,appartments,bellandur,9.574424400772164,1.223910651820975,6,6,382
693,"122, Samruddhi Residency , Green Glen Layout",12.9281281,77.6706516,appartments,bellandur,9.2483034233384,3.2047002174075248,17,19,1119
694,Naveen House,12.9291685,77.6776545,appartments,bellandur,9.458193849628316,2.4636943870021635,11,11,685
695,JNR Nilaya Apartment,12.9266409,77.6742619,appartments,bellandur,9.12607591596937,2.8046621492187276,11,13,774
696,Adarsh Palm Retreat Tower 1 (Gulmohar),12.9202513,77.6889567,appartments,bellandur,8.788857799574618,1.3601291660140957,8,8,479
697,DSR Regency,12.9254887,77.6696045,appartments,bellandur,8.946590195277073,3.308176992158005,14,16,941
698,Abhee Lake View Apartments,12.9169618,77.6777863,appartments,bellandur,8.125090642181263,2.6142364385757952,15,17,1038
699,Sreepadmam Apartments,12.9158148,77.6987132,appartments,bellandur,8.732392287455951,1.1237488173242194,6,6,376
700,Kalpa Vruksha Apartments,12.9216853,77.676416,appartments,bellandur,8.615353915019167,2.610701013443058,10,12,732
701,DSR WINDSOR APARTMENTS,12.9252335,77.6717127,appartments,bellandur,8.938627035297417,3.0801896936652833,15,16,989
702,Unitech Blossoms,12.930474,77.682351,appartments,bellandur,9.696764352200164,1.994618534417895,9,9,546
703,Pearl Paradise,12.9232376,77.6741589,appartments,bellandur,8.74948345906579,2.829066279305787,11,12,744
704,Orchid Lakeview - Goyal %26 Co %7C Hariyana Group,12.9315276,77.6777491,appartments,bellandur,9.718693351497054,2.506726054747827,14,14,840
705,Anjali Apartment,12.9191821,77.6750729,appartments,bellandur,8.317414798536028,2.814066065751396,11,13,773
706,Land Mark Apartment,12.928329,77.671246,appartments,bellandur,9.276297902890033,3.142389013085463,16,18,1099
707,P.N.R Residency,12.920467,77.6688277,appartments,bellandur,8.383519925312013,3.4441369024170374,13,15,903
708,Prabha Residency,12.9294708,77.6715622,appartments,bellandur,9.40591287922369,3.122177407890662,14,14,855
709,Krishna Lilac,12.9190386,77.6726664,appartments,bellandur,8.26567055532673,3.070379305593769,12,14,846
710,Hamilton Surabhi Apartment,12.9270963,77.6716201,appartments,bellandur,9.143720317794664,3.092732812328078,16,18,1074
711,T K Towers,12.9295945,77.676317,appartments,bellandur,9.482319305409318,2.6142517867085173,11,12,701
712,Venugopal Building,12.9279843,77.6749254,appartments,bellandur,9.283673766132674,2.7418028152001424,11,12,748
713,DSR Cosmos,12.9258433,77.6718758,appartments,bellandur,9.007885920196129,3.061804274439786,16,17,1031
714,Girish Apartment,12.946116,77.680329,appartments,bellandur,11.364711032248644,3.11343357980218,14,15,884
715,Suncity Block 9 - Galaxy,12.9258374,77.6648788,appartments,bellandur,8.961048259684059,3.8201209217360663,15,17,1009
716,Rashmi Yarun nilayam,12.9277699,77.6753773,appartments,bellandur,9.266829257139166,2.6910004090459543,10,12,712
717,Y C R Enclave,12.9297714,77.6771043,appartments,bellandur,9.514789469166951,2.5333976347793143,11,12,695
718,Samaikyaa's Pride,12.92753,77.6731345,appartments,bellandur,9.209210142859646,2.931505298260147,17,18,1093
719,Bhavanna Residency,12.9291708,77.6748204,appartments,bellandur,9.412895887287286,2.7677528073619957,12,13,806
720,Samhitha's Apartment,12.915938,77.6754636,appartments,bellandur,7.968009798543115,2.89033776338906,14,16,937
721,Krishna Residency Building,12.9218084,77.6761347,appartments,bellandur,8.623895535659386,2.6383622365864148,10,12,712
722,Varsha Grand,12.9169531,77.6756087,appartments,bellandur,8.081931965026602,2.8345578689441995,14,16,968
723,Ambience Diva Apartments,12.9184055,77.6718202,appartments,bellandur,8.184987185810185,3.176913281820527,14,16,943
724,Navya Gruha,12.9187989,77.6750684,appartments,bellandur,8.275234475348775,2.826023023008313,11,13,778
725,Cobain Lives,12.929277,77.6752217,appartments,bellandur,9.4304480585583,2.7262980844583002,12,13,798
726,MAARQ ALPHA,12.9143175,77.7024491,appartments,bellandur,8.771579986322168,1.30425343741325,9,9,541
727,Suncity Apartments Owners Association,12.9232058,77.6664831,appartments,bellandur,8.67359082387911,3.6578961382056767,13,15,912
728,Malathi.K,12.9207902,77.6701076,appartments,bellandur,8.430323178485152,3.3013145548294265,13,14,853
729,Srimitra Lotus,12.9441855,77.6790829,appartments,bellandur,11.13142787848752,3.060837198731684,14,15,876
730,Mana Callista,12.9304278,77.678404,appartments,bellandur,9.609828136500036,2.4092273096928323,10,10,625
731,Gopala Krishna Building,12.9288523,77.6775696,appartments,bellandur,9.422000976269477,2.467753181660037,11,12,700
732,Sobha Dahlia,12.9289522,77.6705654,appartments,bellandur,9.33881517837575,3.222598964487063,16,18,1091
733,Sri Anjana Galaxy,12.9257755,77.6703344,appartments,bellandur,8.98472844253471,3.228862116179612,14,17,993
734,Suncity Apartments,12.9255055,77.6654327,appartments,bellandur,8.925480378542586,3.7602623731417872,14,15,927
735,Sumeru Apartment,12.9271566,77.6767412,appartments,bellandur,9.221466236321719,2.5388091195308924,10,11,680
736,Sai Residency,12.931,77.6749,appartments,bellandur,9.615664139618115,2.7938862727892793,12,13,772
737,Vijay Reddy Building,12.9290595,77.6750452,appartments,bellandur,9.40388824600878,2.741963147452225,12,13,798
738,Brother Nivas Apartments,12.9449233,77.680733,appartments,bellandur,11.24112973697182,2.98775836793959,14,14,866
739,Sree Shore's Icon Apartment Homes,12.9443548,77.6775583,appartments,bellandur,11.12592328986048,3.197948726857796,14,15,909
740,Gokulum Apartment,12.9291574,77.6754702,appartments,bellandur,9.420998767892371,2.697779844420153,11,13,780
741,Everest apartment,12.9296891,77.6867404,appartments,bellandur,9.724671368328337,1.5130458329937293,7,8,451
742,1B Tower,12.922438,77.6711145,appartments,bellandur,8.622863307797088,3.16682742540279,12,14,816
743,Asad's Home,12.921192,77.6717829,appartments,bellandur,8.492501239880989,3.1148261437294966,12,13,803
744,Banyan Tree Apartments,12.9345341,77.6869822,appartments,bellandur,10.252228187758735,1.7224801941045473,9,10,613
745,Shwetha Residency,12.9163581,77.6746981,appartments,bellandur,8.000886397618256,2.95023895794346,13,16,932
746,My home,12.9331591,77.6853759,appartments,bellandur,10.061499235735434,1.7945897622189741,9,10,588
747,The House Project,12.9198219,77.6699982,appartments,bellandur,8.32202966685085,3.3328960375393883,12,14,838
748,Garudadari Residency,12.927286,77.6867779,appartments,bellandur,9.468066293979387,1.4558219609282017,6,8,451
749,Paras Pearl Apartment,12.9273038,77.6695154,appartments,bellandur,9.14713608303027,3.3216724365686265,14,17,992
750,Reliaable Acacia Apartments,12.9246428,77.6674314,appartments,bellandur,8.837830258442112,3.545928617768947,14,16,957
751,Malibu Rivona,12.9270245,77.6724289,appartments,bellandur,9.144814511286258,3.0048073184989312,16,18,1085
752,Sagar Home @bangalore,12.930021,77.6725328,appartments,bellandur,9.477313407698718,3.0267264868342787,13,14,826
753,Flat apartment,12.9300508,77.6838345,appartments,bellandur,9.686415130292838,1.8271452984412693,12,13,808
754,Block 2 Sobha Jasmine,12.9260617,77.6680693,appartments,bellandur,8.999090843193548,3.474439359921705,16,18,1056
755,Sri Balaji Residency,12.9273644,77.672787,appartments,bellandur,9.186640304642175,2.967971735028142,16,18,1076
756,Janardhana Reddy Building,12.9266723,77.674975,appartments,bellandur,9.139891724105663,2.7275377424735088,11,14,830
757,The SIGNATURE,12.9213686,77.6718271,appartments,bellandur,8.512540950765835,3.1069074219439092,12,13,799
758,Hamesh Tiwari,12.922769,77.671671,appartments,bellandur,8.66557876170935,3.102701264660567,12,13,804
759,Kul I Life,12.9505982,77.6995473,appartments,bellandur,12.353083527828218,2.7552077467012865,9,12,699
760,Golden Residency,12.9409679,77.7020761,appartments,bellandur,11.44063467376767,1.6968467813878405,10,10,592
761,The Waves Serviced Apartments,12.9262149,77.6764431,appartments,bellandur,9.112982756633526,2.5671727994528735,9,11,639
762,Suncity Apartments 6th Block,12.926564,77.6651591,appartments,bellandur,9.042443661494591,3.790624183129853,14,16,954
763,Mantri Espana,12.9345051,77.6835708,appartments,bellandur,10.162918991271033,2.037342778250242,11,11,676
764,80 Trees,12.9176613,77.6979436,appartments,bellandur,8.881738007542435,0.9382634773110523,5,6,338
765,Sashikala Apartment,12.9457117,77.7056755,appartments,bellandur,12.075683690447885,2.2914368578377684,18,20,1221
766,NCCCL,12.9226019,77.6720017,appartments,bellandur,8.650921170205581,3.0691951463710048,11,13,790
767,Shanti Niketan Apartment,12.9373071,77.7009978,appartments,bellandur,11.019171920146531,1.2800689920387232,6,7,402
768,ViceroySree Apartments,12.919247,77.6730022,appartments,bellandur,8.293192641803524,3.0294348501047956,13,14,857
769,Vishranti Park - Suncity Apartments,12.9261621,77.6655805,appartments,bellandur,8.998887465361749,3.7442558055104738,14,16,945
770,Hamilton Bliss,12.9256385,77.671597,appartments,bellandur,8.982169035238408,3.0920912702232406,15,17,1025
771,Minent Serviced Apartment,12.9267367,77.6712223,appartments,bellandur,9.099774161880045,3.1342572912361013,17,18,1090
772,NIRMAN SONESTAA DEVELOPERS,12.9298924,77.6739949,appartments,bellandur,9.481109102154884,2.8679774403425675,13,13,801
773,Shankara nilaya,12.9465018,77.6799827,appartments,bellandur,11.40104169453209,3.1703823220934697,14,15,900
774,Channakrishnappa building,12.9462016,77.6841521,appartments,bellandur,11.448536107492291,2.8513594218745646,16,17,1004
776,Apartment,12.9224363,77.6705931,appartments,bellandur,8.617328092823884,3.2229635494897457,12,14,837
777,Siesta Bellandur,12.9310673,77.6838338,appartments,bellandur,9.796445426349745,1.8594827021063014,9,9,554
778,Alpine Apartment,12.9283503,77.6714227,appartments,bellandur,9.280446984253912,3.123526276879397,16,18,1094
779,Sai Iris Apartment,12.9261877,77.6995018,appartments,bellandur,9.815525794219571,0.07877608600827099,1,1,22
780,Primrose,12.9246969,77.674662,appartments,bellandur,8.917657494487091,2.762705609177718,9,11,655
781,The Central Regency Address,12.9210555,77.6706568,appartments,bellandur,8.46508886079497,3.237705438418076,12,14,812
782,Butterfly Apartment,12.9388256,77.6987498,appartments,bellandur,11.089478013364094,1.4531224961651874,6,7,402
783,Melody Park - Suncity Apartments,12.9249554,77.6662502,appartments,bellandur,8.867052862845966,3.6727758780020303,15,16,989
784,Sobha Marvella,12.9267833,77.6726791,appartments,bellandur,9.121124507431205,2.9766404386616983,17,18,1092
785,Sobha Mayflower,12.9281297,77.6698471,appartments,bellandur,9.241406219873479,3.291632191222943,16,18,1082
786,Bellanduru Junction City Light Apartment,12.925542,77.676131,appartments,bellandur,9.033825213568795,2.600829973501181,9,10,616
787,Brindavan Lake View Residency,12.9217132,77.6784259,appartments,bellandur,8.65693859317077,2.3960002770143984,11,13,763
788,Navasiri Apartments,12.9348844,77.7020355,appartments,bellandur,10.81256867713738,1.0282099292514209,5,6,343
789,"Lustre - Block 11, Suncity Apartments",12.9249299,77.6648751,appartments,bellandur,8.860149049903468,3.8218292623219887,15,17,992
790,Shivalaya Apartments,12.9060107,77.694967,appartments,bellandur,7.575538835743398,2.2732861334752985,11,12,739
792,"Mayflower, Tower 7, Adarsh Palm Retreat Phase 3 Condominiums",12.9177155,77.6908839,appartments,bellandur,8.59217929000227,1.3479518139282582,14,15,873
793,KRISTAL BROOKITE,12.9230184,77.6725081,appartments,bellandur,8.703064811190146,3.0095356098700043,11,13,758
794,Nandu Associates,12.929869,77.684837,appartments,bellandur,9.692301443427384,1.7169736146824481,6,7,416
795,Lotus Palace Apartment (Sarjapur Road),12.9084475,77.6794482,appartments,bellandur,7.2397900509774376,2.9592897890816747,16,18,1062
796,Ganesh Apartment,12.9496316,77.7007016,appartments,bellandur,12.291884591743468,2.6477421051965053,15,18,1050
797,Polaris Apartment,12.9066204,77.6897894,appartments,bellandur,7.400997420839834,2.411684588643195,13,14,838
798,Kamadhenu Apartment,12.9347005,77.7040163,appartments,bellandur,10.878977395964096,1.0729973132387778,4,5,279
799,NCC Nagarjuna Green Woods,12.9394558,77.6922243,appartments,bellandur,10.932005040287612,1.7407759539226515,9,9,562
800,The Signature by Delta,12.9104488,77.6862674,appartments,bellandur,7.662924315119502,2.2760101272223716,14,16,958
801,Bhanwar Sarjapur- Apartment,12.9117171,77.7001118,appartments,bellandur,8.396391833745549,1.5688967413633066,8,9,526
802,DSR Emerald,12.9248214,77.6668214,appartments,bellandur,8.854592307514014,3.6113238535200884,14,16,978
803,August Grand,12.9090972,77.6904703,appartments,bellandur,7.6835789265775105,2.1344331147845983,14,15,928
804,avigna apartments,12.9039839,77.7029845,appartments,bellandur,7.817372074699744,2.448454183172884,12,13,764
805,suncity appartments mini ground,12.9262187,77.6641993,appartments,bellandur,9.00236746159224,3.8940044459633536,15,17,999
808,RC Sainikethan,12.9293218,77.6853883,appartments,bellandur,9.6478888696516,1.6439462636920656,7,8,471
810,Rangesh Apartments,12.9331887,77.7053367,appartments,bellandur,10.785164627223523,0.9944543515415837,5,5,297
811,Padma Lake View,12.9334733,77.7054305,appartments,bellandur,10.818144361320476,1.0263217993501246,4,5,289
812,Ashoka Residency,12.9075138,77.6980691,appartments,bellandur,7.87997901389612,2.0484618176154097,10,11,684
813,Home,12.9085556,77.675479,appartments,bellandur,7.159976195083771,3.290047693140513,18,20,1228
814,Adarsh Palm Retreat Tower 4 D Block,12.9187985,77.689358,appartments,bellandur,8.649838478097571,1.4046119013172507,12,12,739
815,Sobha Royal Pavilion,12.8986743,77.7045659,appartments,bellandur,7.433263079423584,3.0572805098425735,13,14,864
817,"%2330, New building",12.9369006,77.7006773,appartments,bellandur,10.964328627785017,1.2328282886438569,7,8,455
819,Bellandur,12.9259792,77.6760837,appartments,bellandur,9.081083807669302,2.6058168656779293,16,18,1054
820,Sri Apartment,12.9498993,77.7017692,appartments,bellandur,12.358521615961294,2.6826859258972013,15,17,1027
821,"Boulevard Springsfield, Sarjapur Road",12.917967,77.670175,appartments,bellandur,8.118302414741569,3.3617663377992537,14,16,969
822,Humaid's Apartment,12.9114648,77.6796769,appartments,bellandur,7.571576508087581,2.7317939530641766,15,17,1037
823,Home,12.9065153,77.6805334,appartments,bellandur,7.0616313608649,3.020034368764641,23,26,1555
825,TrustedStay Service Apartments in Marathahalli,12.9389529,77.6961732,appartments,bellandur,11.009304838761205,1.521190462866269,6,7,408
827,Prestige SummerFields,12.9235188,77.6951794,appartments,bellandur,9.361482161061188,0.5944574421555525,3,4,232
832,Bellandur Main Layout,12.9225815,77.6723276,appartments,bellandur,8.652576831794727,3.0343883970845944,11,13,766
836,SWASTIK LUXURY ACCOMMODATION,12.9266193,77.670384,appartments,bellandur,9.0786738340409,3.224681376640805,15,17,995
838,Balaji service apartment,12.9348836,77.7024834,appartments,bellandur,10.831416855989154,1.0389763047467737,5,6,331
840,Apartment,12.9066194,77.7282448,appartments,bellandur,9.801117574650448,3.721325744326629,19,21,1280
841,Oakhaven service Apartments sarjapur road,12.9153327,77.6781705,appartments,bellandur,7.9557375755879365,2.650338701870106,15,17,1011
842,My rent House,12.9113602,77.6975448,appartments,bellandur,8.232439330328301,1.6327467559074915,8,9,522
846,Kalpana Villa,12.9034901,77.7038636,appartments,bellandur,7.824681780089063,2.5164967257938233,11,12,733
847,"Bellanduru, Light Apartment",12.926219,77.677173,appartments,bellandur,9.126107249463283,2.488087647157625,8,9,547
848,Innovative Oak Garden,12.9291933,77.7040188,appartments,bhoganahalli,10.322298600465809,0.5639536754404938,4,4,229
