index,Place_name,Latitude,Longitude,Category,Region,haversine_distance_from_centroid,haversine_distance_from_voosh_kitchen,09_30_voosh,19_00_voosh,13_30_voosh,distance_in_meters_from_voosh
0,Madhuban Apartments,12.9383132,77.60969140000002,Apartments,"Adugodi, Bengaluru",2.4834009377251625,2.1663348159835816,11,12,10,710
4,Prestige Acropolis,12.935308099999999,77.61047370000001,Apartments,"Adugodi, Bengaluru",2.159536578071742,1.8217278911213208,8,10,8,577
7,Esteem Splendor 2,12.9377956,77.6091066,Apartments,"Adugodi, Bengaluru",2.4218734008328613,2.129447368736355,12,12,10,730
8,Brindavan Apartment,12.9382437,77.6097782,Apartments,"Adugodi, Bengaluru",2.4764363744510027,2.1563615406269587,10,11,9,655
10,Sorina Apartments,12.937561099999998,77.61155579999999,Apartments,"Adugodi, Bengaluru",2.424425098640586,2.0384281501412613,11,12,10,727
11,Prakash Apartments,12.940097300000001,77.6077109,Apartments,"Adugodi, Bengaluru",2.6745963191921245,2.420220185422102,12,13,10,782
12,Ansal Krsna,12.9378069,77.6100691,Apartments,"Adugodi, Bengaluru",2.43082332402412,2.101202300033506,10,11,9,660
16,Sanjeevegowda,12.9408351,77.60999890000001,Apartments,"Adugodi, Bengaluru",2.76557765706339,2.429687200399512,12,13,11,789
18,SLV Apartments -3,12.9360211,77.6090295,Apartments,"Adugodi, Bengaluru",2.2243918552835025,1.945272236172495,13,15,12,891
19,Prema Nilaya Apartment,12.9406304,77.6080901,Apartments,"Adugodi, Bengaluru",2.733814399676565,2.463257912289394,11,12,10,731
23,Esteem Splendor 1,12.9381227,77.6093822,Apartments,"Adugodi, Bengaluru",2.459918643617933,2.155341104377473,11,12,10,712
25,Crystal Rock Apartments,12.9368891,77.60903859999999,Apartments,"Adugodi, Bengaluru",2.3208283344333887,2.0360479510209832,13,14,12,844
28,Shanthi Nilaya Apartment,12.9406546,77.6084403,Apartments,"Adugodi, Bengaluru",2.7370002577244947,2.45439302337672,11,12,10,722
31,Samuthya Apartment,12.9402291,77.60832070000001,Apartments,"Adugodi, Bengaluru",2.689464123724017,2.413124583250422,12,12,10,737
36,Adithya om enclave,12.9415073,77.6174647,Apartments,"Adugodi, Bengaluru",3.0137283926829,2.4541786763599975,14,15,12,895
42,Rani Residency,12.939498599999999,77.6088175,Apartments,"Adugodi, Bengaluru",2.6096624882507102,2.3195146687846075,11,12,10,723
44,Prestige St. John's Wood,12.930061199999999,77.6106751,Apartments,"Adugodi, Bengaluru",1.5865434832224554,1.2625453310514445,8,9,7,532
48,Sai Krupa Apartments,12.9375149,77.6123378,Apartments,"Adugodi, Bengaluru",2.4345355875699464,2.019096963132407,12,13,11,798
52,Krishna Apartment,12.9285032,77.61108259999999,Apartments,"Adugodi, Bengaluru",1.4266410343152196,1.0857950898384297,6,7,6,420
54,Dixit%E2%80%99s Apartmet,12.9402192,77.6173703,Apartments,"Adugodi, Bengaluru",2.87593558587953,2.3106684060756026,13,14,11,839
56,"%2354, Sri Nivasa",12.9403055,77.6086993,Apartments,"Adugodi, Bengaluru",2.6989045521770723,2.4090875806066827,12,12,10,742
57,Sri Laxmi Nivas,12.9404852,77.6082048,Apartments,"Adugodi, Bengaluru",2.7177740649797433,2.444075815274203,11,12,10,735
62,Soram Residency,12.9404025,77.607674,Apartments,"Adugodi, Bengaluru",2.7085706143130097,2.4535803082982115,12,13,10,774
63,Police QRS. ADUGODI,12.9397605,77.6120715,Apartments,"Adugodi, Bengaluru",2.674853441727542,2.270332183656936,11,12,10,717
65,"G Block, Inside Adugodi Police Quaters",12.9401179,77.6136537,Apartments,"Adugodi, Bengaluru",2.747568235630683,2.291603661134344,12,12,10,739
72,Jordiie's Place,12.9403453,77.607679,Apartments,"Adugodi, Bengaluru",2.7022049690266816,2.4473945175285112,12,13,10,775
74,Sai Balaji Residency,12.9267832,77.6099718,Apartments,"Adugodi, Bengaluru",1.214239898986226,0.9768888805357328,5,6,5,332
75,Sipani classe 2,12.9405273,77.6190537,Apartments,"Adugodi, Bengaluru",2.977032650735152,2.3708454578431573,14,15,12,873
77,Vinod Raj's Home,12.940044199999999,77.60806540000002,Apartments,"Adugodi, Bengaluru",2.6686176668273074,2.402183782215781,12,12,10,749
78,Sapthagiri Apartments,12.927683,77.611051,Apartments,"Adugodi, Bengaluru",1.3373921407647376,1.0043979562805365,6,7,6,411
81,Sree Vatsa Nilaya Apartments,12.927306199999999,77.6113865,Apartments,"Adugodi, Bengaluru",1.3068315247726718,0.9509359708351938,6,7,6,436
83,Shanvi Apartment,12.9407744,77.6189205,Apartments,"Adugodi, Bengaluru",2.996413726073632,2.395335550730925,14,14,12,866
92,1BHK Apartments,12.9322131,77.61095040000001,Apartments,"Adugodi, Bengaluru",1.8272459896933126,1.4773335406769754,7,8,7,478
96,"45 , 1 - Nicky%E2%80%99s ",12.940358,77.607714,Apartments,"Adugodi, Bengaluru",2.7035806762034857,2.447485415956586,12,13,10,775
98,Tavarekere Apartment,12.9278183,77.61005379999999,Apartments,"Adugodi, Bengaluru",1.329092221632099,1.068982310950298,6,7,6,410
99,Sri Sai PG,12.9362751,77.60878199999999,Apartments,"Adugodi, Bengaluru",2.251343759934703,1.9809837604028808,13,15,12,885
101,Sathya Apartments,12.9335385,77.60811890000001,Apartments,"Adugodi, Bengaluru",1.9452800561734738,1.7289044670104818,8,9,8,565
102,Vision Appartments,12.939925500000001,77.6163804,Apartments,"Adugodi, Bengaluru",2.808669661203594,2.2691123237716053,14,15,13,911
105,BH24 Blue Hills service apartment,12.9323027,77.6101949,Apartments,"Adugodi, Bengaluru",1.8242677424305438,1.5135972946994183,6,8,6,452
108,S 23 51 Laskar,12.938202699999998,77.60924709999999,Apartments,"Adugodi, Bengaluru",2.4679098559920756,2.168100009644899,11,12,9,705
110,The Mayfair Apartments,12.939376600000001,77.6218297,Apartments,"Adugodi, Bengaluru",2.999661941608827,2.321423512825337,11,12,10,717
111,Building No. 2,12.940661,77.6175807,Apartments,"Adugodi, Bengaluru",2.929961039145644,2.3620087845471764,13,14,12,851
115,SG Residency,12.9320507,77.6102724,Apartments,"Adugodi, Bengaluru",1.7976679668929678,1.484412453913875,6,7,6,437
116,Insta Guest House - Koramangala,12.9355474,77.61300820000001,Apartments,"Adugodi, Bengaluru",2.2371515323411133,1.7924038740543682,10,11,9,641
118,Apartment 6D,12.9366969,77.6163113,Apartments,"Adugodi, Bengaluru",2.4692673135974905,1.9103780982420653,12,12,10,745
120,Citizen Tower Building,12.927937199999999,77.6099542,Apartments,"Adugodi, Bengaluru",1.3403126028086487,1.085867037506771,6,7,6,414
122,Pavan Apartments,12.926870599999999,77.6106647,Apartments,"Adugodi, Bengaluru",1.2395406182503914,0.9445712448354016,6,6,5,376
123,House,12.9367675,77.6158994,Apartments,"Adugodi, Bengaluru",2.4605586754028823,1.9156686095889806,11,12,10,732
124,SpringHeights @ Koramangala,12.9394724,77.6181926,Apartments,"

",2.8322527617232374,2.2397182850356248,13,14,11,816
127,"Opposite sri hari hara pg, Blue colour paint apartment",12.9364531,77.60892890000001,Apartments,"Adugodi, Bengaluru",2.2718187306368853,1.9941745390527057,13,15,12,902
128,Sankar Residency,12.9379394,77.619807,Apartments,"Adugodi, Bengaluru",2.753580054806698,2.1067472281281203,12,13,12,789
129,NPR apartment,12.927048300000001,77.6086532,Apartments,"Adugodi, Bengaluru",1.2259681730537035,1.0870956387211095,4,5,4,324
130,Adarsh Vihar Apartment,12.9304459,77.60108120000001,Apartments,"Adugodi, Bengaluru",1.7652336594978928,1.942624691575076,11,12,11,732
131,Iman service apartments,12.935215600000001,77.6199608,Apartments,"Adugodi, Bengaluru",2.4984813919490834,1.8191362961020268,10,11,10,658
133,Apartment complex,12.9253431,77.6064458,Apartments,"Adugodi, Bengaluru",1.0464271631367763,1.1372376249271183,5,6,5,342
135,Saicharan Apartments,12.935842999999998,77.62671,Apartments,"Adugodi, Bengaluru",2.9977088478112557,2.2052206621872608,10,11,10,655
138,Vishnupada Apartments,12.9330761,77.6273024,Apartments,"Adugodi, Bengaluru",2.826967544843858,2.0022690588428835,10,11,10,646
140,%23373,12.935044900000001,77.6197947,Apartments,"Adugodi, Bengaluru",2.472903589113465,1.7957928344322265,10,11,10,654
141,Home,12.9411733,77.6213028,Apartments,"Adugodi, Bengaluru",3.147345010532817,2.4958846709848204,13,14,12,828
143,Saniya Residency,12.9281277,77.60664399999999,Apartments,"Adugodi, Bengaluru",1.3508002146730032,1.322029268031066,6,7,6,442
144,Alcove Service Apartments,12.9285724,77.6318027,Apartments,"Adugodi, Bengaluru",2.937890859267477,2.069391555195539,12,12,11,749
146,470 Koramangala,12.9340963,77.6197447,Apartments,"Adugodi, Bengaluru",2.380502992252889,1.693282991805478,9,10,9,591
147,Monarch Residency,12.929787800000001,77.60806090000001,Apartments,"Adugodi, Bengaluru",1.5281796054914483,1.369614072210286,6,7,6,437
148,Padmashree Apartment,12.9368791,77.6243412,Apartments,"Adugodi, Bengaluru",2.9202679849277904,2.1710149278063673,10,11,10,667
150,Vishnupriya Arcade,12.936761500000001,77.6204735,Apartments,"Adugodi, Bengaluru",2.6744557516200906,1.9997608134795841,12,14,11,818
153,Premium Serviced Apartments,12.9387767,77.6237957,Apartments,"Adugodi, Bengaluru",3.0566931806985735,2.3357461189691953,11,11,10,689
154,A.M. Apartments,12.9317754,77.5988891,Apartments,"Adugodi, Bengaluru",2.0051894340490644,2.22078415090632,12,13,12,792
155,Del Prado Apartment,12.9364957,77.6297788,Apartments,"Adugodi, Bengaluru",3.28254524381413,2.4655227719627164,13,13,12,791
157,Apartment-1 BHK,12.9235963,77.6162818,Apartments,"Adugodi, Bengaluru",1.2341805194949813,0.46708202678700694,4,4,4,249
158,New Apartments,12.9243385,77.61314990000001,Apartments,"Adugodi, Bengaluru",1.0815536841651632,0.5720619022856713,5,5,4,307
159,Apartment,12.928977,77.5977103,Apartments,"Adugodi, Bengaluru",1.8154670716990708,2.1560200142852652,12,14,12,814
162,Sharu home,12.9359602,77.6232687,Apartments,"Adugodi, Bengaluru",2.768607851883933,2.027507657956511,9,10,9,593
163,Raheja Residency,12.9287326,77.6318844,Apartments,"Adugodi, Bengaluru",2.954154526269604,2.0857969957259903,12,12,11,747
164,%2369 Apartment,12.92958,77.6075978,Apartments,"Adugodi, Bengaluru",1.5054590834020418,1.3794511736278374,7,8,7,471
165,House,12.934912800000001,77.61968309999999,Apartments,"Adugodi, Bengaluru",2.45407000835755,1.7782939005984904,10,11,10,659
166,Apartment,12.9166918,77.63741759999999,Apartments,"Adugodi, Bengaluru",3.1960858009473023,2.4398659540113385,10,11,9,652
175,Sobha Morzaria Grandeur,12.9339549,77.601799,Apartments,"Adugodi, Bengaluru",2.0996075759525548,2.1541914192628173,12,13,11,763
177,Housewise.in - Rental Property Management Company in Bengaluru,12.933300099999999,77.612155,Apartments,"Adugodi, Bengaluru",1.9724053481369612,1.5610829490903635,9,11,8,641
179,Modern Apartment,12.9195353,77.6040765,Apartments,"Adugodi, Bengaluru",0.5705912752846826,1.1945579236390114,8,8,7,473
180,St Mary's Executive PG Accommodation,12.936707400000001,77.6085473,Apartments,"Adugodi, Bengaluru",2.298500425312146,2.034894531487006,12,14,12,823
181,Goodwill Apartments,12.9357103,77.6233417,Apartments,"Adugodi, Bengaluru",2.7512272627805276,2.006057824817881,9,10,8,586
183,The Emerald Suite - A Self-Serviced Residence by Host- Right,12.933057000000002,77.6321801,Apartments,"Adugodi, Bengaluru",3.237634098587847,2.3833855318898336,13,13,12,801
185,Apartments madiwala,12.9213762,77.6141923,Apartments,"Adugodi, Bengaluru",0.900660118295076,0.22484322915647206,2,3,2,163
186,1%2F2 Bedroom for Bachelors,12.9337731,77.6097859,Apartments,"Adugodi, Bengaluru",1.9814359338581002,1.6823272231808626,7,8,6,486
189,KMT PG For Ladies,12.9366711,77.6086553,Apartments,"Adugodi, Bengaluru",2.294833593026219,2.0270505554254687,12,14,12,828
190,BAK Comfort Manner,12.937208300000002,77.6121191,Apartments,"Adugodi, Bengaluru",2.396516805770605,1.9890970776984822,12,12,10,748
192,Shree Ganesh PG Accomdation for ladies,12.936112800000002,77.6091779,Apartments,"Adugodi, Bengaluru",2.235484798143407,1.9495188872027578,13,15,12,893
193,Trinayan residency,12.924169000000001,77.636979,Apartments,"Adugodi, Bengaluru",3.274750582652605,2.426214621244779,14,15,13,905
196,Trusted Stay Service Apartments in Bangalore,12.9298227,77.6302364,Apartments,"Adugodi, Bengaluru",2.8615463973693367,1.9986525811274063,10,10,9,603
197,Olive Service Apartments Koramangala,12.9280031,77.62851459999999,Apartments,"Adugodi, Bengaluru",2.5965906675333925,1.7309473322529774,10,10,10,628
198,Girl's p.g Adugodi.,12.939817800000002,77.6075626,Apartments,"Adugodi, Bengaluru",2.643715681497327,2.396343011622362,13,13,11,796
201,Reen Apartments,12.930043300000001,77.607147,Apartments,"Adugodi, Bengaluru",1.558876101849382,1.4498916321629922,7,8,7,470
204,Salarpuria Tower 2,12.9334894,77.61248409999999,Apartments,"Adugodi, Bengaluru",2.0013718830843104,1.5748880126769533,8,9,7,538
205,Apartment,12.9184228,77.61761779999999,Apartments,"Adugodi, Bengaluru",1.0821345885588982,0.3007814861993242,2,3,2,155
206,ZTE telecom india pvt ltd,12.9367451,77.61042459999999,Apartments,"Adugodi, Bengaluru",2.3174865185382587,1.9771939191867673,10,11,9,654
210,House for rent,12.9261028,77.60615729999999,Apartments,"Adugodi, Bengaluru",1.134855907136643,1.2119235989217758,6,6,5,388
215,Apartment Building,12.925950300000002,77.634472,Apartments,"Adugodi, Bengaluru",3.0796641461847942,2.2167630462073906,12,13,12,760
217,Kormangla Bangalore,12.9416935,77.6168196,Apartments,"Adugodi, Bengaluru",3.0101022833617366,2.4685056440738817,14,15,13,914
218,Residency,12.9218294,77.6167255,Apartments,"Adugodi, Bengaluru",1.1494263252154413,0.30811231823808755,4,5,4,297
222,Chikku Lakshmaiah Layout,12.9361477,77.609935,Apartments,"Adugodi, Bengaluru",2.2457847169597893,1.9277871453235567,9,10,8,598
223,Constructure,12.941819800000001,77.61689179999999,Apartments,"Adugodi, Bengaluru",3.0259125528134394,2.48310985769418,14,15,13,915
228,"Asterix Energy - Rooftop Solar for Homes, Apartments, Offices and Industries",12.9408944,77.6171257,Apartments,"Adugodi, Bengaluru",2.937135254364193,2.3827428685576115,14,15,12,872
239,Kiranita Sundas,12.9402439,77.6084788,Apartments,"Adugodi, Bengaluru",2.6914296937776574,2.4095353660330527,12,12,10,737
240,Chikka Adugodi,12.928044,77.61029309999999,Apartments,"Adugodi, Bengaluru",1.3584565426463395,1.0778562994345213,5,6,5,378
242,Shine Lodge,12.935962400000001,77.6090203,Apartments,"Adugodi, Bengaluru",2.2178209435581118,1.9394692037654389,13,15,12,888
254,The Dress Bank - Clothes On Rent,12.9385394,77.609702,Apartments,"Adugodi, Bengaluru",2.5085674678157415,2.1902529433347095,10,11,9,665
255,myroomie - Aster PG%2F Hostel%2F student Housing,12.9285102,77.6098902,Apartments,"Adugodi, Bengaluru",1.4021470487643253,1.1444164800842633,5,6,5,367
258,LVR Grandeur,12.936344300000002,77.6085642,Apartments,"Adugodi, Bengaluru",2.2581970665496587,1.9964563034443148,12,15,12,876
260,Evergreen PG for girls ( near Christ University ),12.9396546,77.6079506,Apartments,"Adugodi, Bengaluru",2.6252596208533343,2.365186584128078,12,13,10,764
261,Yadav PG For Gents,12.9367519,77.60848299999999,Apartments,"Adugodi, Bengaluru",2.303256611085593,2.0419687700730806,12,14,12,820
262,LVR,12.935746400000001,77.6092953,Apartments,"Adugodi, Bengaluru",2.1956352914053134,1.906859964231689,13,15,12,890
268,Madhavi Ladies pg,12.9365985,77.60906949999999,Apartments,"Adugodi, Bengaluru",2.288735850392469,2.0043948544455157,13,15,12,904
271,Sri Lakshmi Venkateshwara PG for Ladies,12.935713699999999,77.6092593,Apartments,"Adugodi, Bengaluru",2.191748639340741,1.9047204301681402,13,15,12,890
272,"Kaya Clinic - Skin %26 Hair Care (Koramangala, Bengaluru)",12.938205499999999,77.60980570000001,Apartments,"Adugodi, Bengaluru",2.4724450694258597,2.151472356372882,10,11,9,655
273,Directdeals.in,12.9350978,77.62459940000001,Apartments,"Adugodi, Bengaluru",2.7838441746587366,2.011559966932484,9,10,8,575
274,Vandana Agencies,12.9385445,77.6096964,Apartments,"Adugodi, Bengaluru",2.509086684704604,2.190961544700087,10,11,9,665
275,Quest Infocom,12.927682,77.611231,Apartments,"Adugodi, Bengaluru",1.3423424074829755,0.9959319235862046,6,7,6,424
278,Koramangala 1A Block,12.9272897,77.6314178,Apartments,"Adugodi, Bengaluru",2.835516607927099,1.9665919657039719,13,13,12,783
280,Nigoke Dentiur Cliniqe,12.939300099999999,77.6094413,Apartments,"Adugodi, Bengaluru",2.590982513548602,2.2793165620147096,10,11,9,671
281,Evergreen PG for girls,12.9369041,77.6084805,Apartments,"Adugodi, Bengaluru",2.3201680243971965,2.0579181107980586,12,14,12,816
282,WashBuddy,12.9292997,77.6095802,Apartments,"Adugodi, Bengaluru",1.4845804296948646,1.237434432778042,5,6,5,369
283,"The New India Assurance Company Ltd, Koramangala Micro Office",12.9392231,77.6094901,Apartments,"Adugodi, Bengaluru",2.5827770729994857,2.269649259044244,11,11,9,681
284,Welcare Fitness Equipment %7CTreadmill store,12.9385963,77.6097809,Apartments,"Adugodi, Bengaluru",2.5155413329302,2.1940894194647775,10,11,9,665
285,Shanthi Sparsh Charitable Trust,12.9353373,77.60994709999999,Apartments,"Adugodi, Bengaluru",2.156242292116456,1.8413426667663133,8,10,8,581
286,IFB Point - Koramangala,12.9377168,77.61025790000001,Apartments,"Adugodi, Bengaluru",2.4228899740835463,2.086289443980778,10,11,9,655
288,Thought Labs,12.9383836,77.6096217,Apartments,"Adugodi, Bengaluru",2.49064061398828,2.1759204962954617,11,12,9,706
289,M.H.S. Meter Works,12.940271800000001,77.6089671,Apartments,"Adugodi, Bengaluru",2.6962060946631743,2.397292925919043,11,12,9,695
290,Forum Mall Bus Stop,12.9351433,77.6120748,Apartments,"Adugodi, Bengaluru",2.1704827954798596,1.7638046629725703,12,13,10,755
293,"BHIVE Workspace, Koramangala",12.9352415,77.60929859999999,Offices,"Adugodi, Bengaluru",2.1396474192429977,1.853830477148251,12,15,11,890
300,Bren Optimus,12.9369034,77.60674990000001,Offices,"Adugodi, Bengaluru",2.3228979052393806,2.13047969083424,11,13,11,769
305,Hewlett Packard Enterprise (HPE) : Bangalore India,12.937123,77.6100245,Offices,"Adugodi, Bengaluru",2.3546632921751183,2.0291597845678164,10,11,8,642
307,Furnished Office Bangalore,12.934472999999999,77.613315,Offices,"Adugodi, Bengaluru",2.1304077064308418,1.669787434339182,12,13,11,794
308,Collabera Services Pvt Ltd,12.937308999999999,77.6052899,Offices,"Adugodi, Bengaluru",2.381765817183464,2.2419456246883516,11,12,10,736
311,UTC CCS Bangalore Office,12.9379308,77.60601209999999,Offices,"Adugodi, Bengaluru",2.442495720819699,2.2679901343601454,12,13,11,796
314,APAR Technologies Pvt Ltd,12.938990800000001,77.6094827,Offices,"Adugodi, Bengaluru",2.556949302175324,2.2449901094312605,11,11,9,680
315,"BHIVE Workspace, Koramangala",12.9352415,77.60929859999999,Offices,"Adugodi, Bengaluru",2.1396474192429977,1.853830477148251,12,15,11,890
318,Airtel Broadband,12.9351873,77.60869040000001,Offices,"Adugodi, Bengaluru",2.130087628013081,1.8716063279833883,8,9,7,544
322,Intelligent Automation %7C Intelligent Data Processing %7C Infrrd Inc,12.933174900000001,77.6110695,Offices,"Adugodi, Bengaluru",1.9347884777804563,1.575919192569946,8,9,7,537
324,Robert Bosch Engineering and Business Solutions Private Limited Head Office,12.936616599999999,77.61201659999999,Offices,"Adugodi, Bengaluru",2.3298098281924964,1.9261004657147807,12,12,10,732
325,Zscaler,12.936686199999999,77.6067401,Offices,"Adugodi, Bengaluru",2.298843354738318,2.109095322994814,11,13,11,766
326,Salarpuria Arena,12.9372847,77.60994620000001,Offices,"Adugodi, Bengaluru",2.371766303384154,2.048769449181886,10,11,9,660
327,Allegis Services India Private Limited,12.9370637,77.6100809,Offices,"Adugodi, Bengaluru",2.348697183958142,2.0211603891207073,10,11,8,642
328,ICON Clinical Research India Pvt. Ltd.,12.937968699999999,77.6055483,Offices,"Adugodi, Bengaluru",2.451489558771808,2.294022443872543,12,13,11,787
329,"Robert Bosch, Global Tech Park",12.9370254,77.60629229999999,Offices,"Adugodi, Bengaluru",2.339695312676655,2.1641765531347947,11,13,11,770
331,Zilingo Bangalore,12.9364869,77.61018790000001,Offices,"Adugodi, Bengaluru",2.2860926271191477,1.9562776671181887,10,11,9,663
332,WeWork Prestige Cube,12.936328999999999,77.610998,Offices,"Adugodi, Bengaluru",2.279753217479365,1.9171560337285825,10,11,9,655
333,Yatra.com,12.936791699999999,77.61024259999999,Offices,"Adugodi, Bengaluru",2.3204251920212995,1.9873349874054556,10,11,8,642
334,QANALYSTS SERVICES INDIA PVT LTD,12.9366105,77.6103826,Offices,"Adugodi, Bengaluru",2.3020932898541853,1.9639099525772663,10,11,9,660
335,TableSpace Technologies Private Limited,12.9369034,77.60674990000001,Offices,"Adugodi, Bengaluru",2.3228979052393806,2.13047969083424,11,13,11,769
336,"BHIVE Workspace, Koramangala",12.9352415,77.60929859999999,Offices,"Adugodi, Bengaluru",2.1396474192429977,1.853830477148251,12,15,11,890
340,Bosch GTP,12.936864,77.6063054,Offices,"Adugodi, Bengaluru",2.321692430331626,2.1474532991243946,11,13,11,768
343,Opfin Software Private Limited,12.9389536,77.60952440000001,Offices,"Adugodi, Bengaluru",2.553122521763124,2.2397857359535633,11,11,9,680
344,Novel Business Park,12.931004699999999,77.63259040000001,Offices,"Adugodi, Bengaluru",3.14749164486896,2.2834465994959494,12,12,11,730
345,Office Of The Deputy Commissioner Of Police,12.939223,77.61470190000001,Offices,"Adugodi, Bengaluru",2.679553641314443,2.1871623743339823,12,13,10,756
346,Awfis Koramangala HM Vibha Towers,12.9366643,77.6102994,Offices,"Adugodi, Bengaluru",2.307017290728872,1.9720456071979986,10,11,9,659
350,Brillio,12.9370177,77.6070031,Offices,"Adugodi, Bengaluru",2.3342388256937907,2.1305470568733114,12,13,11,805
352,Acp Madivala Office,12.9387554,77.6104402,Offices,"Adugodi, Bengaluru",2.539816117709959,2.193626761312505,11,11,9,683
357,Infurnia Technologies,12.9362454,77.6111042,Offices,"Adugodi, Bengaluru",2.2722675326859547,1.905466904880835,10,11,9,653
358,"BHIVE Workspace, Koramangala",12.9352415,77.60929859999999,Offices,"Adugodi, Bengaluru",2.1396474192429977,1.853830477148251,12,15,11,890
359,Ram onstructionsC,12.941272099999999,77.6188876,Offices,"Adugodi, Bengaluru",3.0458879422671816,2.4492618634765777,12,14,12,812
360,Techfarcan Pvt. Ltd,12.9330323,77.6112527,Offices,"Adugodi, Bengaluru",1.9227930991642663,1.5552517575869353,8,9,7,543
365,Siddhanth Motors,12.9392849,77.6094322,Offices,"Adugodi, Bengaluru",2.5892337488457047,2.2779543998600684,10,11,9,670
366,1st Gate Adugodi Police Quaters %26 DCP CAR South,12.938329199999998,77.6103767,Offices,"Adugodi, Bengaluru",2.491961384318206,2.1491634802359707,11,11,9,678
369,BXB Digital,12.933676199999999,77.6122401,Offices,"Adugodi, Bengaluru",2.0152246826896016,1.6002327912787115,9,9,7,547
370,Adugodi Police Station,12.939233900000001,77.6101668,Offices,"Adugodi, Bengaluru",2.589790394091689,2.252285396753998,12,12,10,747
371,Marlabs Innovations Private Limited,12.9380075,77.6060438,Offices,"Adugodi, Bengaluru",2.4507035100966212,2.274191360150686,12,13,11,797
372,Blackbuck Insights Pvt Ltd,12.936611,77.610383,Offices,"Adugodi, Bengaluru",2.302153511042672,1.9639523537473755,10,11,9,659
376,Edumpus,12.938530499999999,77.6112722,Offices,"Adugodi, Bengaluru",2.5262749779074154,2.1501029574958315,11,12,9,692
377,Bescom,12.928856,77.60981240000001,Offices,"Adugodi, Bengaluru",1.4389528235238471,1.1820811012638115,5,6,5,374
379,"BHIVE Workspace, Koramangala",12.9352415,77.60929859999999,Offices,"Adugodi, Bengaluru",2.1396474192429977,1.853830477148251,12,15,11,890
382,Vibranium Inside - Coworking %7C Private Office,12.9329671,77.61418370000001,Offices,"Adugodi, Bengaluru",1.999769937930131,1.494406555182001,11,12,11,724
390,"91springboard 7th Block, Koramangala",12.933269300000001,77.61203459999999,Offices,"Adugodi, Bengaluru",1.9660847840510185,1.5604549777580443,9,11,8,637
391,"City Armed Reserve, Adugodi",12.9376064,77.610855,Offices,"Adugodi, Bengaluru",2.418292722768597,2.058997527253376,11,11,9,689
392,SmartStream Technologies India Pvt.Ltd,12.937998599999998,77.6056179,Offices,"Adugodi, Bengaluru",2.4540121066703007,2.2936011020439824,12,13,11,784
393,Gtp office,12.9363091,77.60641020000001,Offices,"Adugodi, Bengaluru",2.2593145360863285,2.087190390981817,9,10,8,599
394,PBC,12.937227499999999,77.60554029999999,Offices,"Adugodi, Bengaluru",2.369643003880259,2.2211860933337473,11,13,11,768
396,Workflo By OYO,12.933006800000001,77.6111375,Offices,"Adugodi, Bengaluru",1.917709386056984,1.555918384359758,8,9,7,545
397,"The New India Assurance Company Ltd, Koramangala Micro Office",12.9392231,77.6094901,Offices,"Adugodi, Bengaluru",2.5827770729994857,2.269649259044244,11,11,9,681
400,"BHIVE Workspace, Koramangala",12.9352415,77.60929859999999,Offices,"Adugodi, Bengaluru",2.1396474192429977,1.853830477148251,12,15,11,890
402,MASTEC Quadgen,12.9378508,77.6060181,Offices,"Adugodi, Bengaluru",2.4335770808633588,2.259696891416767,12,13,11,796
404,Fiserv India Private Limited,12.937108300000002,77.6068582,Offices,"Adugodi, Bengaluru",2.3450333453719643,2.146218168460955,12,13,11,807
405,Warsi House Sharing offices,12.932116,77.61538399999999,Offices,"Adugodi, Bengaluru",1.9608622342450075,1.3968197602508368,12,12,10,747
408,Evergreen Seamless Pipes and Tubes Pvt. Ltd,12.9362807,77.6090989,Offices,"Adugodi, Bengaluru",2.2536257745396333,1.969967164249239,13,15,12,903
410,SJR Cyber,12.938916,77.609434,Offices,"Adugodi, Bengaluru",2.548308142461295,2.2384270444129477,10,11,9,677
411,3D ShapeShifters,12.937048599999999,77.6099322,Offices,"Adugodi, Bengaluru",2.3454849518901413,2.023942064121524,10,11,9,659
412,Accenture,12.9367839,77.60750759999999,Offices,"Adugodi, Bengaluru",2.3065184513103856,2.084708382413757,12,13,11,801
414,SRS TRAVELS OFFICE,12.9260573,77.6169907,Offices,"Adugodi, Bengaluru",1.484087858956554,0.7513119161957701,4,4,3,247
419,Shanthi Sparsh Charitable Trust,12.9353373,77.60994709999999,Offices,"Adugodi, Bengaluru",2.156242292116456,1.8413426667663133,8,10,8,581
420,Featherlite,12.9347498,77.6113872,Offices,"Adugodi, Bengaluru",2.1132366438901724,1.7365624484460607,9,10,8,625
422,"BHIVE Workspace, Koramangala",12.9352415,77.60929859999999,Offices,"Adugodi, Bengaluru",2.1396474192429977,1.853830477148251,12,15,11,890
424,SeCURE Hospital - Corporate Office,12.937928,77.60614720000001,Offices,"Adugodi, Bengaluru",2.4409791290889036,2.2613901039173463,12,13,11,800
427,office,12.9403463,77.62177309999998,Offices,"Adugodi, Bengaluru",3.09040925774334,2.4221843365342406,12,13,11,780
433,Prestige Blue Chip Software Park,12.937251,77.60543100000001,Offices,"Adugodi, Bengaluru",2.3735659913357745,2.2290411057967523,11,13,11,768
434,Innov8,12.9350402,77.6140267,Offices,"Adugodi, Bengaluru",2.212909400881594,1.7255468357702066,11,13,10,767
435,Chetan Electric Private Limited: Office,12.9337646,77.6123416,Offices,"Adugodi, Bengaluru",2.0273512047069473,1.607797170745996,9,9,7,548
437,Office,12.9334623,77.62192519999999,Offices,"Adugodi, Bengaluru",2.459572383554907,1.714081370588517,8,9,8,534
440,315 Work Avenue KRM1,12.9334055,77.61251309999999,Offices,"Adugodi, Bengaluru",1.993111287017766,1.5651461781163138,8,9,7,536
444,"BHIVE Workspace, Koramangala",12.9352415,77.60929859999999,Offices,"Adugodi, Bengaluru",2.1396474192429977,1.853830477148251,12,15,11,890
446,Aquagrand office,12.935821699999998,77.6150179,Offices,"Adugodi, Bengaluru",2.3291564532022027,1.8085534252958178,10,11,9,676
447,Perfios Software Solutions Private Ltd.,12.936688,77.610426,Offices,"Adugodi, Bengaluru",2.311198262262754,1.9710182705050974,10,11,9,656
450,Virtual office in koramangala bangalore,12.939759500000001,77.6210539,Offices,"Adugodi, Bengaluru",2.9957573227612895,2.3372802767050636,11,12,11,747
452,India Post Office Koramangala VI Block,12.9383219,77.619135,Offices,"Adugodi, Bengaluru",2.7584429994575848,2.1319098700617594,12,14,12,814
454,Ashok Cable Office,12.9385688,77.6085412,Offices,"Adugodi, Bengaluru",2.5053826129937726,2.2302454459600365,12,13,10,763
455,Office,12.928170300000001,77.6073504,Offices,"Adugodi, Bengaluru",1.349753722342475,1.273725432320875,6,7,6,418
458,Capco,12.9338547,77.61219559999999,Offices,"Adugodi, Bengaluru",2.03343869851838,1.6206394888680975,9,9,7,552
460,Mountain Trail (Chaipoint),12.933006800000001,77.6111375,Offices,"Adugodi, Bengaluru",1.917709386056984,1.555918384359758,8,9,7,545
464,"BHIVE Workspace, Koramangala",12.9352415,77.60929859999999,Offices,"Adugodi, Bengaluru",2.1396474192429977,1.853830477148251,12,15,11,890
465,Karmika Bhavana,12.934474699999999,77.6007294,Offices,"Adugodi, Bengaluru",2.1930661028409264,2.275202024480923,11,13,11,755
466,"BHIVE Workspace, Koramangala",12.9352415,77.60929859999999,Offices,"Adugodi, Bengaluru",2.1396474192429977,1.853830477148251,12,15,11,890
468,PipeCast Technologies Private Limited,12.9392849,77.6094322,Offices,"Adugodi, Bengaluru",2.5892337488457047,2.2779543998600684,10,11,9,670
469,SSC Office,12.925394800000001,77.62078670000001,Offices,"Adugodi, Bengaluru",1.7380039912610916,0.8952144657342266,4,5,4,291
470,PAN CARD SOLUTIONS,12.9403866,77.6087557,Offices,"Adugodi, Bengaluru",2.7081119017486626,2.415978929807519,12,12,10,742
472,Shree Sai Marketing,12.936010099999999,77.6080934,Offices,"Adugodi, Bengaluru",2.2200743199008475,1.980745827386985,12,14,11,825
473,Office,12.9303399,77.62757909999999,Offices,"Adugodi, Bengaluru",2.6568377299708352,1.8075319608069285,9,9,8,549
474,Office,12.9324412,77.60353640000001,Offices,"Adugodi, Bengaluru",1.8844819494466267,1.9033148163211744,13,14,12,846
476,EASi (Allegis Group),12.9372165,77.6101314,Offices,"Adugodi, Bengaluru",2.3661490665176896,2.0360757971985204,10,11,9,654
477,QUOXENT CONSULTING SERVICES Pvt. Ltd.,12.936052,77.61454599999999,Offices,"Adugodi, Bengaluru",2.3371693165764733,1.8351173968321977,11,12,9,704
478,Pratilipi,12.9347786,77.6092941,Offices,"Adugodi, Bengaluru",2.0882665806501763,1.8056616792992286,7,9,7,525
481,Wakefit Corporate Office,12.933195699999999,77.6111921,Offices,"Adugodi, Bengaluru",1.939439160323936,1.5745171325150373,8,9,7,540
483,"Asterix Energy - Rooftop Solar for Homes, Apartments, Offices and Industries",12.9408944,77.6171257,Offices,"Adugodi, Bengaluru",2.937135254364193,2.3827428685576115,14,15,12,872
486,Max Bupa Health Insurance Bangalore,12.9378371,77.6114247,Offices,"Adugodi, Bengaluru",2.4524847675651973,2.071260872811327,11,12,10,743
487,IJM RESEARCH PVT.LTD,12.9399752,77.6091756,Offices,"Adugodi, Bengaluru",2.6642982409627574,2.359375028899193,11,11,9,680
488,"BHIVE Workspace, Koramangala",12.9352415,77.60929859999999,Offices,"Adugodi, Bengaluru",2.1396474192429977,1.853830477148251,12,15,11,890
490,Royal Office Comfort %7C Furniture Manufacturers and Repair Services in Bangalore,12.927592,77.610699,Offices,"Adugodi, Bengaluru",1.3184183357533812,1.0126973198114861,6,6,5,378
492,District Child Protection Unit,12.9282231,77.60941940000001,Offices,"Adugodi, Bengaluru",1.3636446520362777,1.1433947078202258,5,6,5,346
493,"BHIVE Workspace, Koramangala 5th Block",12.934822500000001,77.6144874,Offices,"Adugodi, Bengaluru",2.2053812774604697,1.698717386786482,10,11,9,658
497,wakefit,12.933891000000001,77.6148809,Offices,"Adugodi, Bengaluru",2.1223299678472216,1.5940223391247614,11,12,10,724
506,Navvista-Idea,12.9408031,77.6086805,Offices,"Adugodi, Bengaluru",2.7541492829036973,2.4627020522096994,11,12,9,702
510,"BHIVE Workspace, Koramangala",12.9352415,77.60929859999999,Offices,"Adugodi, Bengaluru",2.1396474192429977,1.853830477148251,12,15,11,890
512,ADARSH PHOTOCOPIER,12.9362404,77.60830329999999,Offices,"Adugodi, Bengaluru",2.2459699529344768,1.995917435934699,12,14,11,845
513,Sai Balaji Residency,12.9267832,77.6099718,Offices,"Adugodi, Bengaluru",1.214239898986226,0.9768888805357328,5,6,5,332
514,S%26t Welcare Fitness Equipments,12.9392259,77.6094985,Offices,"Adugodi, Bengaluru",2.5831472810368403,2.26970564505888,11,11,9,682
515,Umiya Emporium,12.933216499999999,77.61112390000001,Offices,"Adugodi, Bengaluru",1.9403836855602126,1.5787455508040134,8,9,7,537
525,Zenefits Technologies India Private Limited,12.9368789,77.60683309999999,Offices,"Adugodi, Bengaluru",2.3196957619535064,2.124195521244113,12,13,11,799
529,Girl's p.g Adugodi.,12.939817800000002,77.6075626,PG,"Adugodi, Bengaluru",2.643715681497327,2.396343011622362,13,13,11,796
538,Sri Sai PG for ladies,12.9353135,77.6104689,PG,"Adugodi, Bengaluru",2.1600659666908992,1.8224483251065466,8,10,8,577
539,Shree Ganesh PG Accomdation for ladies,12.936112800000002,77.6091779,PG,"Adugodi, Bengaluru",2.235484798143407,1.9495188872027578,13,15,12,893
540,PNS ladies Pg,12.939817800000002,77.6075626,PG,"Adugodi, Bengaluru",2.643715681497327,2.396343011622362,13,13,11,796
545,Om Shri Parameshwara Gents PG,12.9396572,77.6077376,PG,"Adugodi, Bengaluru",2.6256361612309727,2.3731196200307103,13,13,11,803
546,St Mary's Executive PG Accommodation,12.936707400000001,77.6085473,PG,"Adugodi, Bengaluru",2.298500425312146,2.034894531487006,12,14,12,823
548,KMT PG For Ladies,12.9366711,77.6086553,PG,"Adugodi, Bengaluru",2.294833593026219,2.0270505554254687,12,14,12,828
549,Evergreen PG for girls ( near Christ University ),12.9396546,77.6079506,PG,"Adugodi, Bengaluru",2.6252596208533343,2.365186584128078,12,13,10,764
554,VBS PG FOR GENTS,12.9393079,77.6085923,PG,"Adugodi, Bengaluru",2.5876859427161416,2.3065952510451315,11,12,10,732
558,Yadav PG For Gents,12.9367519,77.60848299999999,PG,"Adugodi, Bengaluru",2.303256611085593,2.0419687700730806,12,14,12,820
563,Sumanjali Ladies Pg,12.936734300000001,77.6085772,PG,"Adugodi, Bengaluru",2.3015859126067615,2.0365711729287375,12,14,12,824
571,SLV kishore PG for ladies,12.9357226,77.6089192,PG,"Adugodi, Bengaluru",2.1906339148996694,1.9182089381178578,12,15,12,880
572,SRI HANUMAN PG FOR GENTS,12.939381,77.6076555,PG,"Adugodi, Bengaluru",2.59501404964894,2.347260413600129,12,13,11,784
576,AIRA Ladies PG,12.936254,77.6087426,PG,"Adugodi, Bengaluru",2.248829429479639,1.980263505309311,13,15,12,884
579,AISHWARYA PG,12.936087599999999,77.6092567,PG,"Adugodi, Bengaluru",2.233218929187608,1.9440752332074251,13,15,12,904
580,St. Mary's PG For Ladies,12.9366309,77.6087007,PG,"Adugodi, Bengaluru",2.2905389181304003,2.0211615279582835,13,14,12,831
586,Garuda pg for women,12.9363385,77.6092446,PG,"Adugodi, Bengaluru",2.260978458603733,1.970895814333998,13,15,13,870
587,Crystal Rock Girls Pg Santsang,12.936917999999999,77.608921,PG,"Adugodi, Bengaluru",2.323417069219325,2.043230467734796,13,14,12,845
589,Atithi PG For Ladies,12.9367545,77.6087606,PG,"Adugodi, Bengaluru",2.3045163405546027,2.0318729459305556,13,14,12,830
590,crystal rock paying guest,12.9372262,77.60847779999999,PG,"Adugodi, Bengaluru",2.3559652295229063,2.0916258964241297,13,14,11,814
591,Evergreen Paying Guest,12.9366638,77.6148749,PG,"Adugodi, Bengaluru",2.4128849833293065,1.9023239750400986,11,12,10,721
592,Manasa Deluxe Pg For Ladies,12.9364375,77.6088329,PG,"Adugodi, Bengaluru",2.2696165746086905,1.9960557374782155,13,15,12,884
596,LAKVIN PG for Ladies,12.935686599999999,77.6092672,PG,"Adugodi, Bengaluru",2.188797994916655,1.9015937845214992,13,15,12,890
597,Shri Venkata Sai Pg For Ladies,12.9366905,77.6087177,PG,"Adugodi, Bengaluru",2.297229035941941,2.026758486122203,13,14,12,831
598,Sri Venkata Sai PG For Gents,12.940317599999998,77.6176773,PG,"Adugodi, Bengaluru",2.898118889383824,2.325312046854104,13,14,11,830
601,SARANGA CLASS HOUSE GIRLS PG,12.9359022,77.6117279,PG,"Adugodi, Bengaluru",2.2459316089136756,1.8538280804380323,11,12,10,721
603,Sri Lakshmi Venkateshwara PG for Ladies,12.935713699999999,77.6092593,PG,"Adugodi, Bengaluru",2.191748639340741,1.9047204301681402,13,15,12,890
606,SRI AHA THE LADIES PG,12.9367294,77.6085954,PG,"Adugodi, Bengaluru",2.301101731382802,2.035376363808578,12,14,12,825
607,CHARAN Gents PG,12.928755,77.609483,PG,"Adugodi, Bengaluru",1.4231894667175653,1.190124225619435,5,6,5,362
608,LVR PG for Boys,12.9365581,77.6073309,PG,"Adugodi, Bengaluru",2.2818856651627053,2.069378079446871,11,13,11,794
609,sai krupa pg,12.9356214,77.60914220000001,PG,"Adugodi, Bengaluru",2.1807097928532095,1.8993188526437967,13,15,12,888
610,Sri lakshmi venkatashwara ladies PG,12.936370599999998,77.6092283,PG,"Adugodi, Bengaluru",2.2644308407468725,1.974843892261496,13,14,13,869
611,Evergreen PG for girls,12.9369041,77.6084805,PG,"Adugodi, Bengaluru",2.3201680243971965,2.0579181107980586,12,14,12,816
612,Aravali Girls PG,12.940622900000001,77.61498399999999,PG,"Adugodi, Bengaluru",2.837670210528561,2.3424350127571993,16,16,14,988
614,SICHER STAY Pg for Women,12.9377888,77.61198979999999,PG,"Adugodi, Bengaluru",2.4573861623049704,2.055067078416034,12,13,10,762
616,Sri Lakshmi Sai Temple View PG for Ladies,12.936179699999999,77.6135635,PG,"Adugodi, Bengaluru",2.320455874819241,1.8558105934969253,11,11,9,675
617,SRI HARI HARA LADIES PG,12.934416800000001,77.6060171,PG,"Adugodi, Bengaluru",2.0533984296052856,1.9232263359915294,10,11,9,651
618,Hazel pg for ladies,12.9419274,77.6158571,PG,"Adugodi, Bengaluru",3.0032921400150996,2.4888148003173995,15,16,13,941
619,Sri Sai PG,12.9362751,77.60878199999999,PG,"Adugodi, Bengaluru",2.251343759934703,1.9809837604028808,13,15,12,885
620,SRI BALAJI PG For Gents,12.9282617,77.6104508,PG,"Adugodi, Bengaluru",1.385500030450365,1.0911179109679405,5,6,5,383
621,Your Space Bangalore - Hosur Road 1st Cross,12.935432400000002,77.60941340000001,PG,"Adugodi, Bengaluru",2.1617104421982836,1.8696771869985689,13,15,12,900
622,JK Boys PG,12.9288172,77.6103565,PG,"Adugodi, Bengaluru",1.444221379184134,1.1507932490223507,6,7,5,392
623,Zolo Maple PG,12.9325585,77.610949,PG,"Adugodi, Bengaluru",1.8650198962161473,1.5140090313296874,7,8,7,491
624,Madhavi Pg,12.936441199999999,77.6094786,PG,"Adugodi, Bengaluru",2.2740996149834354,1.9737387030062752,13,15,13,920
625,Yashoda ladies PG,12.928802000000001,77.6104125,PG,"Adugodi, Bengaluru",1.4436754622430894,1.1465801642578588,6,7,5,394
626,SLH Sri Lakshmi Pg For Gents,12.928795599999999,77.609613,PG,"Adugodi, Bengaluru",1.429395879227953,1.1868866820136472,5,6,5,367
627,Sri Sai Srinivasa PG,12.9334475,77.6106885,PG,"Adugodi, Bengaluru",1.95792130353054,1.6167874479922828,8,9,7,534
628,Stanza Living Bratislava House,12.9332114,77.6069696,PG,"Adugodi, Bengaluru",1.911677454369285,1.7553613796404324,8,10,8,597
629,Shri Hari hara pg,12.93679,77.608864,PG,"Adugodi, Bengaluru",2.3089218553492126,2.031834509102585,13,14,12,851
630,Shine Residency PG for boys,12.9335505,77.608377,PG,"Adugodi, Bengaluru",1.9471003041663886,1.7180589199787726,8,9,8,556
631,Madhavi Ladies pg,12.9365985,77.60906949999999,PG,"Adugodi, Bengaluru",2.288735850392469,2.0043948544455157,13,15,12,904
632,Venkateswara PG,12.9366489,77.61319959999999,PG,"Adugodi, Bengaluru",2.36099557992771,1.9116215737550444,11,12,9,693
633,Sapthagiri new PG %26 Hostel,12.9286771,77.60991659999999,PG,"Adugodi, Bengaluru",1.4209247449072613,1.159207676429758,5,6,5,378
634,Malabar PG,12.927562400000001,77.6103421,PG,"Adugodi, Bengaluru",1.3069486938634212,1.028623916558712,6,6,5,382
635,Sri Vinayaka PG For Ladies,12.9341431,77.620047,PG,"Adugodi, Bengaluru",2.4026330402134692,1.7082531879125555,9,10,9,610
636,Stanza Living Frankfurt House,12.9345097,77.6089814,PG,"Adugodi, Bengaluru",2.0562960303127737,1.7899380293221792,7,9,7,517
637,Sapthagiri PG for Gents,12.9287559,77.6096377,PG,"Adugodi, Bengaluru",1.4253613140663348,1.181725107498407,5,6,5,368
638,New Malabar Gents PG,12.9275879,77.6103183,PG,"Adugodi, Bengaluru",1.3092161047571873,1.0323705858639596,6,6,5,383
639,Rao's deluxe Pg accommodation,12.935044099999999,77.6074157,PG,"Adugodi, Bengaluru",2.11334623733736,1.9127942779633826,8,10,8,570
640,Stanza Living Hamburg House,12.935074,77.6075314,PG,"Adugodi, Bengaluru",2.116372948692363,1.9103717035557644,8,9,8,568
641,Sai Modern PG,12.9360686,77.6148598,PG,"Adugodi, Bengaluru",2.3495659701089284,1.8361685397422784,11,12,9,694
644,Stanza Living Como House,12.933885499999999,77.610091,PG,"Adugodi, Bengaluru",1.9974665617442513,1.6831256448295784,7,8,7,509
645,Zolo Typhoon,12.9300269,77.6080608,PG,"Adugodi, Bengaluru",1.5547652271713293,1.391781337462333,6,7,6,436
646,Good Lands PG For GENTS,12.931361500000001,77.60713659999999,PG,"Adugodi, Bengaluru",1.7053086648314562,1.5708054680842245,7,9,7,511
647,Nandhini Gents PG,12.936143199999998,77.61483170000001,PG,"Adugodi, Bengaluru",2.3564605185709024,1.84450808235912,11,12,9,704
648,Padmini pg,12.931218099999999,77.6098122,PG,"Adugodi, Bengaluru",1.6993728906474865,1.4175622435451702,6,7,6,413
653,Rk Pg For Gents,12.941489,77.6187524,PG,"Adugodi, Bengaluru",3.0624753243126417,2.470651117546178,13,14,12,825
654,Sree Srinivasa ladies Pg,12.9333926,77.6100115,PG,"Adugodi, Bengaluru",1.9420282156973632,1.6342269952305726,7,8,7,491
655,Sai Balaji Ladies PG,12.9336875,77.6086423,PG,"Adugodi, Bengaluru",1.963240431155817,1.7199717043227762,8,9,8,564
656,Forum PG Accomodation,12.9282219,77.610212,PG,"Adugodi, Bengaluru",1.3762876167444253,1.099423915646378,5,6,5,375
658,Nandini PG,12.936238000000001,77.6147577,PG,"Adugodi, Bengaluru",2.3639394099243547,1.855190379208275,11,12,9,709
659,Executive PG for gents,12.9267485,77.6089423,PG,"Adugodi, Bengaluru",1.195152270292413,1.041422835291634,4,5,4,307
662,Good Lands PG For Ladies,12.9325533,77.6067468,PG,"Adugodi, Bengaluru",1.8401474628119465,1.7051600609226059,8,10,8,577
663,Sri Lakshmi Ganesh,12.9359274,77.6085655,PG,"Adugodi, Bengaluru",2.2118657060884512,1.9531316625341513,12,14,12,862
664,Sri Venkateswara Pg For Gents,12.9321552,77.6099321,PG,"Adugodi, Bengaluru",1.8043800447620906,1.508588754338761,6,7,6,439
665,Stanza Living Dresden House,12.9350094,77.6084075,PG,"Adugodi, Bengaluru",2.109355166670183,1.864957535249328,7,9,7,532
667,PR EXECUTIVE PG FOR GIRLS,12.9367761,77.6142602,PG,"Adugodi, Bengaluru",2.4049254410320233,1.9168107396011242,11,12,10,743
668,Good lands pg for boys,12.9319886,77.6068015,PG,"Adugodi, Bengaluru",1.777095258987861,1.6490414478984228,8,9,8,557
669,GAYATRI LUXURY PG for LADIES,12.931602900000001,77.61087890000002,PG,"Adugodi, Bengaluru",1.759108459002382,1.4153357565892328,7,8,6,462
671,Stanza Living Salzburg House,12.9310848,77.6087012,PG,"Adugodi, Bengaluru",1.6743953001061331,1.4573012097963907,6,7,6,437
672,Leo Stays PG for Men,12.9365591,77.6147224,PG,"Adugodi, Bengaluru",2.396702030482215,1.8909667536994177,11,12,10,720
673,Mercury Gents Pg,12.938336,77.618301,PG,"Adugodi, Bengaluru",2.7213119088429387,2.116759854640042,12,13,11,792
675,New Sapthagiri PG For Gents.,12.9329058,77.608241,PG,"Adugodi, Bengaluru",1.875117423417064,1.6599603500742284,7,9,7,524
677,Rana PG for Gents,12.936865,77.61561,PG,"Adugodi, Bengaluru",2.45993366111423,1.9253407246878012,11,12,10,735
678,Rentorio Saranga PG Accommodation- Boys ( Christ Central Campus),12.9283778,77.6093698,PG,"Adugodi, Bengaluru",1.3801123666783077,1.160794889362261,5,6,5,346
679,vstayhappy,12.936563,77.61428559999999,PG,"Adugodi, Bengaluru",2.383015665801834,1.8930119353340764,11,12,10,735
681,Trinity Homes,12.9332008,77.6106994,PG,"Adugodi, Bengaluru",1.9309972002133085,1.5902477418411713,7,9,7,512
682,Luxury PG FOR WOMEN,12.9329489,77.6096391,PG,"Adugodi, Bengaluru",1.8886608390124509,1.6023291640365567,7,8,6,471
683,Green Lands PG for Ladies,12.9323477,77.6090801,PG,"Adugodi, Bengaluru",1.8170046070102746,1.5646710687877337,8,9,8,560
685,Sri Shiva Sai PG Gent's,12.929978,77.609626,PG,"Adugodi, Bengaluru",1.5600599371874875,1.3017045790018131,5,6,5,384
686,Friends Comfort Stay PG,12.9347427,77.6171143,PG,"Adugodi, Bengaluru",2.3047942805799617,1.702628273678762,10,11,10,663
687,Sri Krishna Krupa P G,12.933834800000001,77.6074075,PG,"Adugodi, Bengaluru",1.978954646863895,1.7931037726695633,8,10,8,603
688,RB paying guest PG,12.936876400000001,77.6156083,PG,"Adugodi, Bengaluru",2.461064410662986,1.9266025297859182,11,12,10,735
690,SRi SAI Ladies pg,12.928956800000002,77.6094915,PG,"Adugodi, Bengaluru",1.4455819120311904,1.2089986692433852,5,6,5,361
691,Park Avenue Paying Guest for Girls,12.9346309,77.62215690000001,PG,"Adugodi, Bengaluru",2.578074039073602,1.842437081229808,9,9,8,567
692,Udupi Residency P.G For Men. Tavarekere,12.9318508,77.6094709,PG,"Adugodi, Bengaluru",1.765371395708472,1.4968723779777091,6,7,6,447
693,LVR Student Living For Girls,12.9367205,77.6086339,PG,"Adugodi, Bengaluru",2.300246020463821,2.033006317414563,12,14,12,826
694,Abode PG for Gents,12.9280313,77.6094091,PG,"Adugodi, Bengaluru",1.3423353257747703,1.126090546706282,5,6,5,346
695,GoodLands Luxury PG,12.9257498,77.6086771,PG,"Adugodi, Bengaluru",1.0820999561877909,0.9790169841800577,4,5,4,274
696,myroomie - Camellia Girls PG%2F Hostel,12.928676199999998,77.6104159,PG,"Adugodi, Bengaluru",1.430002616494452,1.1338908132067194,6,7,5,395
697,Pelagia Paradise PG for Boy,12.930700300000002,77.6060189,PG,"Adugodi, Bengaluru",1.6427752275711662,1.58226153140157,8,9,8,532
698,Zolo Phantom Co-Living %7C Redefining PG,12.9354888,77.6163246,PG,"Adugodi, Bengaluru",2.345417456077395,1.7764930245851276,11,12,11,712
700,Sri Veerabrahmendra Swamy PG for Gents,12.9284372,77.609462,PG,"Adugodi, Bengaluru",1.3878309596986185,1.1610929475340788,5,6,5,357
701,Concept Pg For Boys,12.9370087,77.6245447,PG,"Adugodi, Bengaluru",2.9451404403697863,2.1940140136304094,10,11,9,631
702,VENKATESHWARA PG,12.9288643,77.6100331,PG,"Adugodi, Bengaluru",1.4434392531751221,1.1714911113825948,5,6,5,381
703,Abhiram PG for gents,12.929514900000001,77.6086714,PG,"Adugodi, Bengaluru",1.4998942896741745,1.3081177515732036,6,7,6,401
704,New-Vinayaka Gents Pg,12.9386344,77.61792259999999,PG,"Adugodi, Bengaluru",2.7350812161746774,2.1432584662853458,12,13,11,786
706,Sri Ganesh Pg for Ladies,12.9360912,77.6092478,PG,"Adugodi, Bengaluru",2.2335567987022236,1.944767983508488,13,15,12,904
707,Blue Bells,12.9343403,77.6173048,PG,"Adugodi, Bengaluru",2.2736589076731284,1.661109413595258,10,11,10,640
708,myroomie - Aster PG%2F Hostel%2F student Housing,12.9285102,77.6098902,PG,"Adugodi, Bengaluru",1.4021470487643253,1.1444164800842633,5,6,5,367
709,Brindavan PG for Gent's,12.930061199999999,77.6106751,PG,"Adugodi, Bengaluru",1.5865434832224554,1.2625453310514445,8,9,7,532
710,Zolo Polaris Co-Living %7C Redefining PG,12.9302559,77.60819359999999,PG,"Adugodi, Bengaluru",1.5804168126265008,1.4054336854527416,6,7,6,440
711,Devi's PG,12.9385465,77.62039709999999,PG,"Adugodi, Bengaluru",2.8432550444272615,2.1882112506778966,12,13,12,792
712,PARIBAR PG and Home Stay,12.9298064,77.60952540000001,PG,"Adugodi, Bengaluru",1.5398546291817246,1.2898180449323076,5,6,5,379
713,AR Brothers PG For Ladies,12.932967,77.60844200000001,PG,"Adugodi, Bengaluru",1.882430321649212,1.6564455642982503,7,9,7,521
714,"Opposite sri hari hara pg, Blue colour paint apartment",12.9364531,77.60892890000001,PG,"Adugodi, Bengaluru",2.2718187306368853,1.9941745390527057,13,15,12,902
715,Shivas PG Accommodation For Boys,12.930716,77.6068011,PG,"Adugodi, Bengaluru",1.6359599976299335,1.5323939228046286,7,8,7,509
716,Sri Srinivasa PG For Gents,12.9309983,77.60690240000001,PG,"Adugodi, Bengaluru",1.6664893444584938,1.5516087566841932,7,9,7,533
717,Zolo Destiny PG,12.92539,77.6117789,PG,"Adugodi, Bengaluru",1.119472758142623,0.7416766507822956,5,6,5,334
719,Sri Vinayaka Gents Pg,12.934719,77.619784,PG,"Adugodi, Bengaluru",2.44140681427942,1.7607355718711462,10,10,9,621
720,Jain Pg,12.924427099999999,77.620513,PG,"Adugodi, Bengaluru",1.6512894828772733,0.7984991078131657,5,5,4,312
721,Gayathri luxury Pg ladies,12.932405900000001,77.6086785,PG,"Adugodi, Bengaluru",1.821018897290707,1.5891246746295047,8,9,7,545
722,Paying guest for Ladies,12.938183,77.6228172,PG,"Adugodi, Bengaluru",2.942906263591148,2.2336590317808063,11,11,10,681
723,Gopal PG,12.940473599999999,77.62274079999999,PG,"Adugodi, Bengaluru",3.154818013255118,2.4688756871782647,11,12,11,744
724,Stanza Living,12.935557000000001,77.60779699999999,PG,"Adugodi, Bengaluru",2.1696783670409565,1.9471393514700408,8,9,7,549
725,Prathap PG for GENTs,12.9323695,77.6070713,PG,"Adugodi, Bengaluru",1.8176086084803034,1.6692792647701749,8,9,8,557
726,New luxury PG for ladies,12.933510400000001,77.6097468,PG,"Adugodi, Bengaluru",1.9519465383509842,1.6563895428720805,7,8,6,479
727,No Pg,12.9267011,77.6104664,PG,"Adugodi, Bengaluru",1.2162198158040296,0.9396978201275322,6,6,5,374
729,Sri Ammulu PG For Ladies,12.9335737,77.60793819999999,PG,"Adugodi, Bengaluru",1.9490929879294618,1.7410647443160228,8,10,8,571
730,Colive Springfield PG in Koramangala Bengaluru,12.9363288,77.6194282,PG,"Adugodi, Bengaluru",2.5764958670086724,1.9230493325564102,11,12,10,715
731,Pelagia pg,12.9309727,77.6079969,PG,"Adugodi, Bengaluru",1.659887750552401,1.4844511048977183,7,8,7,503
733,Gayatri Luxury PG for Gent's,12.9314746,77.60695009999999,PG,"Adugodi, Bengaluru",1.7190064515722285,1.5924485665868353,7,9,7,519
734,Amity PG for men,12.9314632,77.62350079999999,PG,"Adugodi, Bengaluru",2.4051738710147683,1.6068389502438534,8,9,8,530
735,SRI RAMA PG FOR GENTS,12.9288689,77.6101117,PG,"Adugodi, Bengaluru",1.445309794542749,1.1679769504145932,9,9,8,567
736,Siva Sai PG for Gents,12.9329965,77.60739140000001,PG,"Adugodi, Bengaluru",1.8858345652128612,1.7119721830505175,8,10,8,571
737,Pg,12.9270098,77.6094728,PG,"Adugodi, Bengaluru",1.2305457299661213,1.028814087146293,5,6,4,331
738,Sai sree pg for ladies,12.937187800000002,77.6247137,PG,"Adugodi, Bengaluru",2.9720977572250464,2.2201849707032104,10,11,9,632
740,Anugraha pg for gents,12.9392028,77.6262328,PG,"Adugodi, Bengaluru",3.2500569212467014,2.495624341980887,12,13,12,785
741,Shanvi Pg For Gents,12.9361049,77.6306368,PG,"Adugodi, Bengaluru",3.3208838040447484,2.494300572801462,13,13,12,800
744,Sai Ram Pg for Ladies A%2FC,12.934539,77.63064399999999,PG,"Adugodi, Bengaluru",3.2071321980636207,2.369330881188704,12,13,11,768
746,Lotus Comfort Gents Pg - Koramangala,12.9364952,77.6288222,PG,"Adugodi, Bengaluru",3.208543257722508,2.399885774201985,14,15,13,929
747,SREE PG FOR GENTS,12.9296401,77.6087715,PG,"Adugodi, Bengaluru",1.514406464016556,1.3142296377120033,6,7,6,402
748,"Square Yards, Sri Hari Hara Ladies Pg",12.9365484,77.6089817,PG,"Adugodi, Bengaluru",2.2826807614506914,2.0022593308397476,13,15,12,902
750,N S PG,12.9361746,77.62926479999999,PG,"Adugodi, Bengaluru",3.2176637303235323,2.4023799094721885,14,16,14,959
751,Pelagia Palace Boys PG,12.9310396,77.6074551,PG,"Adugodi, Bengaluru",1.6681274525942835,1.5219621917313229,7,9,7,512
753,PALACE PG,12.924461,77.6137475,PG,"Adugodi, Bengaluru",1.1280344341276305,0.5645921217951599,4,5,4,288
755,Srivari PG For Gents,12.8983601,77.6179465,PG,"Adugodi, Bengaluru",2.24595437097618,2.37714141545834,15,17,14,1005
759,Royal Stay PG,12.9270074,77.60882640000001,PG,"Adugodi, Bengaluru",1.2227677966480992,1.0716106567354238,4,5,4,318
762,NEW SNS LUXURY PG FOR LADIES,12.917812800000002,77.6067936,PG,"Adugodi, Bengaluru",0.23229629039681693,0.9207419045372242,4,4,4,255
764,Prestige PG Building No.4,12.9224329,77.61802359999999,PG,"Adugodi, Bengaluru",1.3037810294029075,0.4502865870684904,4,5,4,298
769,Wilson Gardon,12.9362621,77.6131553,PG,"Adugodi, Bengaluru",2.318106843259633,1.8694017553197033,10,11,9,673
772,Paying Guest Accommodation for Ladies,12.917618,77.593716,PG,"Adugodi, Bengaluru",1.5510599314375946,2.3274472989691057,11,13,11,750
773,New Executive PG for ladies,12.915372099999999,77.6010095,PG,"Adugodi, Bengaluru",0.754412531937329,1.596308288893863,8,9,7,517
774,Girls PG,12.9137588,77.6311671,PG,"Adugodi, Bengaluru",2.5306546604488673,1.8570672597453382,10,11,9,657
784,PG,12.9213474,77.6141804,PG,"Adugodi, Bengaluru",0.8975827663431952,0.22254042142690728,2,3,2,164
791,Adugodi Police Station,12.939233900000001,77.6101668,PG,"Adugodi, Bengaluru",2.589790394091689,2.252285396753998,12,12,10,747
793,The Forum Mall Koramangala,12.9344398,77.6112678,PG,"Adugodi, Bengaluru",2.0770306161090226,1.7061504784431056,9,10,8,599
939,Apartment,12.9166918,77.63741759999999,Apartment,"Ambalipura, Bengaluru",3.1960858009473023,2.4398659540113385,10,11,9,652
968,Olive Service Apartments Koramangala,12.9280031,77.62851459999999,Apartment,"Ambalipura, Bengaluru",2.5965906675333925,1.7309473322529774,10,10,10,628
980,Rent My Stay,12.919729400000001,77.6213998,Apartment,"Ambalipura, Bengaluru",1.5156506787751731,0.6832149349837809,6,7,6,395
1030,Address Maker,12.927810000000001,77.632888,Apartment,"Ambalipura, Bengaluru",3.004092901832637,2.135259814940263,12,11,11,653
1155,315 Work Avenue HSR3,12.912919699999998,77.6325756,Office,"Ambalipura, Bengaluru",2.6930316164770596,2.0329163856002532,10,11,9,645
1200,Furnished Office Bangalore,12.934472999999999,77.613315,Office,"Ambalipura, Bengaluru",2.1304077064308418,1.669787434339182,12,13,11,794
1202,R.T Square,12.9174534,77.6277563,Office,"Ambalipura, Bengaluru",2.153866878689597,1.3916733302154929,7,8,6,460
1206,Furnished Office,12.936195,77.62727209999998,Office,"Ambalipura, Bengaluru",3.067854064892348,2.272294300488627,11,11,10,668
1207,Office of Additional Director General of Foreign Trade,12.9254416,77.62067370000001,Office,"Ambalipura, Bengaluru",1.7313407454999556,0.8906411657591842,4,5,4,291
1218,Wipro Technologies,12.925648800000001,77.625054,Office,"Ambalipura, Bengaluru",2.1406433689172424,1.2739706725428241,7,8,7,468
1228,SSC Office,12.925394800000001,77.62078670000001,Office,"Ambalipura, Bengaluru",1.7380039912610916,0.8952144657342266,4,5,4,291
1233,Prestige Star Tech,12.9316987,77.6147832,Office,"Ambalipura, Bengaluru",1.8921979108535893,1.3505071758853857,14,14,12,864
1235,IndiQube Sigma,12.9254,77.631495,Office,"Ambalipura, Bengaluru",2.7570918656510055,1.8920857789756786,10,10,9,586
1249,WeWork,12.9289492,77.6328922,Office,"Ambalipura, Bengaluru",3.061776761484628,2.193081873869835,12,12,11,691
1250,IndiQube Garden,12.936661099999998,77.62152859999999,Office,"Ambalipura, Bengaluru",2.7249282230175496,2.025525277733083,12,13,12,798
1265,Thoughtworks,12.928815400000001,77.62869470000001,Office,"Ambalipura, Bengaluru",2.660465097455917,1.7975335365369463,10,10,9,625
1269,"ClayWorks Mini Forest - Coworking Space in Bangalore, JP Nagar",12.907128,77.598855,Office,"Ambalipura, Bengaluru",1.397079566891505,2.23818862406553,13,15,13,906
1283,VFS Global Bengaluru,12.9144375,77.5995625,Office,"Ambalipura, Bengaluru",0.9249597033634498,1.777433772981404,9,11,9,631
1297,BDO India LLP,12.9392252,77.62539509999999,Office,"Ambalipura, Bengaluru",3.1974819759914666,2.455232581380364,12,13,11,761
1308,Brillio,12.907375199999999,77.59959930000001,Office,"Ambalipura, Bengaluru",1.3212837119335878,2.157946228409208,11,12,10,699
1317,IndiQube Aerial,12.937843199999998,77.6108358,Office,"Ambalipura, Bengaluru",2.4441313886138887,2.085131607133337,11,11,9,685
1334,State Bank of India JAKKASANDRA BENGALURU,12.927655999999999,77.621478,Office,"Ambalipura, Bengaluru",1.9547311101891358,1.1353560865760686,6,6,5,386
1345,American Express Banking Corp.,12.9375218,77.6280172,Office,"Ambalipura, Bengaluru",3.2310304890016304,2.4393774291976507,12,13,11,794
1478,myroomie - Aster PG%2F Hostel%2F student Housing,12.9285102,77.6098902,PG,"Ambalipura, Bengaluru",1.4021470487643253,1.1444164800842633,5,6,5,367
1504,Biswas Girl's PG,12.9149615,77.6358427,PG,"Ambalipura, Bengaluru",3.0269962217246067,2.3056354875936997,11,13,11,765
1505,Zolo Inxs PG,12.910039999999999,77.6311742,PG,"Ambalipura, Bengaluru",2.6056528788836513,2.038539733659258,11,12,10,749
1509,Zolo Elysium Co-Living %7C Redefining PG,12.909484800000001,77.6320401,PG,"Ambalipura, Bengaluru",2.7124251823478205,2.150805625853121,11,12,10,744
1511,Shiva Luxury Ladies PG HSR Layout 6th Sector,12.9166805,77.6269319,PG,"Ambalipura, Bengaluru",2.060032284525273,1.3218124151216453,11,12,10,713
1519,"CM Luxury gents PG, Bomanhalli signal",12.9071788,77.6298862,PG,"Ambalipura, Bengaluru",2.5752460914715734,2.112655317113138,9,11,9,644
1527,Girls PG,12.9137588,77.6311671,PG,"Ambalipura, Bengaluru",2.5306546604488673,1.8570672597453382,10,11,9,657
1532,Sri Lakshmi Chaitanya PG For Gents,12.923229300000001,77.6342643,PG,"Ambalipura, Bengaluru",2.963191393283363,2.116940166575957,12,11,11,661
1539,Paying guest for Ladies,12.938183,77.6228172,PG,"Ambalipura, Bengaluru",2.942906263591148,2.2336590317808063,11,11,10,681
1543,Zolo Destiny PG,12.92539,77.6117789,PG,"Ambalipura, Bengaluru",1.119472758142623,0.7416766507822956,5,6,5,334
1545,Zolo Maple PG,12.9325585,77.610949,PG,"Ambalipura, Bengaluru",1.8650198962161473,1.5140090313296874,7,8,7,491
1548,Zolo Typhoon,12.9300269,77.6080608,PG,"Ambalipura, Bengaluru",1.5547652271713293,1.391781337462333,6,7,6,436
1551,Grexter Avalon Coliving PG,12.911299,77.63422690000002,PG,"Ambalipura, Bengaluru",2.8979531851065454,2.267446868824982,11,12,10,743
1553,Zolo Polaris Co-Living %7C Redefining PG,12.9302559,77.60819359999999,PG,"Ambalipura, Bengaluru",1.5804168126265008,1.4054336854527416,6,7,6,440
1556,Stanza Living Frankfurt House,12.9345097,77.6089814,PG,"Ambalipura, Bengaluru",2.0562960303127737,1.7899380293221792,7,9,7,517
1557,Zolo Knight Co-Living %7C Redefining PG,12.933758500000001,77.6078292,PG,"Ambalipura, Bengaluru",1.9696757428344094,1.764725261911186,9,10,8,589
1560,Zolo Templar,12.933719300000002,77.608202,PG,"Ambalipura, Bengaluru",1.9654946273960217,1.7431237411209877,8,10,8,575
1562,Stanza Living,12.935557000000001,77.60779699999999,PG,"Ambalipura, Bengaluru",2.1696783670409565,1.9471393514700408,8,9,7,549
1569,New Executive PG for ladies,12.915372099999999,77.6010095,PG,"Ambalipura, Bengaluru",0.754412531937329,1.596308288893863,8,9,7,517
1582,"Cashfree Payments - Payment Gateway, eNACH %26 API Banking for India",12.9274479,77.6327507,PG,"Ambalipura, Bengaluru",2.9733145128724634,2.104734138834714,12,12,11,744
1818,Apartment,12.9166918,77.63741759999999,Apartments,"Bellandur, Bengaluru",3.1960858009473023,2.4398659540113385,10,11,9,652
1826,Apartment-1 BHK,12.9235963,77.6162818,Apartments,"Bellandur, Bengaluru",1.2341805194949813,0.46708202678700694,4,4,4,249
1848,Rent My Stay,12.919729400000001,77.6213998,Apartments,"Bellandur, Bengaluru",1.5156506787751731,0.6832149349837809,6,7,6,395
2165,Greencity Eutopia,12.9104016,77.60907209999999,Apartment,"BTM Layout, Bengaluru",0.6395000119791943,1.2095609578984632,7,8,6,455
2166,Krishna Prakash Apartments,12.9175952,77.6095787,Apartment,"BTM Layout, Bengaluru",0.24781392786879813,0.6367676501828274,3,4,3,223
2167,Apartment-1 BHK,12.9235963,77.6162818,Apartment,"BTM Layout, Bengaluru",1.2341805194949813,0.46708202678700694,4,4,4,249
2168,Nitu Apartments,12.9067399,77.6049946,Apartment,"BTM Layout, Bengaluru",1.082688531935528,1.7973462306562593,9,10,8,596
2169,Brigade Lakeview Apartment,12.913354199999999,77.6207345,Apartment,"BTM Layout, Bengaluru",1.4190502096585136,0.9213479744118908,7,7,7,440
2170,Kristal Amber Apartment,12.910422599999999,77.6070665,Apartment,"BTM Layout, Bengaluru",0.6322558580281574,1.337717467191079,7,8,7,499
2171,Srishti Apartments,12.9110847,77.608131,Apartment,"BTM Layout, Bengaluru",0.5519785288105591,1.2073900076626503,7,9,7,515
2172,Kristal Sapphire Apartments,12.9119292,77.6149921,Apartment,"BTM Layout, Bengaluru",0.8912572154519517,0.8482743127991198,5,5,5,311
2173,Eka Apartment,12.9070556,77.60339590000001,Apartment,"BTM Layout, Bengaluru",1.1141360897681531,1.881790915784411,9,11,9,634
2174,Anugraha Apartments,12.906458500000001,77.60285809999999,Apartment,"BTM Layout, Bengaluru",1.199667948765908,1.9701267630392103,10,12,10,710
2175,Palms Apartment,12.918819699999998,77.6188158,Apartment,"BTM Layout, Bengaluru",1.2188724251452308,0.41115428236173357,4,4,3,228
2176,Miracle Apartments BTM,12.9141498,77.6196642,Apartment,"BTM Layout, Bengaluru",1.2884943207140507,0.778721543430997,6,7,6,407
2177,Glenburn Apartments,12.9135164,77.60345749999999,Apartment,"BTM Layout, Bengaluru",0.560937474187187,1.4293255211305411,6,8,6,464
2178,Pariwar Nest Apartments,12.9106115,77.6080307,Apartment,"BTM Layout, Bengaluru",0.6042781316118201,1.2554832963539073,8,9,7,520
2179,Pristine Gold Apartment,12.9116119,77.6091566,Apartment,"BTM Layout, Bengaluru",0.5103978657339759,1.0932742763100312,6,7,6,405
2180,Ram Sridhar Apartments,12.9161746,77.60950129999999,Apartment,"BTM Layout, Bengaluru",0.17027486970412317,0.7137639275359694,6,7,6,415
2181,Say-sam Apartments,12.9104905,77.6057959,Apartment,"BTM Layout, Bengaluru",0.6597572258762476,1.4258081724805873,7,9,7,510
2182,Sumeru Apartment,12.917580099999999,77.6186248,Apartment,"BTM Layout, Bengaluru",1.1709880496133072,0.44091160567317733,2,3,2,155
2183,Sapthagiri Lake View Apartment,12.9128875,77.62157909999999,Apartment,"BTM Layout, Bengaluru",1.5198004333190067,1.0214580794092494,7,7,6,436
2184,R EMERALD APARTMENT,12.9144296,77.6116834,Apartment,"BTM Layout, Bengaluru",0.44411735141290787,0.679762618338291,3,4,3,215
2185,Victorian Residency Apartment,12.9194414,77.6058395,Apartment,"BTM Layout, Bengaluru",0.440729418987537,1.003563992835393,7,7,6,407
2186,Balaji Apartments,12.907243199999998,77.60911740000002,Apartment,"BTM Layout, Bengaluru",0.987071365263298,1.514950425888422,8,9,7,540
2187,Apartments in BTM Layout,12.9166855,77.6069295,Apartment,"BTM Layout, Bengaluru",0.13025767898029583,0.9411761124301024,5,5,5,308
2188,Say Sam Pearl Apartment,12.911081,77.6082377,Apartment,"BTM Layout, Bengaluru",0.5529531914020943,1.2005141829235166,8,9,8,539
2189,Cotha Life Apartment,12.9071621,77.6032403,Apartment,"BTM Layout, Bengaluru",1.1111460485942706,1.884520255807407,9,11,9,638
2190,Snehlata Apartment,12.9101733,77.6138196,Apartment,"BTM Layout, Bengaluru",0.9126650632705914,1.0526082337631848,7,7,7,419
2191,LakeView Apartment,12.9062834,77.60749399999999,Apartment,"BTM Layout, Bengaluru",1.0865100819768598,1.6905048397028872,9,10,9,612
2192,Swanclose Apartments,12.9176374,77.619063,Apartment,"BTM Layout, Bengaluru",1.2189022654961008,0.4797918351064495,3,3,3,170
2193,Kalyan Residency,12.914437699999999,77.6175589,Apartment,"BTM Layout, Bengaluru",1.0581691743647883,0.6286291719911802,6,6,5,354
2194,S I Residency,12.9139433,77.6211078,Apartment,"BTM Layout, Bengaluru",1.4466069238200046,0.9021497137032236,7,8,7,457
2195,Shre Apartment,12.9247772,77.611937,Apartment,"BTM Layout, Bengaluru",1.0634001760079634,0.6740204797754581,5,6,5,334
2196,RS Golden Apartment,12.912844400000001,77.6126129,Apartment,"BTM Layout, Bengaluru",0.6193735409611242,0.7935522616764826,5,5,5,293
2197,Madina Apartment,12.9211832,77.6126556,Apartment,"BTM Layout, Bengaluru",0.7668633488741029,0.32059705893452645,2,3,3,161
2198,Devlok Apartment,12.923238699999999,77.60910109999999,Apartment,"BTM Layout, Bengaluru",0.809799849867505,0.7681524113831272,3,4,3,219
2199,Sai Meadows Apartment,12.9072919,77.6084464,Apartment,"BTM Layout, Bengaluru",0.9748855287568007,1.5426760406519524,8,10,8,577
2200,Archana apartment,12.9161951,77.607007,Apartment,"BTM Layout, Bengaluru",0.10204356574197351,0.953315258369311,5,6,5,359
2201,Acharya Sankeerna Apartments,12.9162344,77.6088689,Apartment,"BTM Layout, Bengaluru",0.10329167858109396,0.769645428933485,6,6,5,384
2202,Fantasy Neha Lotus,12.912261599999999,77.6144895,Apartment,"BTM Layout, Bengaluru",0.8255428665923276,0.8139146802852609,6,6,6,360
2203,Sri Sai Enclave Apartment,12.9079821,77.6069123,Apartment,"BTM Layout, Bengaluru",0.9034043791447638,1.563262955326591,9,10,8,602
2204,Nilaya Apartments,12.923295,77.60739000000001,Apartment,"BTM Layout, Bengaluru",0.8083199604032267,0.9331076131729342,5,6,5,333
2205,Heritage Heaven,12.922800599999999,77.6130002,Apartment,"BTM Layout, Bengaluru",0.9303388017967218,0.42635676105913206,3,3,3,189
2206,Glory Apartment,12.923731199999999,77.61596440000001,Apartment,"BTM Layout, Bengaluru",1.2196589389008115,0.4735230491263791,3,4,3,228
2207,Amma Apartment,12.9060686,77.6120819,Apartment,"BTM Layout, Bengaluru",1.1968961809957752,1.5350850444032342,8,9,7,544
2208,The Harmony Apartment,12.9189107,77.6028037,Apartment,"BTM Layout, Bengaluru",0.6410318541030412,1.3344411274735057,9,10,9,577
2209,Chiranjeevi Apartment,12.9173011,77.6164468,Apartment,"BTM Layout, Bengaluru",0.9329404475888529,0.29032981648783646,3,3,3,202
2210,Mahaveer Roxy,12.9070575,77.606236,Apartment,"BTM Layout, Bengaluru",1.0162183307322312,1.6895143909474324,8,9,8,554
2211,Elegance Lake View Apartment,12.910504,77.6151101,Apartment,"BTM Layout, Bengaluru",0.9920891150444819,1.006672099043744,6,6,5,349
2212,Sai Ram Enclave,12.9147337,77.6021955,Apartment,"BTM Layout, Bengaluru",0.639012307743454,1.4977592532230932,7,8,7,497
2213,Archana apartment,12.9181977,77.60809429999999,Apartment,"BTM Layout, Bengaluru",0.2399725991110187,0.7740133369605221,4,3,3,208
2214,Emaar Paradise,12.9216175,77.6065429,Apartment,"BTM Layout, Bengaluru",0.6377489354184457,0.9551249519829632,7,7,6,404
2215,Shriram Apartments,12.912838,77.61588559999998,Apartment,"BTM Layout, Bengaluru",0.9324961481469083,0.7519975444735522,6,6,5,343
2216,Srirama Nilaya Apartment,12.9086067,77.6085028,Apartment,"BTM Layout, Bengaluru",0.8293939168388579,1.4119698680465411,7,8,7,508
2217,Indira akash apartments,12.9130138,77.6133083,Apartment,"BTM Layout, Bengaluru",0.6728010784874147,0.7530167676113954,5,5,5,301
2218,Sai Shakti Apartment,12.9059265,77.6065646,Apartment,"BTM Layout, Bengaluru",1.1349131588443109,1.775590786699102,9,10,8,598
2219,ND WILLOW,12.911898800000001,77.6086986,Apartment,"BTM Layout, Bengaluru",0.46840195050511174,1.098314118523382,6,7,6,415
2220,Gayatri Apartment,12.9180385,77.61508549999999,Apartment,"BTM Layout, Bengaluru",0.8059657987530752,0.16887775579358327,3,3,3,193
2221,MARSS MANOR,12.9185239,77.6054023,Apartment,"BTM Layout, Bengaluru",0.38906457198444355,1.0571297251175045,7,8,7,464
2222,Tirumala Dwellings,12.9134823,77.6212462,Apartment,"BTM Layout, Bengaluru",1.4704818760772005,0.9488228758365134,7,8,7,458
2223,Lake Front Apartment,12.9139508,77.6161166,Apartment,"BTM Layout, Bengaluru",0.9167186646574303,0.6330960893410635,5,5,5,322
2224,White Apartment,12.9108151,77.60834320000001,Apartment,"BTM Layout, Bengaluru",0.5832247539910007,1.216950826923334,8,9,7,528
2225,Cauvery Residency Home,12.914240699999999,77.6123914,Apartment,"BTM Layout, Bengaluru",0.5229245794779137,0.6599674426866129,4,4,3,220
2226,Canara Bank Apartments,12.9135269,77.6026053,Apartment,"BTM Layout, Bengaluru",0.64201889863447,1.5109584254017416,7,8,6,479
2227,Nandi Jewels,12.908546800000002,77.6089457,Apartment,"BTM Layout, Bengaluru",0.8409282462662451,1.394130153821225,7,8,7,497
2228,Sai Sumukha Dollars Apartment,12.9067504,77.6030988,Apartment,"BTM Layout, Bengaluru",1.1588887001684687,1.928564988831987,10,12,9,703
2229,OS Apartments,12.9192897,77.6070613,Apartment,"BTM Layout, Bengaluru",0.3730258672690988,0.8715704325068434,5,5,5,309
2230,Sai Sarovar Apartment,12.9118041,77.609032,Apartment,"BTM Layout, Bengaluru",0.48631390393609203,1.0842129748149625,6,7,6,407
2231,Godavari Residency,12.916046000000001,77.60049599999999,Apartment,"BTM Layout, Bengaluru",0.806344628175355,1.6300692084275514,7,8,7,501
2232,Habib apartment,12.9151151,77.6100333,Apartment,"BTM Layout, Bengaluru",0.2497410475226559,0.7384679256005209,6,6,5,389
2233,Sunehra Residence,12.915732,77.6142564,Apartment,"BTM Layout, Bengaluru",0.685915443684368,0.4350227919353655,4,4,4,269
2234,Shri Gurukrupa Apartments,12.9170062,77.6165915,Apartment,"BTM Layout, Bengaluru",0.9441786558745767,0.32657157886960825,3,4,3,212
2235,Hi-tech Royal Ridge residency,12.919633000000001,77.6054582,Apartment,"BTM Layout, Bengaluru",0.4809101709460924,1.044840347263274,7,7,6,411
2236,Jk tower apartment,12.9110455,77.61294240000001,Apartment,"BTM Layout, Bengaluru",0.7768525171947213,0.9748781352599653,7,7,6,445
2237,Kesari Sriram's Castle - Apartments,12.9189911,77.6153946,Apartment,"BTM Layout, Bengaluru",0.8722364834730622,0.07066078212048787,1,1,1,34
2238,Sree Eshwara Towers,12.913692999999999,77.611025,Apartment,"BTM Layout, Bengaluru",0.4248541336631558,0.7874649029622868,5,5,5,270
2239,K V Pristine,12.921612800000002,77.6151042,Apartment,"BTM Layout, Bengaluru",0.9934137030666184,0.2285734712929049,2,3,2,151
2240,Manar Sungleam Apartment,12.9113957,77.60929809999999,Apartment,"BTM Layout, Bengaluru",0.5376604498299782,1.1039873674952867,6,7,6,406
2241,Manar Sorrento,12.9185331,77.6188585,Apartment,"BTM Layout, Bengaluru",1.215704984569155,0.4231323009552017,2,2,2,133
2242,GR Residency,12.922944300000001,77.6155457,Apartment,"BTM Layout, Bengaluru",1.1263883389592295,0.3797359919569537,3,3,3,200
2243,Canopy Crown Apartments,12.913998199999998,77.61143829999999,Apartment,"BTM Layout, Bengaluru",0.4426084778040882,0.7344721089179912,5,4,5,259
2244,Krithik Residency,12.9203222,77.6124007,Apartment,"BTM Layout, Bengaluru",0.6784902682482401,0.3044997202614112,2,2,2,106
2245,Manjusri Tenement (Smartstays),12.9189931,77.6120747,Apartment,"BTM Layout, Bengaluru",0.5555815304096976,0.33365843688718944,2,2,2,110
2246,Sathya apartment complex,12.906893499999999,77.60872579999999,Apartment,"BTM Layout, Bengaluru",1.0212093185573932,1.5684073660560205,8,9,8,568
2247,Crescent Opulent Apartments,12.9115962,77.6080519,Apartment,"BTM Layout, Bengaluru",0.49485674816256175,1.1691360848276995,7,7,6,439
2248,Shristi Apartment,12.9112493,77.6082202,Apartment,"BTM Layout, Bengaluru",0.5341602040468407,1.1870685859893346,7,7,6,446
2249,%2362 AIKYA Apartments,12.9192505,77.6124243,Apartment,"BTM Layout, Bengaluru",0.6030610876588075,0.2918191991233754,2,2,2,129
2250,KMS Residency,12.922969699999998,77.60892790000001,Apartment,"BTM Layout, Bengaluru",0.7774507923093805,0.7689072415254486,4,4,4,243
2251,Sai,12.9064966,77.61032809999999,Apartment,"BTM Layout, Bengaluru",1.0929471670257922,1.5415609676647548,8,9,7,525
2252,Rajappa Apartments,12.9236572,77.6062183,Apartment,"BTM Layout, Bengaluru",0.8666545618206736,1.0649388162702733,6,6,5,378
2253,Modern Apartment,12.9195353,77.6040765,Apartment,"BTM Layout, Bengaluru",0.5705912752846826,1.1945579236390114,8,8,7,473
2254,Sri Sai Elite Apartment,12.905822500000001,77.6053302,Apartment,"BTM Layout, Bengaluru",1.1712609305775508,1.8583051236999093,9,10,9,620
2255,Advaith Mansion,12.9174396,77.6201302,Apartment,"BTM Layout, Bengaluru",1.3307046165738956,0.5940124631134994,3,3,3,186
2256,Elsonic Mukund Miracle,12.914156599999998,77.61966690000001,Apartment,"BTM Layout, Bengaluru",1.288659565118593,0.7783239846481754,6,7,6,407
2257,MKV Residency,12.910549099999999,77.60335500000001,Apartment,"BTM Layout, Bengaluru",0.7873869146810736,1.6196514435700409,9,10,8,579
2258,"SAI RAM NILAYA, 813%2Fa,27 th main, 5 th cross, btm layout 2 stage, bangalore-76",12.911729800000002,77.613947,Apartment,"BTM Layout, Bengaluru",0.8091378005480655,0.8792689380918296,6,6,6,365
2259,Sri Ganapa Residency,12.924722099999999,77.61603240000001,Apartment,"BTM Layout, Bengaluru",1.304194140729734,0.5831641054693039,3,4,3,239
2260,%2315 Nova appartments,12.923805,77.61417359999999,Apartment,"BTM Layout, Bengaluru",1.0961609163511474,0.48285165628556226,3,3,3,196
2261,Manar Merlin,12.9114034,77.6090017,Apartment,"BTM Layout, Bengaluru",0.5289047315972126,1.1218986759921545,7,7,6,439
2262,Sobha Magnolia,12.923447999999999,77.60106280000001,Apartment,"BTM Layout, Bengaluru",1.1101715068359441,1.5814961813721833,9,10,9,595
2263,Apartment,12.910454300000001,77.6128946,Apartment,"BTM Layout, Bengaluru",0.8217778864029164,1.0399974639634548,7,8,7,471
2264,Ashirwad Apartments,12.9155722,77.6177589,Apartment,"BTM Layout, Bengaluru",1.0659365847156428,0.5286709883386236,6,7,6,401
2265,Srivari Apartments,12.914228900000001,77.6115002,Apartment,"BTM Layout, Bengaluru",0.43591415356890306,0.7093067240788116,5,4,5,259
2266,Sesha's Bhanu Residency-II,12.9060229,77.6042699,Apartment,"BTM Layout, Bengaluru",1.1831334613531548,1.9084722277579915,10,11,10,669
2267,Makana Tower,12.9255168,77.6088923,Apartment,"BTM Layout, Bengaluru",1.0582941820829044,0.9442175610116453,4,5,4,277
2268,BBM Residency,12.92153,77.6094476,Apartment,"BTM Layout, Bengaluru",0.6315170486377322,0.6505340437089601,3,4,3,212
2269,Red Lotus Apartment,12.9128337,77.6132138,Apartment,"BTM Layout, Bengaluru",0.6743443512946785,0.7750202363542559,5,5,5,299
2270,29th Apartment Building,12.910207000000002,77.61191559999999,Apartment,"BTM Layout, Bengaluru",0.7794044370479073,1.0954290865413925,6,7,6,440
2271,crown residency,12.911897999999999,77.6077475,Apartment,"BTM Layout, Bengaluru",0.46158990067256067,1.1662208823162403,7,8,6,452
2272,Shreenikethanaa Apartment,12.9187344,77.614948,Apartment,"BTM Layout, Bengaluru",0.8166990654607007,0.09293203621795879,1,1,1,36
2273,%2369 apartment,12.9079929,77.6059245,Apartment,"BTM Layout, Bengaluru",0.921522488708824,1.6254654001954862,8,9,8,566
2274,Paradigm Crystal,12.9091576,77.6063976,Apartment,"BTM Layout, Bengaluru",0.783794206255098,1.4921460430856988,7,8,7,507
2275,the sonic apartment,12.9107991,77.61339609999999,Apartment,"BTM Layout, Bengaluru",0.8309616709929357,0.9911803537136451,7,7,6,414
2276,Sai surya appartment,12.911568800000001,77.61380909999998,Apartment,"BTM Layout, Bengaluru",0.8080557286013188,0.899194832174458,6,6,6,370
2277,Apartment,12.9184228,77.61761779999999,Apartment,"BTM Layout, Bengaluru",1.0821345885588982,0.3007814861993242,2,3,2,155
2278,Olive Heights,12.916181800000002,77.6052395,Apartment,"BTM Layout, Bengaluru",0.2926309735029887,1.1325186366337845,6,7,5,397
2279,Swarnamahal Apartment,12.9228466,77.6148036,Apartment,"BTM Layout, Bengaluru",1.0611318705011308,0.367157902631912,3,3,3,201
2280,May Flower Heights Apartment,12.9062132,77.602426,Apartment,"BTM Layout, Bengaluru",1.2457291324363755,2.021893630902307,10,12,10,690
2281,24%2F1 Apartment,12.923896300000001,77.60676240000001,Apartment,"BTM Layout, Bengaluru",0.8822287516042457,1.0242137613566973,5,6,5,350
2282,Liss Cottage,12.912934300000002,77.60825600000001,Apartment,"BTM Layout, Bengaluru",0.3476426477067172,1.0451272933028355,6,7,6,405
2283,Suraksha Chandra Apts,12.9116387,77.60873690000001,Apartment,"BTM Layout, Bengaluru",0.49760345910239323,1.1183237150011789,6,7,6,433
2284,Livingnest,12.9197461,77.6106356,Apartment,"BTM Layout, Bengaluru",0.5049488883427561,0.4841347096144476,2,2,2,102
2285,Aishwarya Residency,12.9178978,77.6144795,Apartment,"BTM Layout, Bengaluru",0.7385230731827469,0.19633097342590933,2,2,2,99
2286,Manish Priyamvada Apartment,12.9094841,77.6066116,Apartment,"BTM Layout, Bengaluru",0.7435363415161234,1.4493602013018325,7,8,7,505
2287,%238 Habib Apartments,12.908413000000001,77.60947490000001,Apartment,"BTM Layout, Bengaluru",0.8648909764274324,1.3809580084076427,7,8,6,477
2288,SHIVAM,12.9153778,77.6106521,Apartment,"BTM Layout, Bengaluru",0.30359839550002954,0.6694739421021341,4,4,4,221
2289,"LF-6,BDA Flats, BTM 2nd stage",12.9146753,77.6012917,Apartment,"BTM Layout, Bengaluru",0.7360398801674133,1.5918081478516324,8,9,7,524
2290,Archana Residency,12.922747,77.60955729999999,Apartment,"BTM Layout, Bengaluru",0.765656858401933,0.6974633774363731,3,4,3,216
2291,Vijaya Enclave,12.9063519,77.60660209999999,Apartment,"BTM Layout, Bengaluru",1.087488010870026,1.7332245935270492,8,10,8,581
2292,Sri Sai Residency,12.918417100000001,77.6110535,Apartment,"BTM Layout, Bengaluru",0.4286466925384413,0.4563502117904137,2,2,2,148
2293,Shantiniketan,12.9110629,77.613074,Apartment,"BTM Layout, Bengaluru",0.7855156324269813,0.9696733445526778,7,7,6,445
2294,LF-12 BDA Flats,12.914971699999999,77.6017155,Apartment,"BTM Layout, Bengaluru",0.6846588187567135,1.5374655693698567,7,8,7,496
2295,Sriram Sriranjani Apartments,12.9045692,77.5998473,Apartment,"BTM Layout, Bengaluru",1.5481908538824851,2.3473019130953294,12,15,11,892
2296,BTM Home,12.9080992,77.6076791,Apartment,"BTM Layout, Bengaluru",0.8839842406082091,1.5066111251490495,8,9,8,540
2297,Galaxy Homes,12.920345900000001,77.61793940000001,Apartment,"BTM Layout, Bengaluru",1.1849774157816,0.32015353758145443,1,2,1,90
2298,Adarsh Nilaya Apartment,12.9157591,77.6016063,Apartment,"BTM Layout, Bengaluru",0.6867456072183347,1.5220533872698803,7,8,6,477
2299,Surya Residency,12.9258177,77.60906,Apartment,"BTM Layout, Bengaluru",1.0934724381139314,0.9554533506886264,4,5,4,290
2300,Lalitha Mahal,12.922311,77.6129892,Apartment,"BTM Layout, Bengaluru",0.8862265875645615,0.3821246708980264,3,3,3,179
2301,Sri sai comforts apartment,12.907466099999999,77.6086698,Apartment,"BTM Layout, Bengaluru",0.9572545753660685,1.5142859213852828,8,9,8,557
2302,Apartments madiwala,12.9213762,77.6141923,Apartment,"BTM Layout, Bengaluru",0.900660118295076,0.22484322915647206,2,3,2,163
2303,Ashoka Flats Btm,12.926178199999999,77.60899520000001,Apartment,"BTM Layout, Bengaluru",1.1325839996609206,0.9897217921574,4,5,4,290
2304,Fern Alpha 3,12.9139954,77.61579609999998,Apartment,"BTM Layout, Bengaluru",0.8818709960993062,0.6230505610844461,5,5,5,319
2305,Surya Enclave Apartment,12.919692999999999,77.60286740000001,Apartment,"BTM Layout, Bengaluru",0.6828548556103509,1.3256834948575986,9,9,9,556
2306,Galaxy INLAND HOMES,12.918810699999998,77.6036456,Apartment,"BTM Layout, Bengaluru",0.5574744892550649,1.2440306461920474,9,9,9,550
2307,SNR Apartment,12.9135164,77.60345749999999,Apartment,"BTM Layout, Bengaluru",0.560937474187187,1.4293255211305411,6,8,6,464
2308,SRI MANJUNIVASA APARTMENT,12.918802000000001,77.61676,Apartment,"BTM Layout, Bengaluru",1.0042997529444806,0.19870138950225077,2,2,2,99
2309,Balaji Enclave,12.9149328,77.60987879999999,Apartment,"BTM Layout, Bengaluru",0.24421578460279111,0.7644842466700154,6,6,5,384
2310,Casa India Bangalore,12.916719699999998,77.61827009999999,Apartment,"BTM Layout, Bengaluru",1.1225499177746623,0.4665997775456377,3,3,3,192
2311,Vasthav Residency,12.9045255,77.60448819999999,Apartment,"BTM Layout, Bengaluru",1.3343151166762128,2.0288369627026226,10,12,10,717
2312,Pampa Residency,12.9106436,77.6059554,Apartment,"BTM Layout, Bengaluru",0.6378242112264029,1.401546482876168,7,8,7,492
2313,Near BTM signal,12.913439,77.6151849,Apartment,"BTM Layout, Bengaluru",0.8374063691266218,0.6803783324671604,5,5,4,289
2314,Taheera Villa,12.913719500000001,77.6119974,Apartment,"BTM Layout, Bengaluru",0.5105359219073912,0.7309708554846179,5,4,5,242
2315,11 Silver Spring apartment,12.9116704,77.6089139,Apartment,"BTM Layout, Bengaluru",0.4978619052281662,1.1037970480914712,6,7,6,408
2316,Om Shakthi Enclave,12.9094159,77.6041785,Apartment,"BTM Layout, Bengaluru",0.8421452905539707,1.6347335087021642,9,10,8,591
2317,BLR home,12.9109804,77.60440290000001,Apartment,"BTM Layout, Bengaluru",0.6810161821421349,1.501094415901205,8,9,7,530
2318,V G N Complex,12.9135201,77.6131875,Apartment,"BTM Layout, Bengaluru",0.6346668925780512,0.7025176448660401,6,5,6,274
2319,Btm @,12.9254508,77.61396040000001,Apartment,"BTM Layout, Bengaluru",1.2329493448250781,0.6668442072270884,4,4,4,261
2320,47,12.9246809,77.6131073,Apartment,"BTM Layout, Bengaluru",1.1118595836973921,0.6092285208026154,4,5,4,302
2321,A Block,12.912502400000001,77.6018331,Apartment,"BTM Layout, Bengaluru",0.7698537845433718,1.637804204923933,9,11,9,635
2322,Home,12.9152144,77.6012787,Apartment,"BTM Layout, Bengaluru",0.7274042567470389,1.5737149286816778,8,9,7,514
2323,Sri Sai Krupa Appartments,12.919627499999999,77.6188817,Apartment,"BTM Layout, Bengaluru",1.2514126390839588,0.4101091433269601,3,4,3,216
2324,Kantha Residency,12.9179873,77.6143333,Apartment,"BTM Layout, Bengaluru",0.726217174900913,0.19325899726929543,1,2,1,90
2325,Kainaat,12.913414999999999,77.61161340000001,Apartment,"BTM Layout, Bengaluru",0.4943644423323738,0.7804674755272454,6,5,5,309
2326,No 35,12.9137478,77.6125113,Apartment,"BTM Layout, Bengaluru",0.5578239306058674,0.7042062657793844,6,4,5,258
2327,kalyani mansion,12.923906800000001,77.6107601,Apartment,"BTM Layout, Bengaluru",0.9262206095668787,0.6745309782394986,4,4,4,264
2328,Jupiter Building,12.911605300000002,77.6134784,Apartment,"BTM Layout, Bengaluru",0.777549784310285,0.9014760175169947,6,6,6,385
2329,"Sree Benaka, 439, 24th Main, 1st Phase , 2nd Stage , BTM Layout",12.9153352,77.6135381,Apartment,"BTM Layout, Bengaluru",0.6122909424481361,0.49899414477732973,4,4,3,227
2330,Adhiis Home,12.923912,77.606296,Apartment,"BTM Layout, Bengaluru",0.8926317072445821,1.069855960317422,6,6,5,370
2331,Residency,12.9218294,77.6167255,Apartment,"BTM Layout, Bengaluru",1.1494263252154413,0.30811231823808755,4,5,4,297
2332,Chira Corner,12.9140739,77.6099069,Apartment,"BTM Layout, Bengaluru",0.30607124323613083,0.8296637326738177,4,5,4,323
2333,surya,12.909457000000002,77.61110959999999,Apartment,"BTM Layout, Bengaluru",0.8093047826590303,1.2034257834234605,6,7,6,440
2334,338 Apartment,12.909839999999999,77.61398220000001,Apartment,"BTM Layout, Bengaluru",0.951585233161596,1.0872561612284324,7,7,7,428
2335,Sri Balaji Enclave,12.9242969,77.609806,Apartment,"BTM Layout, Bengaluru",0.9396781152681558,0.7789497061779949,4,4,4,249
2336,Pallavi Plaza,12.916032000000001,77.614209,Apartment,"BTM Layout, Bengaluru",0.679895115167889,0.4036631803032276,4,4,3,225
2337,SV Apartments,12.9174939,77.6047303,Apartment,"BTM Layout, Bengaluru",0.38295615768765984,1.1468834662831144,8,9,8,519
2338,Abhyudaya Apartment,12.9080223,77.6035209,Apartment,"BTM Layout, Bengaluru",1.0123277458244677,1.7943379404989637,10,11,9,660
2339,Hamd Residency BTM Layout,12.919234199999998,77.6080134,Apartment,"BTM Layout, Bengaluru",0.3547106852339051,0.7687134932627141,3,3,3,187
2340,Vivek's Home,12.9208043,77.614172,Apartment,"BTM Layout, Bengaluru",0.8584059358907735,0.17120322155980533,2,2,2,126
2341,Majestic Residency,12.923368400000001,77.6080718,Apartment,"BTM Layout, Bengaluru",0.8144470903284047,0.8715134664212708,6,6,5,371
2342,%2316 Pearl Residence,12.918415099999999,77.602664,Apartment,"BTM Layout, Bengaluru",0.629216056123816,1.3536159880401297,9,10,9,618
2343,%E0%B4%95%E0%B5%82%E0%B4%A4%E0%B5%8D%E0%B4%A4%E0%B4%BF%E0%B4%9A%E0%B5%8D%E0%B4%9A%E0%B4%BF%E0%B4%95%E0%B5%8D%E0%B4%95%E0%B4%BE%E0%B4%B5%E0%B5%8D,12.9204156,77.61437540000001,Apartment,"BTM Layout, Bengaluru",0.8504522027080569,0.12349398934466883,1,1,1,72
2344,Building no.5,12.917223,77.6051149,Apartment,"BTM Layout, Bengaluru",0.332612935885145,1.112713347834115,8,9,8,524
2345,Sri Venkateshwara Complex,12.916872300000001,77.6056703,Apartment,"BTM Layout, Bengaluru",0.26220694212344375,1.0645450469217628,9,9,8,541
2346,Rajappa Buildings,12.923838,77.610714,Apartment,"BTM Layout, Bengaluru",0.9173516853719811,0.6725873840390233,4,5,4,271
2347,BANSHANKARI NILAYA,12.9211264,77.613651,Apartment,"BTM Layout, Bengaluru",0.838397510622704,0.23463524203666422,2,2,2,105
2348,SNN Raj Lakeview Phase 1,12.904242800000002,77.608284,Apartment,"BTM Layout, Bengaluru",1.312901142734618,1.8561529789682332,9,10,8,613
2349,"Alcove Service Apartments - BTM Layout, Bangalore",12.9175239,77.6123813,Apartment,"BTM Layout, Bengaluru",0.5090899921341632,0.3712641364202845,2,2,2,116
2350,Rental Houses Available In BTM Layout,12.916551,77.604387,Apartment,"BTM Layout, Bengaluru",0.3887227783876638,1.2080779531864922,6,6,5,388
2351,A,12.92094,77.61371700000001,Apartment,"BTM Layout, Bengaluru",0.8299584531450805,0.21460935447928414,2,2,2,107
2352,Comfort Opel Apartment,12.9097837,77.60576850000001,Apartment,"BTM Layout, Bengaluru",0.734797751789297,1.4844445455793303,7,9,7,515
2353,Prop Address Reality,12.9085741,77.60828620000001,Apartment,"BTM Layout, Bengaluru",0.8316068831639939,1.4270998851550565,9,10,8,602
2354,House no 64%2F1,12.9181755,77.61530079999999,Apartment,"BTM Layout, Bengaluru",0.8326304886561219,0.15519634883226247,1,1,1,68
2355,"522, Vignesh, 10th cross, 6th main , mico layout, Stage 2, BTM Layout, Bengaluru",12.9123855,77.6050061,Apartment,"BTM Layout, Bengaluru",0.5161596702962264,1.3536554213672938,7,8,6,477
2356,Apartments,12.924131800000001,77.61324570000001,Apartment,"BTM Layout, Bengaluru",1.0675852577888127,0.5468697341704195,5,5,4,311
2357,AB Residency,12.911632,77.6085428,Apartment,"BTM Layout, Bengaluru",0.4951055964639325,1.131994576504398,6,7,6,426
2358,Sunshine Apartments,12.9218385,77.6012293,Apartment,"BTM Layout, Bengaluru",0.9712437387078232,1.5243830056442802,9,10,9,628
2359,PG,12.9155001,77.6103472,Apartment,"BTM Layout, Bengaluru",0.26827983736080885,0.6846028975297719,4,5,4,277
2360,Srinivasa Nilaya,12.9116942,77.6047631,Apartment,"BTM Layout, Bengaluru",0.5935572852391715,1.4209870415359986,7,8,7,504
2361,Kalpavriksha Residency,12.9236891,77.6095921,Apartment,"BTM Layout, Bengaluru",0.8687216995365037,0.7531430745179561,3,3,3,205
2362,HelloWorld Lakeview Coliving,12.9104681,77.614171,Apartment,"BTM Layout, Bengaluru",0.9171972713337978,1.0156491001754495,6,7,6,407
2363,Aahika Apartments,12.9035349,77.60625390000001,Apartment,"BTM Layout, Bengaluru",1.4029679171565475,2.023119917179783,9,11,9,663
2364,Building 17,12.9096811,77.60687840000001,Apartment,"BTM Layout, Bengaluru",0.7168677294188001,1.4141050135868871,7,8,7,507
2365,BHN Residency,12.9014209,77.6106537,Apartment,"BTM Layout, Bengaluru",1.6526055338480503,2.073406754813403,10,12,10,701
2366,Essar Plaza,12.9140618,77.6092249,Apartment,"BTM Layout, Bengaluru",0.2610631311979558,0.8823987449351731,5,6,4,338
2367,Obezod Service Apartment,12.9127889,77.6150803,Apartment,"BTM Layout, Bengaluru",0.8548025005463356,0.7526042182026945,5,5,5,297
2368,New apartment,12.9193089,77.6153029,Apartment,"BTM Layout, Bengaluru",0.877055716060248,0.035405221659647095,1,1,1,21
2369,Wild Rose Apartments,12.91762,77.6050019,Apartment,"BTM Layout, Bengaluru",0.3630185497450018,1.115264672296914,8,8,8,508
2370,Home BTM,12.901737800000001,77.6096111,Apartment,"BTM Layout, Bengaluru",1.6012303313930571,2.0687614343160634,9,11,9,646
2371,No 46,12.9081353,77.6107505,Apartment,"BTM Layout, Bengaluru",0.930934066834623,1.3546639100810967,7,8,6,460
2372,Sreepada Mansion,12.9193788,77.6206324,Apartment,"BTM Layout, Bengaluru",1.4251179898501192,0.6001040333063049,3,3,3,192
2373,"Shravanthi Harmony,",12.9172209,77.6125985,Apartment,"BTM Layout, Bengaluru",0.5219824423239284,0.37536279261609173,2,2,2,129
2374,LF-15,12.915218300000001,77.60171640000002,Apartment,"BTM Layout, Bengaluru",0.6803174808430641,1.5284974404753078,7,8,7,496
2375,BTM Palace,12.9139558,77.618607,Apartment,"BTM Layout, Bengaluru",1.1796637322251962,0.7297552454901823,6,7,6,390
2376,TrustedStay Service Apartment in BTM layout,12.917642599999999,77.6053338,Apartment,"BTM Layout, Bengaluru",0.33329539691620463,1.0794943699481117,8,8,8,495
2377,Prism Manor Apartments,12.917430099999999,77.60429509999999,Apartment,"BTM Layout, Bengaluru",0.42357883276657654,1.1945192038304941,9,9,8,532
2378,Pinaz Apartment,12.913683500000001,77.61218530000001,Apartment,"BTM Layout, Bengaluru",0.5301672887298879,0.7254358533553968,4,4,4,238
2379,"%23151 , Vijaya Nivasa",12.917520300000001,77.60139190000001,Apartment,"BTM Layout, Bengaluru",0.7279651568378152,1.5026860770424277,8,9,8,541
2380,Vybhavi Complex,12.908773599999998,77.6039698,Apartment,"BTM Layout, Bengaluru",0.9157171855229748,1.7007609609981356,9,10,9,611
2381,TrustedStay Service Apartment in BTM layout,12.919621800000002,77.6203377,Apartment,"BTM Layout, Bengaluru",1.401727361667673,0.5678815805721636,2,3,3,182
2382,Sidhi Vinayaka apartment,12.910755900000002,77.6049304,Apartment,"BTM Layout, Bengaluru",0.6723157683533867,1.4738540362304848,7,9,7,514
2383,M.M Residency(Service Apartment in Bangalore),12.915725199999999,77.61869870000001,Apartment,"BTM Layout, Bengaluru",1.1670378354485205,0.5777716479134046,6,7,6,406
2384,Tavarekere Apartment,12.9278183,77.61005379999999,Apartment,"BTM Layout, Bengaluru",1.329092221632099,1.068982310950298,6,7,6,410
2385,Mini Apartment,12.9090812,77.6082565,Apartment,"BTM Layout, Bengaluru",0.7751319522442859,1.3808797576476497,9,10,9,613
2386,Vimarsha Residency I,12.9180223,77.61532940000001,Apartment,"BTM Layout, Bengaluru",0.8309340404061352,0.17249980059130493,3,3,3,202
2387,BDA Flats,12.9149642,77.6017765,Apartment,"BTM Layout, Bengaluru",0.6782970284341535,1.5315079691810907,7,8,7,495
2388,Srivari Dwellings,12.9131076,77.6215792,Apartment,"BTM Layout, Bengaluru",1.5143435112408443,1.0038369557651843,7,8,7,451
2389,Om Sakthi Park View Apartment,12.910517500000001,77.6132066,Apartment,"BTM Layout, Bengaluru",0.8391196672102283,1.0258690775455073,7,7,7,439
2390,OAKHAVEN SERVICE APARTMENTS,12.916187400000002,77.6052987,Apartment,"BTM Layout, Bengaluru",0.286257372396378,1.1262597575614273,6,7,5,396
2391,Niranjan Apartment,12.9213728,77.6090521,Apartment,"BTM Layout, Bengaluru",0.604639485922683,0.6856905665805471,3,3,3,183
2392,Nisargha Service Apartment,12.919408500000001,77.6202965,Apartment,"BTM Layout, Bengaluru",1.3908824840771172,0.5636137174895023,3,3,3,201
2393,Manjunatha Residency,12.9236558,77.6069038,Apartment,"BTM Layout, Bengaluru",0.8536313978693044,0.9982326795009063,5,6,5,353
2394,Divya Spencer Apartment,12.9089223,77.6032832,Apartment,"BTM Layout, Bengaluru",0.9389283975328441,1.7430595583294903,10,11,9,655
2395,Ballaco Apartment,12.9205618,77.6091734,Apartment,"BTM Layout, Bengaluru",0.5198349137553196,0.6517948595915221,3,3,2,162
2396,STAYNIDHI,12.9233708,77.6121655,Apartment,"BTM Layout, Bengaluru",0.934708695200427,0.5299623279418284,3,4,3,225
2397,Multishree apartment,12.9054974,77.6055872,Apartment,"BTM Layout, Bengaluru",1.200160224679768,1.8726504752955053,8,10,8,609
2398,Thirupathi Apartment,12.9102671,77.62171540000001,Apartment,"BTM Layout, Bengaluru",1.6258021810631962,1.2575540664268925,9,10,9,577
2399,M.A Residency,12.9109253,77.6098319,Apartment,"BTM Layout, Bengaluru",0.6052514637899087,1.1167226549966236,6,7,5,407
2400,Suites Luxury Service Apartment,12.917491900000002,77.6126579,Apartment,"BTM Layout, Bengaluru",0.5364709406877279,0.35028767574538894,2,2,2,119
2402,Judes Home-G,12.922879,77.6093984,Apartment,"BTM Layout, Bengaluru",0.7762511674872936,0.7197663041387039,3,4,3,230
2403,Thulasi Residency,12.9094498,77.6216004,Apartment,"BTM Layout, Bengaluru",1.6526351959591068,1.3265522580502453,9,10,9,591
2404,MK Residency%2F MK House,12.9225565,77.61364859999999,Apartment,"BTM Layout, Bengaluru",0.9526650526378672,0.3686686774994293,2,3,2,150
2405,Atha Studio%E2%80%99s Vision,12.9107295,77.60816120000001,Apartment,"BTM Layout, Bengaluru",0.5915740440558928,1.2364619196400148,8,9,7,525
2406,Eshwar Tower,12.9137942,77.6109627,Apartment,"BTM Layout, Bengaluru",0.4126324860484752,0.7820227616950476,5,4,5,269
2407,Colive Liberty PG in BTM Layout Bengaluru,12.923599000000001,77.6089402,Apartment,"BTM Layout, Bengaluru",0.8469790413748144,0.8046347274065523,4,4,4,263
2408,Rosie StayAbode,12.915763,77.618615,Apartment,"BTM Layout, Bengaluru",1.1578489445280369,0.5685583587862494,6,7,6,403
2409,Munivenkatappa colony,12.9035379,77.606317,Apartment,"BTM Layout, Bengaluru",1.4017647024776194,2.0195941933756716,9,11,9,662
2411,Colive Darwin PG,12.9090332,77.605824,Apartment,"BTM Layout, Bengaluru",0.8125927910516111,1.5426597698245563,8,9,7,537
2412,House for rent,12.9261028,77.60615729999999,Apartment,"BTM Layout, Bengaluru",1.134855907136643,1.2119235989217758,6,6,5,388
2413,SR Lake View Appartment,12.905339300000001,77.6195572,Apartment,"BTM Layout, Bengaluru",1.733101823384707,1.6531714073970998,13,14,13,818
2414,Kay Arr %26 Co,12.9162824,77.6042364,Apartment,"BTM Layout, Bengaluru",0.4018207826047821,1.2322649680296913,6,7,6,423
2415,Apartment 36,12.9045108,77.60597759999999,Apartment,"BTM Layout, Bengaluru",1.3000015658689166,1.9433049377685312,9,11,9,677
2416,Peninsula Infra Development Pvt Ltd,12.9178633,77.6082127,Apartment,"BTM Layout, Bengaluru",0.20438809957390908,0.769678274759786,3,4,3,210
2418,Amara Canopy,12.913873599999999,77.6091229,Apartment,"BTM Layout, Bengaluru",0.2735970895879651,0.9048966114543554,5,6,4,342
2420,Sai Palace Apartments,12.906550900000001,77.6237912,Apartment,"BTM Layout, Bengaluru",2.016836991246384,1.726050395565106,11,12,10,724
2421,Ram Sridhar Apartments Swimming Pool,12.9161675,77.6093301,Apartment,"BTM Layout, Bengaluru",0.15172164667221913,0.7300062653620948,6,7,6,407
2425,Zolo Destiny PG,12.92539,77.6117789,Apartment,"BTM Layout, Bengaluru",1.119472758142623,0.7416766507822956,5,6,5,334
2426,Apartment,12.9166918,77.63741759999999,Apartment,"BTM Layout, Bengaluru",3.1960858009473023,2.4398659540113385,10,11,9,652
2427,Sub Registrar Office BTM Layout,12.9188507,77.6205651,Office,"BTM Layout, Bengaluru",1.403872222960018,0.5976682433452184,3,3,3,191
2428,India Post BTM Post Office,12.9102341,77.609868,Office,"BTM Layout, Bengaluru",0.6792423735793088,1.1815526998082044,6,7,5,405
2429,MOH office BTM layout,12.910162199999998,77.6103598,Office,"BTM Layout, Bengaluru",0.7049337700153896,1.1640944991676125,6,7,5,403
2430,Ward Office,12.916892800000001,77.60225759999999,Office,"BTM Layout, Bengaluru",0.6225950083637506,1.4228813015611865,8,9,7,529
2431,Corporate Office,12.9216801,77.61381290000001,Office,"BTM Layout, Bengaluru",0.8934874759533882,0.2741041845113877,2,2,2,109
2432,"BWSSB, Sub Division No 3 South",12.915991900000002,77.60731059999999,Office,"BTM Layout, Bengaluru",0.06802454635441142,0.9325162714968096,5,6,5,352
2433,"arbour - Workstations Tables, Cupboards, Chairs Sales %26 Service",12.9168962,77.6048047,Office,"BTM Layout, Bengaluru",0.3523084864498497,1.1542101602237334,9,10,8,574
2434,Block Education Officer s g palya,12.917707,77.60390699999999,Office,"BTM Layout, Bengaluru",0.4741464440697744,1.2302544797836406,9,9,8,529
2435,Novel Business center,12.9165757,77.61011629999999,Office,"BTM Layout, Bengaluru",0.24357298919328355,0.6336182549655122,3,4,3,230
2436,BANGALORE PASSPORT SOLUTIONS,12.909195,77.614078,Office,"BTM Layout, Bengaluru",1.011606317915723,1.1575210048345075,8,7,7,404
2437,BBMP Ward No.65 Office,12.9114903,77.60437759999999,Office,"BTM Layout, Bengaluru",0.6365871326834535,1.4678947088698644,7,9,7,516
2438,Bruhat Bengaluru Mahanagara Palike,12.918683900000001,77.6101052,Office,"BTM Layout, Bengaluru",0.37599849509053584,0.5498081969624633,4,4,4,253
2439,ESI Sub Regional Office South,12.9168269,77.60568,Office,"BTM Layout, Bengaluru",0.2594882016309922,1.0649642023565968,9,9,8,540
2440,Bangalore One,12.9114138,77.60398459999999,Office,"BTM Layout, Bengaluru",0.6697759251277746,1.5069326767684632,7,9,7,511
2441,Office Of The Sub Registrar And Registrar Of Marriages,12.918806,77.6205728,Office,"BTM Layout, Bengaluru",1.4035905050527806,0.5991682791146389,3,3,3,190
2442,Ocean Office,12.9194739,77.61050909999999,Office,"BTM Layout, Bengaluru",0.47237952932922506,0.4974754321149598,2,2,2,116
2443,BSNL Division Engineer Office,12.9096543,77.6123968,Office,"BTM Layout, Bengaluru",0.8595075261228535,1.1394186073546337,7,7,6,418
2444,btm Water bill office,12.9160484,77.6071349,Office,"BTM Layout, Bengaluru",0.08681017120985257,0.9471815273923955,5,6,5,356
2445,Aswani property BTM,12.9130766,77.6035598,Office,"BTM Layout, Bengaluru",0.5778442614852297,1.4433327451336302,7,9,7,512
2446,Tikona Digital Networks,12.9193267,77.6113731,Office,"BTM Layout, Bengaluru",0.5214683613068841,0.4045615399977311,2,2,2,122
2447,URC BMRCL RO office,12.9163327,77.60751450000001,Office,"BTM Layout, Bengaluru",0.055750944158164284,0.8967487473256534,5,6,4,341
2448,Reliance office,12.916788,77.615558,Office,"BTM Layout, Bengaluru",0.830219012806802,0.3119243724995232,3,3,3,196
2449,Pluginkart.com,12.909761300000001,77.60750329999999,Office,"BTM Layout, Bengaluru",0.7002998031765486,1.3653184305412198,8,9,8,543
2450,"AEE S-2 Subdivision Office, BWSSB",12.9159769,77.60729549999999,Office,"BTM Layout, Bengaluru",0.06981651605701134,0.9347070336779413,5,6,5,352
2451,BMRCL,12.9167677,77.6088984,Office,"BTM Layout, Bengaluru",0.1316771150647131,0.7400960282662516,4,5,4,270
2452,Citifi space nestaway btm office,12.92426,77.61604320000001,Office,"BTM Layout, Bengaluru",1.2674646143091617,0.5328592633396307,4,4,4,265
2453,BWSSB Water Billing and Complaint Office,12.915994900000001,77.6073002,Office,"BTM Layout, Bengaluru",0.06911976884868086,0.9333950042807165,5,6,5,353
2454,BTM URC Office,12.9171779,77.61465909999998,Office,"BTM Layout, Bengaluru",0.7394813001703673,0.26881643662155447,3,3,3,168
2455,BDA KENDRA,12.9167465,77.6088488,Office,"BTM Layout, Bengaluru",0.12598767573406627,0.74596482268093,4,5,4,271
2456,ACT PVT LTD,12.9164285,77.6178979,Office,"BTM Layout, Bengaluru",1.0805432315302266,0.4616173886649756,5,5,4,271
2457,Employees State Insurance Corporation,12.916991000000001,77.6057163,Office,"BTM Layout, Bengaluru",0.2625475461146917,1.0561179445379603,9,9,8,548
2458,HB complex,12.916540300000001,77.61798540000001,Office,"BTM Layout, Bengaluru",1.0905760133349862,0.4587373369927183,5,5,4,273
2459,Government Of Karnataka Department of Stamps and Registration,12.918867,77.62056690000001,Office,"BTM Layout, Bengaluru",1.4044662138467112,0.5976261569143668,3,3,3,191
2460,Mizoram House,12.915668199999999,77.61948340000001,Office,"BTM Layout, Bengaluru",1.2522444152767505,0.642546188159173,7,7,6,429
2461,WorkRubiX.com - Coworking %7C Shared Office %7C Startup Space,12.9169436,77.6141471,Office,"BTM Layout, Bengaluru",0.6805568036603601,0.308366367361522,3,3,3,165
2462,APSLOG OFFICE,12.906196699999999,77.609463,Office,"BTM Layout, Bengaluru",1.1075325999138874,1.6062773460002964,10,11,10,683
2463,Parth Office Solutions,12.913766599999999,77.6134458,Office,"BTM Layout, Bengaluru",0.6487017880342524,0.6683339592492191,4,5,4,274
2464,Tquanata Office BTM,12.910797,77.61475,Office,"BTM Layout, Bengaluru",0.9412662024711347,0.9748227499877691,5,6,5,338
2465,Bangalore One,12.916891,77.6022541,Office,"BTM Layout, Bengaluru",0.6229397233007248,1.4232940047873066,8,9,7,529
2466,Medlife International Pvt Ltd,12.9165757,77.61011629999999,Office,"BTM Layout, Bengaluru",0.24357298919328355,0.6336182549655122,3,4,3,230
2467,"BESCOM O%26M section,unit 3",12.916764500000001,77.6103304,Office,"BTM Layout, Bengaluru",0.2715722532853222,0.6028864690287414,4,4,3,254
2468,BJP OFFICE MADIWALA,12.919241900000001,77.6111626,Office,"BTM Layout, Bengaluru",0.49865740823615423,0.4280013223968047,2,2,2,116
2469,Onlinejobsguru Pvt.Ltd.,12.9167868,77.6105901,Office,"BTM Layout, Bengaluru",0.29925916843163597,0.5776162058135342,4,4,3,255
2470,Starttopia,12.916786,77.613384,Office,"BTM Layout, Bengaluru",0.5961971146512202,0.3598294258267089,3,3,2,160
2471,BBNL INTER NET,12.9141863,77.6123632,Office,"BTM Layout, Bengaluru",0.5224668533144354,0.6667445879015809,4,4,3,222
2472,Ss millennium,12.9171345,77.6123977,Office,"BTM Layout, Bengaluru",0.49852176886366106,0.3978035994094177,2,2,2,124
2473,Wipro Limited,12.9110583,77.60254559999998,Office,"BTM Layout, Bengaluru",0.8054705607706658,1.656516485670566,8,9,8,563
2474,Hathaway Broadband Office,12.913469099999999,77.6079355,Office,"BTM Layout, Bengaluru",0.28643964129006166,1.0300318994764635,5,6,5,382
2475,BBMP Madivala,12.9233497,77.614329,Office,"BTM Layout, Bengaluru",1.0676236644751724,0.4298726386130947,3,3,2,172
2476,Metrotel office,12.918481800000002,77.6175533,Office,"BTM Layout, Bengaluru",1.076988834044344,0.29169972475747696,2,2,2,130
2477,Aadhaar Card Office,12.921127400000001,77.6074165,Office,"BTM Layout, Bengaluru",0.5679219964089375,0.8506737335358938,6,6,6,374
2478,AM steel furnitures,12.9192289,77.61290679999999,Office,"BTM Layout, Bengaluru",0.6446618263416042,0.2403150124138018,1,1,1,74
2479,GVS Driver Services Pvt. Ltd.,12.919189,77.614174,Office,"BTM Layout, Bengaluru",0.7611277404170858,0.10822950174563027,1,1,1,39
2480,AR Corporation Pvt. Ltd.,12.921218699999999,77.60858459999999,Office,"BTM Layout, Bengaluru",0.5795585438793089,0.7297386702709331,4,4,3,223
2481,Hexa Building,12.9166328,77.61547790000002,Office,"BTM Layout, Bengaluru",0.8200260654763141,0.3277697842755057,4,4,3,211
2482,Cymbeline Innovation Private Limited - Directors Office,12.911777,77.606481,Office,"BTM Layout, Bengaluru",0.5001018146557221,1.2730797954326802,6,8,6,452
2483,SHOWOFF Head Office,12.905636099999999,77.6082091,Office,"BTM Layout, Bengaluru",1.1578095129843007,1.7186363470038228,8,10,8,585
2484,A2Z PRODUCT,12.913751699999999,77.61495649999999,Office,"BTM Layout, Bengaluru",0.8025090070563052,0.6457262097220368,6,7,6,399
2485,"CSE-Global,India",12.9163466,77.6104444,Office,"BTM Layout, Bengaluru",0.2739387076747678,0.6179603856041118,3,4,3,218
2486,PowerHubs Space: Office Space For Everyone,12.917720599999999,77.61251,Office,"BTM Layout, Bengaluru",0.5296030997306346,0.34699354394008486,2,2,2,115
2487,RUOSH Corporate Office,12.9057351,77.608587,Office,"BTM Layout, Bengaluru",1.1485925554403646,1.6912312754982466,7,9,7,556
