index,Place_name,Latitude,Longitude,Category,Region,haversine_distance_from_centroid,haversine_distance_from_voosh_kitchen,19_00_centroid,distance_in_meters_from_centroid
159,Apartment,12.928977,77.5977103,Apartments,"Adugodi, Bengaluru",3.133219857626753,3.9681323866371536,18,1105
179,Modern Apartment,12.9195353,77.6040765,Apartments,"Adugodi, Bengaluru",2.7176755134761224,3.486095830062498,21,1256
208,HM Indigo,12.8730864,77.5715421,Apartments,"Adugodi, Bengaluru",3.7002516216565837,2.8644534649863513,18,1088
482,Office Space FOR RENT,12.9031126,77.5839092,Offices,"Adugodi, Bengaluru",0.1339192935547948,0.7375285226057019,3,190
731,Srivari PG For Gents,12.8983601,77.6179465,PG,"Adugodi, Bengaluru",3.618686744573694,3.902230074737149,19,1121
738,NEW SNS LUXURY PG FOR LADIES,12.9178128,77.6067936,PG,"Adugodi, Bengaluru",2.8373509577687126,3.565986485610386,21,1248
748,Paying Guest Accommodation for Ladies,12.917618,77.593716,PG,"Adugodi, Bengaluru",1.816032633435931,2.645940302208989,14,832
749,New Executive PG for ladies,12.9153721,77.6010095,PG,"Adugodi, Bengaluru",2.168577710199377,2.9223383158004803,17,994
756,Boys Pg,12.906044,77.562983,PG,"Adugodi, Bengaluru",2.401690061722845,2.3040198193899992,17,997
757,Sudarshan Luxury Living - Hulimavu,12.8806874,77.5944981,PG,"Adugodi, Bengaluru",2.754403814482132,2.2429883306283815,16,987
762,PG for Ladies,12.9268987,77.5733917,PG,"Adugodi, Bengaluru",2.873801392635761,3.47914925894802,19,1116
763,myroomie-Erica Girls PG %2F Hostel,12.9129063,77.5673212,PG,"Adugodi, Bengaluru",2.174886719701921,2.3983529433067723,16,948
766,"Your Space Bangalore - Bannerghatta, Girls (PG near Christ University, NMIMS )",12.8760911,77.5990175,PG,"Adugodi, Bengaluru",3.4216380063850673,2.947407395819405,16,962
1136,Office Space FOR RENT,12.9031126,77.5839092,Office,"Ambalipura, Bengaluru",0.1339192935547948,0.7375285226057019,3,190
1200,"Office of Tejasvi Surya - Member of Parliament, Bengaluru South Lok Sabha Constituency",12.9196774,77.586091,Office,"Ambalipura, Bengaluru",1.7843058331967039,2.5878692666892147,15,879
1237,"ClayWorks Mini Forest - Coworking Space in Bangalore, JP Nagar",12.907128,77.598855,Office,"Ambalipura, Bengaluru",1.549544815859423,2.1623491594726887,12,724
1251,VFS Global Bengaluru,12.9144375,77.5995625,Office,"Ambalipura, Bengaluru",1.9807945773058022,2.73829341970274,15,874
1276,Brillio,12.9073752,77.5995993,Office,"Ambalipura, Bengaluru",1.6345290725264308,2.245331039006009,13,764
1314,Indian Music Experience Museum,12.8917401,77.5836443,Office,"Ambalipura, Bengaluru",1.3342563075715272,0.5856106246228827,4,262
1465,myroomie - Jasmine Girls Pg%2FHostel,12.927334,77.591317,PG,"Ambalipura, Bengaluru",2.7192185956774497,3.5479485541383577,16,966
1516,Stanza Living Liverpool House,12.8790711,77.5981387,PG,"Ambalipura, Bengaluru",3.0830385895907524,2.632827815238986,15,889
1518,myroomie - Magnolia Girls PG %2FHostel,12.8788225,77.5975432,PG,"Ambalipura, Bengaluru",3.0785550947755254,2.6113840361036473,14,857
1519,Stanza Living Nashville House,12.8806892,77.5946264,PG,"Ambalipura, Bengaluru",2.759442856302282,2.25126797724973,16,987
1521,Stanza Living Lille House,12.878773,77.6008991,PG,"Ambalipura, Bengaluru",3.2601892393023792,2.863689824419873,16,969
2007,Greencity Eutopia,12.9104016,77.6090721,Apartment,"BTM Layout, Bengaluru",2.713743645454477,3.3052853426681237,19,1130
2008,Krishna Prakash Apartments,12.9175952,77.6095787,Apartment,"BTM Layout, Bengaluru",3.080865981591575,3.7839356953685996,22,1291
2010,Nitu Apartments,12.9067399,77.6049946,Apartment,"BTM Layout, Bengaluru",2.193209306321194,2.7303508020337164,13,802
2012,Kristal Amber Apartment,12.9104226,77.6070665,Apartment,"BTM Layout, Bengaluru",2.5062267399305,3.114919917756987,20,1185
2013,Srishti Apartments,12.9110847,77.608131,Apartment,"BTM Layout, Bengaluru",2.6386053968493144,3.25156133290015,20,1210
2014,Kristal Sapphire Apartments,12.9119292,77.6149921,Apartment,"BTM Layout, Bengaluru",3.377363975506868,3.955886509484715,20,1170
2015,Eka Apartment,12.9070556,77.6033959,Apartment,"BTM Layout, Bengaluru",2.028458118041954,2.5883675044754426,13,761
2016,Anugraha Apartments,12.9064585,77.6028581,Apartment,"BTM Layout, Bengaluru",1.9596027852813265,2.506937454860417,12,746
2019,Glenburn Apartments,12.9135164,77.6034575,Apartment,"BTM Layout, Bengaluru",2.2801137873578265,2.9821039010606327,17,1038
2020,Pariwar Nest Apartments,12.9106115,77.6080307,Apartment,"BTM Layout, Bengaluru",2.612245934066925,3.216552128522846,20,1213
2021,Pristine Gold Apartment,12.9116119,77.6091566,Apartment,"BTM Layout, Bengaluru",2.762597779268821,3.3771865978622544,19,1115
2022,Ram Sridhar Apartments,12.9161746,77.6095013,Apartment,"BTM Layout, Bengaluru",2.9971277507722305,3.6825020913591655,20,1190
2023,Say-sam Apartments,12.9104905,77.6057959,Apartment,"BTM Layout, Bengaluru",2.3776038613883115,2.9993098075843174,17,996
2026,R EMERALD APARTMENT,12.9144296,77.6116834,Apartment,"BTM Layout, Bengaluru",3.12928009064956,3.7718933260384553,23,1354
2027,Victorian Residency Apartment,12.9194414,77.6058395,Apartment,"BTM Layout, Bengaluru",2.859265413920588,3.6127193561664934,20,1220
2028,Balaji Apartments,12.9072432,77.6091174,Apartment,"BTM Layout, Bengaluru",2.6433627792344305,3.164030178264069,16,938
2029,Apartments in BTM Layout,12.9166855,77.6069295,Apartment,"BTM Layout, Bengaluru",2.782391306576933,3.4963293052342945,20,1209
2030,Say Sam Pearl Apartment,12.911081,77.6082377,Apartment,"BTM Layout, Bengaluru",2.649464772264478,3.2614455510095954,20,1216
2031,Cotha Life Apartment,12.9071621,77.6032403,Apartment,"BTM Layout, Bengaluru",2.0141413673011725,2.578549947641258,13,758
2032,Snehlata Apartment,12.9101733,77.6138196,Apartment,"BTM Layout, Bengaluru",3.2056342558515545,3.7596532610441007,18,1099
2033,LakeView Apartment,12.9062834,77.607494,Apartment,"BTM Layout, Bengaluru",2.4546281549936966,2.961323446087984,15,873
2038,RS Golden Apartment,12.9128444,77.6126129,Apartment,"BTM Layout, Bengaluru",3.1613745791759915,3.771486552068269,21,1269
2041,Sai Meadows Apartment,12.9072919,77.6084464,Apartment,"BTM Layout, Bengaluru",2.57233022441306,3.0985865684882623,16,946
2042,Archana apartment,12.9161951,77.607007,Apartment,"BTM Layout, Bengaluru",2.761662914821735,3.468581988023104,19,1112
2043,Acharya Sankeerna Apartments,12.9162344,77.6088689,Apartment,"BTM Layout, Bengaluru",2.9397412729922667,3.6311711765504735,19,1162
2044,Fantasy Neha Lotus,12.9122616,77.6144895,Apartment,"BTM Layout, Bengaluru",3.3353789521853354,3.9227938676611926,18,1104
2045,Sri Sai Enclave Apartment,12.9079821,77.6069123,Apartment,"BTM Layout, Bengaluru",2.422280379796811,2.9767048230816173,15,907
2049,Amma Apartment,12.9060686,77.6120819,Apartment,"BTM Layout, Bengaluru",2.9467148716514524,3.422970295074787,17,1009
2050,The Harmony Apartment,12.9189107,77.6028037,Apartment,"BTM Layout, Bengaluru",2.567929727183342,3.341275346894529,19,1143
2052,Mahaveer Roxy,12.9070575,77.606236,Apartment,"BTM Layout, Bengaluru",2.331660275328464,2.8677201515765893,14,852
2053,Elegance Lake View Apartment,12.910504,77.6151101,Apartment,"BTM Layout, Bengaluru",3.350197041246089,3.90268976629332,18,1086
2054,Sai Ram Enclave,12.9147337,77.6021955,Apartment,"BTM Layout, Bengaluru",2.23280043062963,2.9661193340876273,17,1009
2055,Archana apartment,12.9181977,77.6080943,Apartment,"BTM Layout, Bengaluru",2.9787061680975886,3.7008970340044836,20,1218
2056,Emaar Paradise,12.9216175,77.6065429,Apartment,"BTM Layout, Bengaluru",3.071305398509326,3.8381386789318728,23,1375
2058,Srirama Nilaya Apartment,12.9086067,77.6085028,Apartment,"BTM Layout, Bengaluru",2.6052299944818844,3.1623385992319033,18,1105
2059,Indira akash apartments,12.9130138,77.6133083,Apartment,"BTM Layout, Bengaluru",3.23879637778229,3.8468184459872052,19,1155
2060,Sai Shakti Apartment,12.9059265,77.6065646,Apartment,"BTM Layout, Bengaluru",2.3500604878189377,2.8530588724052612,14,842
2061,ND WILLOW,12.9118988,77.6086986,Apartment,"BTM Layout, Bengaluru",2.7261567821797894,3.349906693158596,20,1223
2063,MARSS MANOR,12.9185239,77.6054023,Apartment,"BTM Layout, Bengaluru",2.7597382828236547,3.507785130176732,21,1240
2066,White Apartment,12.9108151,77.6083432,Apartment,"BTM Layout, Bengaluru",2.6513202275166035,3.2571303973437997,20,1206
2067,Cauvery Residency Home,12.9142407,77.6123914,Apartment,"BTM Layout, Bengaluru",3.192520966815972,3.8268785052699172,20,1222
2068,Canara Bank Apartments,12.9135269,77.6026053,Apartment,"BTM Layout, Bengaluru",2.2001336316245763,2.9113301770101048,17,1012
2069,Nandi Jewels,12.9085468,77.6089457,Apartment,"BTM Layout, Bengaluru",2.6508023214621743,3.203303324541422,18,1091
2070,Sai Sumukha Dollars Apartment,12.9067504,77.6030988,Apartment,"BTM Layout, Bengaluru",1.99070016724344,2.5445223790450773,13,755
2071,OS Apartments,12.9192897,77.6070613,Apartment,"BTM Layout, Bengaluru",2.955003320804554,3.697199262101054,22,1303
2072,Sai Sarovar Apartment,12.9118041,77.609032,Apartment,"BTM Layout, Bengaluru",2.756746401899763,3.3759589991140673,18,1095
2073,Godavari Residency,12.916046,77.600496,Apartment,"BTM Layout, Bengaluru",2.1710496514216926,2.9376039994783234,17,996
2074,Habib apartment,12.9151151,77.6100333,Apartment,"BTM Layout, Bengaluru",2.9964028909737292,3.6623954349292593,19,1168
2077,Hi-tech Royal Ridge residency,12.919633,77.6054582,Apartment,"BTM Layout, Bengaluru",2.840013694996924,3.5982885787187935,21,1281
2078,Jk tower apartment,12.9110455,77.6129424,Apartment,"BTM Layout, Bengaluru",3.1370433446093546,3.7130469410902895,20,1174
2080,Sree Eshwara Towers,12.913693,77.611025,Apartment,"BTM Layout, Bengaluru",3.0324076744854302,3.66845298142115,20,1187
2082,Manar Sungleam Apartment,12.9113957,77.6092981,Apartment,"BTM Layout, Bengaluru",2.7695790717105857,3.3789204225320595,22,1310
2085,Canopy Crown Apartments,12.9139982,77.6114383,Apartment,"BTM Layout, Bengaluru",3.0865786657109733,3.7243220714661405,20,1187
2088,Sathya apartment complex,12.9068935,77.6087258,Apartment,"BTM Layout, Bengaluru",2.5957498652777464,3.1103078712847694,16,974
2089,Crescent Opulent Apartments,12.9115962,77.6080519,Apartment,"BTM Layout, Bengaluru",2.6488490351330833,3.272406710146131,20,1199
2090,Shristi Apartment,12.9112493,77.6082202,Apartment,"BTM Layout, Bengaluru",2.6535491699470573,3.2689781263457616,20,1210
2093,Sai,12.9064966,77.6103281,Apartment,"BTM Layout, Bengaluru",2.7624789896106403,3.2578230688581993,17,1035
2094,Rajappa Apartments,12.9236572,77.6062183,Apartment,"BTM Layout, Bengaluru",3.1979357218203925,3.981313127005721,24,1441
2095,Modern Apartment,12.9195353,77.6040765,Apartment,"BTM Layout, Bengaluru",2.7176755134761224,3.486095830062498,21,1256
2096,Sri Sai Elite Apartment,12.9058225,77.6053302,Apartment,"BTM Layout, Bengaluru",2.2158010001214863,2.7242285489034135,13,792
2099,MKV Residency,12.9105491,77.603355,Apartment,"BTM Layout, Bengaluru",2.1308911325829287,2.7785067183965095,14,863
2100,"SAI RAM NILAYA, 813%2Fa,27 th main, 5 th cross, btm layout 2 stage, bangalore-76",12.9117298,77.613947,Apartment,"BTM Layout, Bengaluru",3.262346031633473,3.8440835345569293,19,1137
2103,Manar Merlin,12.9114034,77.6090017,Apartment,"BTM Layout, Bengaluru",2.73932687043315,3.351223226149115,21,1247
2104,Sobha Magnolia,12.923448,77.6010628,Apartment,"BTM Layout, Bengaluru",2.8048119852406974,3.6178559950000655,21,1253
2105,Apartment,12.9104543,77.6128946,Apartment,"BTM Layout, Bengaluru",3.1154689473900037,3.680672011535199,19,1140
2107,Srivari Apartments,12.9142289,77.6115002,Apartment,"BTM Layout, Bengaluru",3.1024263796240232,3.7433273467032646,20,1204
2108,Sesha's Bhanu Residency-II,12.9060229,77.6042699,Apartment,"BTM Layout, Bengaluru",2.104249323790832,2.626484030231523,13,762
2111,Red Lotus Apartment,12.9128337,77.6132138,Apartment,"BTM Layout, Bengaluru",3.222707719191704,3.828386904637138,19,1157
2112,29th Apartment Building,12.910207,77.6119156,Apartment,"BTM Layout, Bengaluru",3.0058600340710004,3.5727481683985522,19,1154
2113,crown residency,12.911898,77.6077475,Apartment,"BTM Layout, Bengaluru",2.6292549292930065,3.2611641763643524,20,1180
2115,%2369 apartment,12.9079929,77.6059245,Apartment,"BTM Layout, Bengaluru",2.3176855150417914,2.880388303575924,15,906
2116,Paradigm Crystal,12.9091576,77.6063976,Apartment,"BTM Layout, Bengaluru",2.3975376534209456,2.984278246803877,15,911
2117,the sonic apartment,12.9107991,77.6133961,Apartment,"BTM Layout, Bengaluru",3.1775831184000953,3.746041964839603,19,1121
2118,Sai surya appartment,12.9115688,77.6138091,Apartment,"BTM Layout, Bengaluru",3.2430821137801518,3.8228693540938163,19,1140
2120,Olive Heights,12.9161818,77.6052395,Apartment,"BTM Layout, Bengaluru",2.597263455520879,3.3199648363302474,19,1115
2122,May Flower Heights Apartment,12.9062132,77.602426,Apartment,"BTM Layout, Bengaluru",1.9091387721905875,2.4529274676829416,12,713
2124,Liss Cottage,12.9129343,77.608256,Apartment,"BTM Layout, Bengaluru",2.722484478781302,3.3685981475230466,18,1081
2125,Suraksha Chandra Apts,12.9116387,77.6087369,Apartment,"BTM Layout, Bengaluru",2.720506402118456,3.339064346433322,21,1240
2128,Manish Priyamvada Apartment,12.9094841,77.6066116,Apartment,"BTM Layout, Bengaluru",2.4293885932242985,3.0217034339003925,16,935
2129,%238 Habib Apartments,12.908413,77.6094749,Apartment,"BTM Layout, Bengaluru",2.7040273169739093,3.2497536755991416,18,1074
2130,SHIVAM,12.9153778,77.6106521,Apartment,"BTM Layout, Bengaluru",3.0695270180219922,3.7343809324589685,20,1193
2131,"LF-6,BDA Flats, BTM 2nd stage",12.9146753,77.6012917,Apartment,"BTM Layout, Bengaluru",2.1480369099483614,2.8900368423286245,16,977
2133,Vijaya Enclave,12.9063519,77.6066021,Apartment,"BTM Layout, Bengaluru",2.3596200199618966,2.8740851403771233,14,862
2134,Sri Sai Residency,12.9184171,77.6110535,Apartment,"BTM Layout, Bengaluru",3.264984120289861,3.9663454472190307,23,1379
2135,Shantiniketan,12.9110629,77.613074,Apartment,"BTM Layout, Bengaluru",3.15131678127391,3.7267683862486294,20,1173
2136,LF-12 BDA Flats,12.9149717,77.6017155,Apartment,"BTM Layout, Bengaluru",2.204563273571485,2.9460389334633943,17,1003
2137,Sriram Sriranjani Apartments,12.9045692,77.5998473,Apartment,"BTM Layout, Bengaluru",1.6116491750694613,2.122522589851624,10,584
2138,BTM Home,12.9080992,77.6076791,Apartment,"BTM Layout, Bengaluru",2.5063252005533667,3.057697705924037,15,927
2140,Adarsh Nilaya Apartment,12.9157591,77.6016063,Apartment,"BTM Layout, Bengaluru",2.2461461136584275,2.998513804657907,17,1024
2143,Sri sai comforts apartment,12.9074661,77.6086698,Apartment,"BTM Layout, Bengaluru",2.5993251071838097,3.128339601186735,16,936
2147,Surya Enclave Apartment,12.919693,77.6028674,Apartment,"BTM Layout, Bengaluru",2.6312393308689677,3.4105072974472694,19,1168
2148,Galaxy INLAND HOMES,12.9188107,77.6036456,Apartment,"BTM Layout, Bengaluru",2.630025093442354,3.3955299576672124,19,1149
2150,Balaji Enclave,12.9149328,77.6098788,Apartment,"BTM Layout, Bengaluru",2.972653483167605,3.6372007676630176,19,1163
2152,Vasthav Residency,12.9045255,77.6044882,Apartment,"BTM Layout, Bengaluru",2.1136907254476855,2.587998700283578,14,845
2153,Pampa Residency,12.9106436,77.6059554,Apartment,"BTM Layout, Bengaluru",2.3994437080712103,3.0228631331077427,19,1145
2155,Taheera Villa,12.9137195,77.6119974,Apartment,"BTM Layout, Bengaluru",3.1317084060296265,3.760756800317738,20,1205
2156,11 Silver Spring apartment,12.9116704,77.6089139,Apartment,"BTM Layout, Bengaluru",2.739793440291832,3.3574787438817557,18,1097
2157,Om Shakthi Enclave,12.9094159,77.6041785,Apartment,"BTM Layout, Bengaluru",2.174090359647701,2.7876239982178665,15,873
2158,BLR home,12.9109804,77.6044029,Apartment,"BTM Layout, Bengaluru",2.2541167426887645,2.899769126174645,18,1107
2159,V G N Complex,12.9135201,77.6131875,Apartment,"BTM Layout, Bengaluru",3.244971598929222,3.8621274953142435,20,1212
2162,A Block,12.9125024,77.6018331,Apartment,"BTM Layout, Bengaluru",2.0715868015220043,2.774289634089763,16,940
2163,Home,12.9152144,77.6012787,Apartment,"BTM Layout, Bengaluru",2.1816164209905833,2.9306910968934776,17,990
2166,Kainaat,12.913415,77.6116134,Apartment,"BTM Layout, Bengaluru",3.08079127776414,3.7077776401368268,20,1218
2167,No 35,12.9137478,77.6125113,Apartment,"BTM Layout, Bengaluru",3.1849058496617433,3.810601420612688,20,1218
2169,Jupiter Building,12.9116053,77.6134784,Apartment,"BTM Layout, Bengaluru",3.2097085669283993,3.792322938662359,19,1153
2170,"Sree Benaka, 439, 24th Main, 1st Phase , 2nd Stage , BTM Layout",12.9153352,77.6135381,Apartment,"BTM Layout, Bengaluru",3.353565253803795,3.9959780616410385,24,1453
2173,Chira Corner,12.9140739,77.6099069,Apartment,"BTM Layout, Bengaluru",2.936483523880341,3.5875679034537398,19,1129
2174,surya,12.909457,77.6111096,Apartment,"BTM Layout, Bengaluru",2.9015368991068486,3.458718597474381,18,1105
2175,338 Apartment,12.90984,77.6139822,Apartment,"BTM Layout, Bengaluru",3.214688796092017,3.761342500788465,18,1074
2178,SV Apartments,12.9174939,77.6047303,Apartment,"BTM Layout, Bengaluru",2.6332760183364443,3.3761932143061344,20,1210
2179,Abhyudaya Apartment,12.9080223,77.6035209,Apartment,"BTM Layout, Bengaluru",2.0643183602749082,2.6496378577695623,13,790
2180,Hamd Residency BTM Layout,12.9192342,77.6080134,Apartment,"BTM Layout, Bengaluru",3.0355591408344593,3.7696198176899953,22,1314
2183,%2316 Pearl Residence,12.9184151,77.602664,Apartment,"BTM Layout, Bengaluru",2.5203746046059052,3.2905139519173767,19,1143
2185,Building no.5,12.917223,77.6051149,Apartment,"BTM Layout, Bengaluru",2.649976588865615,3.3864331752409194,20,1202
2186,Sri Venkateshwara Complex,12.9168723,77.6056703,Apartment,"BTM Layout, Bengaluru",2.6781219584713445,3.40549579176404,19,1110
2189,SNN Raj Lakeview Phase 1,12.9042428,77.608284,Apartment,"BTM Layout, Bengaluru",2.5237595036072977,2.9699926460191657,16,970
2191,Rental Houses Available In BTM Layout,12.916551,77.604387,Apartment,"BTM Layout, Bengaluru",2.5426414297138553,3.2777968966637405,19,1123
2193,Comfort Opel Apartment,12.9097837,77.6057685,Apartment,"BTM Layout, Bengaluru",2.350857255132855,2.957464486588914,16,954
2194,Prop Address Reality,12.9085741,77.6082862,Apartment,"BTM Layout, Bengaluru",2.581517659326456,3.139494740923093,16,945
2196,"522, Vignesh, 10th cross, 6th main , mico layout, Stage 2, BTM Layout, Bengaluru",12.9123855,77.6050061,Apartment,"BTM Layout, Bengaluru",2.37460435377381,3.041294492025607,17,1042
2198,AB Residency,12.911632,77.6085428,Apartment,"BTM Layout, Bengaluru",2.70038150652801,3.3204390001892237,21,1234
2199,Sunshine Apartments,12.9218385,77.6012293,Apartment,"BTM Layout, Bengaluru",2.678580991150161,3.483296275121227,20,1172
2200,PG,12.9155001,77.6103472,Apartment,"BTM Layout, Bengaluru",3.0454855429772887,3.7145426427979427,22,1338
2201,Srinivasa Nilaya,12.9116942,77.6047631,Apartment,"BTM Layout, Bengaluru",2.3199385497885436,2.9761343417473847,17,994
2203,HelloWorld Lakeview Coliving,12.9104681,77.614171,Apartment,"BTM Layout, Bengaluru",3.2502195328277064,3.8076512295256295,18,1074
2204,Aahika Apartments,12.9035349,77.6062539,Apartment,"BTM Layout, Bengaluru",2.3029561011781667,2.736746309878692,15,906
2205,Building 17,12.9096811,77.6068784,Apartment,"BTM Layout, Bengaluru",2.4631310006083296,3.0575187966466673,16,953
2206,BHN Residency,12.9014209,77.6106537,Apartment,"BTM Layout, Bengaluru",2.7909869230645987,3.1507233694662244,18,1068
2207,Essar Plaza,12.9140618,77.6092249,Apartment,"BTM Layout, Bengaluru",2.86815382159455,3.524694876219816,18,1106
2210,Wild Rose Apartments,12.91762,77.6050019,Apartment,"BTM Layout, Bengaluru",2.6653667841408204,3.407283435237833,20,1219
2211,Home BTM,12.9017378,77.6096111,Apartment,"BTM Layout, Bengaluru",2.675398564199305,3.045535179670413,17,1012
2212,No 46,12.9081353,77.6107505,Apartment,"BTM Layout, Bengaluru",2.8341764142564774,3.3652450810455146,17,1044
2215,LF-15,12.9152183,77.6017164,Apartment,"BTM Layout, Bengaluru",2.2203933922193992,2.965032848416808,17,1003
2217,TrustedStay Service Apartment in BTM layout,12.9176426,77.6053338,Apartment,"BTM Layout, Bengaluru",2.6961444458827244,3.435410742797055,20,1213
2218,Prism Manor Apartments,12.9174301,77.6042951,Apartment,"BTM Layout, Bengaluru",2.590933380281515,3.3370101251671103,20,1195
2219,Pinaz Apartment,12.9136835,77.6121853,Apartment,"BTM Layout, Bengaluru",3.149322578012073,3.7763906973787154,20,1214
2220,"%23151 , Vijaya Nivasa",12.9175203,77.6013919,Apartment,"BTM Layout, Bengaluru",2.3509838531834517,3.123927857335926,18,1065
2221,Vybhavi Complex,12.9087736,77.6039698,Apartment,"BTM Layout, Bengaluru",2.1323584642156677,2.7324862279407,14,842
2223,Sidhi Vinayaka apartment,12.9107559,77.6049304,Apartment,"BTM Layout, Bengaluru",2.2988509123688865,2.934525476493453,19,1127
2226,Mini Apartment,12.9090812,77.6082565,Apartment,"BTM Layout, Bengaluru",2.590891361667029,3.1606173916548475,16,956
2228,BDA Flats,12.9149642,77.6017765,Apartment,"BTM Layout, Bengaluru",2.2095232732094003,2.9502698262185483,17,1005
2230,Om Sakthi Park View Apartment,12.9105175,77.6132066,Apartment,"BTM Layout, Bengaluru",3.1499802718469145,3.714371632568314,19,1115
2231,OAKHAVEN SERVICE APARTMENTS,12.9161874,77.6052987,Apartment,"BTM Layout, Bengaluru",2.6030161520943444,3.325243887280273,19,1113
2235,Divya Spencer Apartment,12.9089223,77.6032832,Apartment,"BTM Layout, Bengaluru",2.0653424751838783,2.676153058623954,13,807
2236,Ballaco Apartment,12.9205618,77.6091734,Apartment,"BTM Layout, Bengaluru",3.223398315760709,3.9617090552298126,22,1322
2238,Multishree apartment,12.9054974,77.6055872,Apartment,"BTM Layout, Bengaluru",2.2399200815560185,2.7370733495711144,15,876
2240,M.A Residency,12.9109253,77.6098319,Apartment,"BTM Layout, Bengaluru",2.8091627566083326,3.4052082221073974,19,1136
2242,Supreme Residency,12.8961754,77.6161987,Apartment,"BTM Layout, Bengaluru",3.481926536817547,3.70925293543392,18,1087
2246,Atha Studio%E2%80%99s Vision,12.9107295,77.6081612,Apartment,"BTM Layout, Bengaluru",2.629650003287563,3.2352570117737365,17,1046
2247,Eshwar Tower,12.9137942,77.6109627,Apartment,"BTM Layout, Bengaluru",3.0302930846015235,3.668460417159206,20,1184
2250,Munivenkatappa colony,12.9035379,77.606317,Apartment,"BTM Layout, Bengaluru",2.3097931018531486,2.743413093144721,15,909
2251,Bidare Residency Apartments,12.8929686,77.6112286,Apartment,"BTM Layout, Bengaluru",3.081021963602218,3.1977937800875087,14,865
2252,Colive Darwin PG,12.9090332,77.605824,Apartment,"BTM Layout, Bengaluru",2.3338965706268278,2.9228012096187537,15,913
2255,Kay Arr %26 Co,12.9162824,77.6042364,Apartment,"BTM Layout, Bengaluru",2.512375448291123,3.245663319881096,18,1095
2256,Apartment 36,12.9045108,77.6059776,Apartment,"BTM Layout, Bengaluru",2.274900554752843,2.740175807829376,14,854
2257,Peninsula Infra Development Pvt Ltd,12.9178633,77.6082127,Apartment,"BTM Layout, Bengaluru",2.9695620862259324,3.686934794901858,21,1282
2259,Amara Canopy,12.9138736,77.6091229,Apartment,"BTM Layout, Bengaluru",2.8496405288828046,3.504025109994498,18,1103
2260,Pranavam apartment,12.8936157,77.6062394,Apartment,"BTM Layout, Bengaluru",2.5583543421667954,2.652240733110853,14,811
2262,Ram Sridhar Apartments Swimming Pool,12.9161675,77.6093301,Apartment,"BTM Layout, Bengaluru",2.980335745339131,3.6670242176550802,20,1180
2263,apartment,12.8927369,77.5944849,Apartment,"BTM Layout, Bengaluru",1.5912739710876898,1.4267722598980879,7,434
2267,India Post BTM Post Office,12.9102341,77.609868,Office,"BTM Layout, Bengaluru",2.791828723126938,3.3738321762503674,19,1117
2268,MOH office BTM layout,12.9101622,77.6103598,Office,"BTM Layout, Bengaluru",2.8412676903942837,3.418171912733152,19,1114
2269,Ward Office,12.9168928,77.6022576,Office,"BTM Layout, Bengaluru",2.378880965861518,3.137691743368035,17,1043
2271,"BWSSB, Sub Division No 3 South",12.9159919,77.6073106,Office,"BTM Layout, Bengaluru",2.7789108916814977,3.480439564925373,19,1120
2272,"arbour - Workstations Tables, Cupboards, Chairs Sales %26 Service",12.9168962,77.6048047,Office,"BTM Layout, Bengaluru",2.60167733759072,3.337118259187001,18,1088
2273,Block Education Officer s g palya,12.917707,77.603907,Office,"BTM Layout, Bengaluru",2.5756603968570504,3.328135962664027,19,1114
2274,Novel Business center,12.9165757,77.6101163,Office,"BTM Layout, Bengaluru",3.076879758139189,3.7626484218784966,22,1310
2275,BANGALORE PASSPORT SOLUTIONS,12.909195,77.614078,Office,"BTM Layout, Bengaluru",3.210333008065547,3.743827298913177,17,1040
2276,BBMP Ward No.65 Office,12.9114903,77.6043776,Office,"BTM Layout, Bengaluru",2.2726547198826035,2.9288155816538315,16,984
2277,Bruhat Bengaluru Mahanagara Palike,12.9186839,77.6101052,Office,"BTM Layout, Bengaluru",3.1919547856771837,3.903660913657757,22,1327
2278,ESI Sub Regional Office South,12.9168269,77.60568,Office,"BTM Layout, Bengaluru",2.6762374519719243,3.4029749258368978,18,1108
2279,Bangalore One,12.9114138,77.6039846,Office,"BTM Layout, Bengaluru",2.2300641319871857,2.888802023603613,16,974
2281,Ocean Office,12.9194739,77.6105091,Office,"BTM Layout, Bengaluru",3.2756284523473456,3.992932561217139,23,1380
2282,BSNL Division Engineer Office,12.9096543,77.6123968,Office,"BTM Layout, Bengaluru",3.0424546561699444,3.595214825707712,18,1102
2283,btm Water bill office,12.9160484,77.6071349,Office,"BTM Layout, Bengaluru",2.7654835729410916,3.46932071213863,19,1115
2284,Aswani property BTM,12.9130766,77.6035598,Office,"BTM Layout, Bengaluru",2.2668596408009973,2.9605324631743293,16,954
2286,URC BMRCL RO office,12.9163327,77.6075145,Office,"BTM Layout, Bengaluru",2.8169111841092374,3.521201790028583,19,1144
2288,Pluginkart.com,12.9097613,77.6075033,Office,"BTM Layout, Bengaluru",2.5307564061658834,3.121579756100363,17,993
2289,"AEE S-2 Subdivision Office, BWSSB",12.9159769,77.6072955,Office,"BTM Layout, Bengaluru",2.7766646829783235,3.4781234581143083,19,1119
2290,BMRCL,12.9167677,77.6088984,Office,"BTM Layout, Bengaluru",2.971175597108996,3.6693987476243968,21,1261
2292,BWSSB Water Billing and Complaint Office,12.9159949,77.6073002,Office,"BTM Layout, Bengaluru",2.7780949873436893,3.479755648079299,19,1119
2294,BDA KENDRA,12.9167465,77.6088488,Office,"BTM Layout, Bengaluru",2.9653346264766016,3.663695181222897,21,1261
2296,Employees State Insurance Corporation,12.916991,77.6057163,Office,"BTM Layout, Bengaluru",2.6895410805004567,3.41793206081035,19,1116
2301,APSLOG OFFICE,12.9061967,77.609463,Office,"BTM Layout, Bengaluru",2.665620696143377,3.158305308918667,15,912
2302,Parth Office Solutions,12.9137666,77.6134458,Office,"BTM Layout, Bengaluru",3.280617988074437,3.8998905320499766,20,1183
2303,Tquanata Office BTM,12.910797,77.61475,Office,"BTM Layout, Bengaluru",3.3198270254799804,3.879809127780104,18,1075
2304,Bangalore One,12.916891,77.6022541,Office,"BTM Layout, Bengaluru",2.378459073341766,3.137283203282414,17,1043
2305,"BESCOM O%26M section,unit 3",12.9167645,77.6103304,Office,"BTM Layout, Bengaluru",3.107207888992816,3.793754274483143,22,1328
2307,Onlinejobsguru Pvt.Ltd.,12.9167868,77.6105901,Office,"BTM Layout, Bengaluru",3.133252776582249,3.818032718407434,22,1327
2309,BBNL INTER NET,12.9141863,77.6123632,Office,"BTM Layout, Bengaluru",3.18745484574528,3.8211741780290835,21,1231
2311,Wipro Limited,12.9110583,77.6025456,Office,"BTM Layout, Bengaluru",2.0710733190526964,2.738299638152198,16,933
2312,Hathaway Broadband Office,12.9134691,77.6079355,Office,"BTM Layout, Bengaluru",2.713698942452249,3.371698752982807,18,1082
2315,Aadhaar Card Office,12.9211274,77.6074165,Office,"BTM Layout, Bengaluru",3.109550751383462,3.866004192527957,23,1360
2318,AR Corporation Pvt. Ltd.,12.9212187,77.6085846,Office,"BTM Layout, Bengaluru",3.2155640380612587,3.9642352438287656,22,1300
2320,Cymbeline Innovation Private Limited - Directors Office,12.911777,77.606481,Office,"BTM Layout, Bengaluru",2.49613733123183,3.1372299197461464,19,1132
2321,SHOWOFF Head Office,12.9056361,77.6082091,Office,"BTM Layout, Bengaluru",2.5243452181624937,3.0094366248661437,16,964
2323,"CSE-Global,India",12.9163466,77.6104444,Office,"BTM Layout, Bengaluru",3.0966958896020818,3.776772194417359,23,1362
2325,RUOSH Corporate Office,12.9057351,77.608587,Office,"BTM Layout, Bengaluru",2.566115644702319,3.051741305576595,17,1008
2326,Oracle India Private Limited,12.9115641,77.6003162,Office,"BTM Layout, Bengaluru",1.8774145543822953,2.5810203977012107,15,882
2327,Btm Office,12.9141848,77.6029498,Office,"BTM Layout, Bengaluru",2.2694046416696816,2.9870422183572556,17,1002
2328,Nandini,12.9136705,77.610402,Office,"BTM Layout, Bengaluru",2.968779590546037,3.6093735617123612,20,1178
2329,Electricity Office,12.9168525,77.6102484,Office,"BTM Layout, Bengaluru",3.1039702172844286,3.7923184911262835,21,1251
2330,OFFICE OF BJP BTM WARD 176,12.9116847,77.6063601,Office,"BTM Layout, Bengaluru",2.480215500919056,3.120673866733037,19,1129
2331,Xten BPO Solutions Pvt. Ltd.,12.91642,77.611667,Office,"BTM Layout, Bengaluru",3.2188257163074825,3.8903425405391476,22,1312
2333,Addon Interiors %26 Constructions,12.9105584,77.6099306,Office,"BTM Layout, Bengaluru",2.8080039179275675,3.396059207955736,18,1101
2335,Transaction Analysts India Pvt. Ltd,12.9163269,77.6111586,Office,"BTM Layout, Bengaluru",3.1648347378268027,3.839017285237048,22,1333
2336,BJSHub%C2%AE (Bangalore Job Seeker),12.9139638,77.6087434,Office,"BTM Layout, Bengaluru",2.816023252520017,3.4750795327912187,18,1093
2338,Syntax Soft-Tech India Pvt. Ltd.,12.9145361,77.6099784,Office,"BTM Layout, Bengaluru",2.9641886953806478,3.6219095295449613,19,1150
2342,L%26P Digitech Pvt. Ltd.,12.9130926,77.6104087,Office,"BTM Layout, Bengaluru",2.945983735166889,3.5769282383557472,20,1177
2343,IBM SA,12.9250658,77.6007254,Office,"BTM Layout, Bengaluru",2.9265668491393115,3.7469100108357485,19,1155
2344,Prasastha Technologies,12.9159055,77.6122706,Office,"BTM Layout, Bengaluru",3.2533381962623644,3.913191735664393,23,1405
2345,Osum Cabs - Head Office,12.9161779,77.6111947,Office,"BTM Layout, Bengaluru",3.1610129018824495,3.832879854713189,23,1375
2346,ACT FIBERNET BTM Layout,12.9073505,77.6061119,Office,"BTM Layout, Bengaluru",2.323908943913062,2.8686247076841047,14,852
2347,InfinityQuest IT Services Pvt. Ltd,12.9150148,77.6101839,Office,"BTM Layout, Bengaluru",3.0064890375405944,3.669773998964821,23,1370
2348,5C Network Pvt. Ltd.,12.915125,77.606285,Office,"BTM Layout, Bengaluru",2.6348324979554523,3.333518838412715,18,1063
2349,SynTechnoCom,12.9129525,77.6129546,Office,"BTM Layout, Bengaluru",3.2003066825466044,3.80979698155493,19,1168
2350,Matrix HR Technologies Private Limited,12.9142027,77.6062193,Office,"BTM Layout, Bengaluru",2.580451117522532,3.265941458993795,17,1041
2351,Java Learning Center (JLC) - Corporate Office,12.9164551,77.604634,Office,"BTM Layout, Bengaluru",2.5588601229538934,3.290569793449914,19,1119
2352,AVIDS Technology,12.9126063,77.609878,Office,"BTM Layout, Bengaluru",2.873147415976555,3.4999582987924462,19,1145
2353,Wisely Online Services Private Limited,12.916197,77.6121644,Office,"BTM Layout, Bengaluru",3.2566219784938917,3.9213183547383337,24,1419
2357,Dash Square,12.9162874,77.6129396,Office,"BTM Layout, Bengaluru",3.336970668485376,3.9971335654149365,21,1269
2358,ACT Fibernet,12.9158125,77.6107934,Office,"BTM Layout, Bengaluru",3.1041247737811197,3.7740641889058244,20,1216
2361,Looking Good Furniture - BTM LAYOUT,12.9163901,77.6058543,Office,"BTM Layout, Bengaluru",2.6659834883403097,3.3857295687911875,18,1092
2362,"DGS TECHNICAL SERVICES,Btm branch",12.9146192,77.6101328,Office,"BTM Layout, Bengaluru",2.9832367677572833,3.640974765281504,22,1320
2363,IndiQube Arcade,12.9244462,77.6012544,Office,"BTM Layout, Bengaluru",2.9052186205737103,3.721087470240981,20,1203
2364,LIC AGENT IN BTM LAYOUT,12.9161279,77.6102067,Office,"BTM Layout, Bengaluru",3.0627026362269607,3.7417033832761675,22,1334
2365,Lyncis Technologies India Pvt Ltd,12.9163235,77.6104622,Office,"BTM Layout, Bengaluru",3.097245652187144,3.7768676167589734,23,1361
2366,Srividya Controls,12.9122572,77.6055727,Office,"BTM Layout, Bengaluru",2.425137128886713,3.0838853332538134,17,1040
2367,Sansu Automotives Pvt Ltd,12.9140694,77.6104645,Office,"BTM Layout, Bengaluru",2.991928304389582,3.6384342667541922,19,1152
2369,LOGOMOTION INDIA PRIVATE LIMITED,12.9162174,77.6108599,Office,"BTM Layout, Bengaluru",3.1304261310187824,3.8054554794265614,22,1345
2372,Browndove Healthcare Pvt. Ltd.,12.9114489,77.6146191,Office,"BTM Layout, Bengaluru",3.3241793774383948,3.896663861944589,18,1078
2373,Airtel Store,12.9103717,77.6065378,Office,"BTM Layout, Bengaluru",2.4498907324013564,3.0622279247449353,16,951
2374,Nexteck Services,12.9161958,77.6101699,Office,"BTM Layout, Bengaluru",3.0625734072148543,3.7427992639115915,21,1269
2375,Ravi Chandra G %26 Co,12.9168069,77.6058374,Office,"BTM Layout, Bengaluru",2.689327700902461,3.4144167503078084,19,1111
2377,British Barristers (Formerly known as SV Law Associates)(H G Shobharani),12.9111778,77.6110945,Office,"BTM Layout, Bengaluru",2.948331381853002,3.539719583155159,19,1155
2378,Aarna Tech Solutions,12.9136897,77.6077548,Office,"BTM Layout, Bengaluru",2.7057860695435343,3.369027040366706,18,1075
2379,Vi mini store,12.9140396,77.609962,Office,"BTM Layout, Bengaluru",2.94047493272619,3.5905643711931643,19,1131
2381,Fortyworks Consulting,12.912511,77.608654,Office,"BTM Layout, Bengaluru",2.74524821799167,3.380507757016038,18,1076
2383,DTDC,12.9168511,77.6086976,Office,"BTM Layout, Bengaluru",2.956814348307463,3.6577782848839115,21,1263
2384,STG,12.9164977,77.60205,Office,"BTM Layout, Bengaluru",2.3341258698103267,3.0906103023863967,18,1090
2385,i Mobile Services,12.9137501,77.6090135,Office,"BTM Layout, Bengaluru",2.8333059940017047,3.4866133999581765,19,1114
2387,Four Facing Property Consultants Private Limited,12.910386,77.609738,Office,"BTM Layout, Bengaluru",2.7827191358032715,3.368782142575157,18,1099
2388,Skycare IT Solution,12.9138915,77.6080957,Office,"BTM Layout, Bengaluru",2.748701520632252,3.4122069199858687,18,1075
2389,ZantOsoft,12.9138817,77.6046294,Office,"BTM Layout, Bengaluru",2.4111594392472036,3.107001471867813,18,1051
2390,Raavan Studios,12.9096939,77.6114516,Office,"BTM Layout, Bengaluru",2.943577243902565,3.5033236145575524,19,1140
2391,DR.HOLLA'S VITILIGO CENTRE,12.912705,77.609829,Office,"BTM Layout, Bengaluru",2.8719872787545766,3.5009192404082174,19,1147
2393,DTDC,12.9129118,77.603707,Office,"BTM Layout, Bengaluru",2.272676177786105,2.961999553223421,17,999
2395,Mico Layout Police Station,12.9086426,77.6106704,Office,"BTM Layout, Bengaluru",2.836092518817429,3.3788727915152266,18,1068
2396,B.T.M Telephone Exchange,12.9096798,77.6124463,Office,"BTM Layout, Bengaluru",3.0483105435645776,3.6012656880989535,18,1103
2397,"ezEMRx India Pvt. Ltd.,",12.9146344,77.6099484,Office,"BTM Layout, Bengaluru",2.9656981085795877,3.6251694970101775,19,1153
2398,Samrat Groups,12.9155072,77.6093696,Office,"BTM Layout, Bengaluru",2.9506382465878933,3.627787811600817,20,1177
2399,Vista Agency,12.9152543,77.6055617,Office,"BTM Layout, Bengaluru",2.573662994140578,3.2809219696300183,18,1097
2400,Provlab India,12.9162098,77.6111937,Office,"BTM Layout, Bengaluru",3.16247832011124,3.834790416246608,22,1331
2401,Vi - Vodafone Idea Store,12.9162321,77.6068492,Office,"BTM Layout, Bengaluru",2.7489981884176666,3.457800048274652,19,1120
2402,Vi mini store,12.9141518,77.6003097,Office,"BTM Layout, Bengaluru",2.0274469855052994,2.772994333141208,16,940
2403,Unilet Stores,12.9163239,77.6124503,Office,"BTM Layout, Bengaluru",3.290666232684083,3.9549528122270714,21,1280
2404,Doberman Security Solutions Pvt Ltd,12.9158537,77.6085447,Office,"BTM Layout, Bengaluru",2.8887775715548196,3.577740874283037,19,1150
2406,Sri Computech Solutions,12.9164757,77.6063112,Office,"BTM Layout, Bengaluru",2.713066973538617,3.4298012206284705,20,1172
2408,Farm Connect Corporate Office,12.9136044,77.6031644,Office,"BTM Layout, Bengaluru",2.2570783555741905,2.9635524549156553,17,1023
2410,"9th D Main Road, KEB Colony, BTM, Bengaluru, Karnataka",12.917006,77.606022,Office,"BTM Layout, Bengaluru",2.71816369459012,3.4440285680209577,19,1121
2411,Galaxy Real Estate,12.9168458,77.6062119,Office,"BTM Layout, Bengaluru",2.725815524777781,3.4480567049733457,19,1112
2412,Multinational Companies,12.9158965,77.6011391,Office,"BTM Layout, Bengaluru",2.2151417717878683,2.973727546149185,17,1012
2413,Manav Fancy Store,12.9093038,77.6126857,Office,"BTM Layout, Bengaluru",3.064808436779846,3.608697500011966,18,1079
2414,PNB Housing Finance Limited,12.916324,77.6106223,Office,"BTM Layout, Bengaluru",3.112737889221784,3.7910947959188723,23,1354
2415,Best Muslim Marriage.Com Muslim Marriage Bureau in Bangalore,12.9201927,77.6041234,Office,"BTM Layout, Bengaluru",2.7694978744236813,3.543014972160102,21,1280
2416,ABC - Technology Training %26 Upskilling (BTM Layout Branch),12.9169106,77.6097727,Office,"BTM Layout, Bengaluru",3.0617266129970218,3.7546428409504133,21,1285
2417,SMEClabs,12.9154489,77.6101844,Office,"BTM Layout, Bengaluru",3.0271140661488407,3.6967472055951194,23,1357
2418,TL 262,12.9147455,77.6057485,Office,"BTM Layout, Bengaluru",2.563545255076546,3.2617105223254277,18,1077
2419,Zia %26 Company,12.9162412,77.6075308,Office,"BTM Layout, Bengaluru",2.813370827781807,3.516311004500044,19,1141
2420,PITCS%C2%AE,12.9162312,77.612625,Office,"BTM Layout, Bengaluru",3.3034188004030622,3.9651368997448673,21,1276
2421,Testing Campus Infotech,12.9163807,77.6108646,Office,"BTM Layout, Bengaluru",3.139017994970989,3.8162300407999576,22,1345
2422,Chetak @ KTM BTM Layout,12.9167339,77.6108493,Office,"BTM Layout, Bengaluru",3.1554284936708483,3.8374740854942213,22,1333
2423,delivery boy and tiffin box delivery,12.9198321,77.60718,Office,"BTM Layout, Bengaluru",3.0011502660316043,3.747707771118273,22,1323
2424,Productronica India,12.9131807,77.6101653,Office,"BTM Layout, Bengaluru",2.9248733398859503,3.559247543084682,19,1161
2425,Bajaj Finance FD - Fixed Deposit,12.9113049,77.6060907,Office,"BTM Layout, Bengaluru",2.4379587057348804,3.0735477973924685,17,1034
2426,ark tech,12.917132,77.6068241,Office,"BTM Layout, Bengaluru",2.7988849695831046,3.51926468685166,20,1219
2428,The Mattress Shoppe,12.9091961,77.6060213,Office,"BTM Layout, Bengaluru",2.359232277362557,2.9501771131620886,15,921
2429,Sps Laptop Solutions,12.9138681,77.6096772,Office,"BTM Layout, Bengaluru",2.904606202308289,3.554283782876855,19,1120
2432,Star Kids Wear,12.9201994,77.6072729,Office,"BTM Layout, Bengaluru",3.033792445869475,3.7830819088006735,22,1336
2433,Rupachandra plumbing services,12.9085106,77.6131791,Office,"BTM Layout, Bengaluru",3.1006439428045334,3.625340348578455,18,1058
2435,YES Germany BTM Layout Bengaluru,12.9168559,77.6038891,Office,"BTM Layout, Bengaluru",2.517842154068627,3.2611657103462175,18,1070
2436,Upshot Technologies,12.916811,77.6084962,Office,"BTM Layout, Bengaluru",2.935655751756033,3.6377872048270454,19,1166
2437,EduSofteq,12.9103713,77.6098416,Office,"BTM Layout, Bengaluru",2.793100331779086,3.3780803316930603,19,1118
2439,Domino's Pizza,12.9141012,77.6094966,Office,"BTM Layout, Bengaluru",2.8968804010375484,3.5517784961187986,19,1124
2440,Gnarus,12.9154733,77.602928,Office,"BTM Layout, Bengaluru",2.344502782590214,3.08020628880773,18,1054
2441,Esperto Car Care (Head Office BTM) - Best Car Detailing Showroom In Bangalore,12.9015231,77.6029404,Office,"BTM Layout, Bengaluru",1.958322593287125,2.3327520840203255,14,854
2442,BBMP Park,12.9189927,77.603229,Office,"BTM Layout, Bengaluru",2.608679761123355,3.379247374511075,19,1143
2445,"SkewCode - ReactJS, AngularJS, NodeJS, JavaScript and Web Development Training in Bangalore",12.9138416,77.6076742,Office,"BTM Layout, Bengaluru",2.7048498210317957,3.3712787230373302,18,1066
2446,Ajax Management Consultants (P) Ltd,12.9162782,77.6121245,Office,"BTM Layout, Bengaluru",3.2565915631085876,3.9227014620277165,24,1422
2447,Taluk Office,12.9140687,77.5719242,Office,"BTM Layout, Bengaluru",1.8299513868302244,2.2127967290328168,13,795
2448,Cooling Techniq,12.9142718,77.6094632,Office,"BTM Layout, Bengaluru",2.901222404469662,3.559087001795336,19,1145
2449,S.S.PG (For Gents) Rooms On Daily basis,12.9099401,77.5727891,PG,"BTM Layout, Bengaluru",1.4967787832841843,1.7730244395657524,14,837
2451,SLV Gents Pg in Btm Layout%7C Paying Guest in Bangalore,12.9060494,77.6058327,PG,"BTM Layout, Bengaluru",2.2727561359317185,2.7841651889131045,14,821
2453,Elegance PG for Gents,12.9070497,77.6045543,PG,"BTM Layout, Bengaluru",2.1518375854292078,2.7012458079873864,13,792
2454,Perfect Women pg,12.913589,77.6038096,PG,"BTM Layout, Bengaluru",2.3174892979682626,3.0169881813950177,16,958
2455,Girls pg,12.9178984,77.6053328,PG,"BTM Layout, Bengaluru",2.712551240739019,3.454627451819001,20,1220
2457,Atithi executive PG for GENTS in BTM Layout,12.9065487,77.6037882,PG,"BTM Layout, Bengaluru",2.060737122323556,2.602470899269196,13,761
2458,Home Paying Guest House BTM Layout,12.917947,77.601476,PG,"BTM Layout, Bengaluru",2.3891462098892826,3.1652412621608637,18,1075
2459,SVNS PG for LADIES,12.913532,77.6081657,PG,"BTM Layout, Bengaluru",2.7393592785523975,3.396379667393849,18,1094
2460,"Cliff Men's PG, BTM layout",12.9136195,77.6074841,PG,"BTM Layout, Bengaluru",2.6758407211153714,3.3403513295363982,18,1061
2461,SLV PG for Boys,12.9201271,77.6056701,PG,"BTM Layout, Bengaluru",2.892425521997648,3.653445871284025,21,1237
2462,Zolo Rivendell Co-Living %7C Redefining PG,12.9163366,77.6064973,PG,"BTM Layout, Bengaluru",2.722217263562968,3.4355078648127257,19,1116
2463,Swetha reddy pg for ladies,12.9136042,77.60418,PG,"BTM Layout, Bengaluru",2.3536631295605925,3.049608832042303,16,967
2464,Sri Vinayaka Paying Guest PG,12.9112174,77.6037697,PG,"BTM Layout, Bengaluru",2.2001723963578788,2.857253416511049,16,978
2466,Star PG,12.9189168,77.6058753,PG,"BTM Layout, Bengaluru",2.8269586445102783,3.57503680266886,21,1281
2467,PG in BTM,12.9085304,77.6049747,PG,"BTM Layout, Bengaluru",2.230818460645007,2.8153005486741454,14,863
2470,Raj Nivas PG for Men BTM Layout,12.9152618,77.6108962,PG,"BTM Layout, Bengaluru",3.088097263905361,3.749328672449234,20,1203
2473,Sai ram ladies pg,12.9132632,77.605816,PG,"BTM Layout, Bengaluru",2.495149634588095,3.1692464718627336,17,1043
2474,The princess luxury pg for ladies,12.9081583,77.606729,PG,"BTM Layout, Bengaluru",2.4067998173040763,2.9670040367145925,15,908
2475,Apple Kerala PG,12.9085105,77.6042076,PG,"BTM Layout, Bengaluru",2.1496959414935257,2.740919156800821,14,838
2476,Sri Balaji PG,12.9160445,77.6106694,PG,"BTM Layout, Bengaluru",3.1033840934072114,3.777540956062248,23,1352
2477,Mother Deluxe PG for girls,12.917834,77.6077944,PG,"BTM Layout, Bengaluru",2.9295085411261432,3.649996041559918,20,1185
2480,NEW NARENDRA LUXURY PG FOR BOYS IN BTM LAYOUT,12.911989,77.6022528,PG,"BTM Layout, Bengaluru",2.0857941580799726,2.7744902884215406,16,931
2481,PG in BTM,12.9099789,77.6026802,PG,"BTM Layout, Bengaluru",2.040126720557196,2.682549388829694,14,817
2482,Kalyani PG For Gents,12.9082652,77.6043214,PG,"BTM Layout, Bengaluru",2.1550039629421556,2.7389112300864613,14,832
2484,Home Stay Ladies PG,12.9140075,77.6063208,PG,"BTM Layout, Bengaluru",2.580512858076182,3.2619827589126227,17,1037
2485,Venkateshwara PG,12.9077946,77.6047123,PG,"BTM Layout, Bengaluru",2.1845930125981448,2.752700442481506,14,827
2486,GOHAR PG for Gents,12.9176721,77.6039196,PG,"BTM Layout, Bengaluru",2.5743971711201805,3.3263962021016047,19,1115
2487,SLV DELUXE PG BTM,12.9161043,77.6046024,PG,"BTM Layout, Bengaluru",2.534518996884509,3.2621537185195923,18,1106
2489,Akshara Reddy PG,12.9157514,77.6030345,PG,"BTM Layout, Bengaluru",2.371459925464781,3.1096490009297315,17,1044
2490,Sri Lakshmi PG,12.9149872,77.6097218,PG,"BTM Layout, Bengaluru",2.9597984495925913,3.6264459417176766,19,1152
2491,Sri Vinayaka PG for Gents,12.9127498,77.6105953,PG,"BTM Layout, Bengaluru",2.9516342089022585,3.5752471727675257,19,1164
2492,M%26M PG for Ladies,12.9171296,77.603284,PG,"BTM Layout, Bengaluru",2.483060498127403,3.234973734663092,18,1089
2495,SLV PG FOR LADIES :-,12.9136063,77.6030227,PG,"BTM Layout, Bengaluru",2.243803834906141,2.9518046233585378,17,1023
2496,Sri Mallikarjuna PG for Gents.,12.9080037,77.6039357,PG,"BTM Layout, Bengaluru",2.1075735574917704,2.68837064264179,14,812
2497,SS comforts ladies pg,12.9139619,77.6125633,PG,"BTM Layout, Bengaluru",3.1986244150367593,3.827343385703354,20,1227
2498,Sri Pravallika Lifestyle PG,12.9135253,77.6134111,PG,"BTM Layout, Bengaluru",3.267987063934074,3.8836463599380737,20,1201
2499,Btm pg and hostel,12.9128289,77.6101829,PG,"BTM Layout, Bengaluru",2.9127400423748147,3.540976661714088,19,1154
2500,Saarangi PG For Gents,12.9197507,77.6091824,PG,"BTM Layout, Bengaluru",3.172486374890241,3.902752095636996,22,1296
2501,Sns pg for ladies,12.9158512,77.6109231,PG,"BTM Layout, Bengaluru",3.1186547580012887,3.7881146043445546,20,1218
2502,Sri Sapthagiri PG For Ladies,12.9144096,77.6072874,PG,"BTM Layout, Bengaluru",2.6942313401426747,3.3731014846575786,18,1102
2503,PG For Boys,12.9168341,77.6037268,PG,"BTM Layout, Bengaluru",2.502145809090912,3.2467129054385957,18,1067
2505,Sai ram pg for ladies,12.9153281,77.6099878,PG,"BTM Layout, Bengaluru",3.0020930969055626,3.671574147718655,20,1175
2507,Sri Ganesh PG,12.9113057,77.603761,PG,"BTM Layout, Bengaluru",2.203068052657357,2.862014367331522,16,975
2508,SAI TEJA PG FOR GENTS,12.9172338,77.6017798,PG,"BTM Layout, Bengaluru",2.3624305157644723,3.1291308712817725,18,1055
2509,STB luxury PG for ladies,12.9158461,77.6129283,PG,"BTM Layout, Bengaluru",3.3155156979681264,3.969646597095906,24,1431
2510,Foredian Pg,12.9092299,77.6064363,PG,"BTM Layout, Bengaluru",2.403650602463092,2.9917182481772193,15,913
2511,Guest inn luxury pg for gents,12.9078427,77.6111244,PG,"BTM Layout, Bengaluru",2.8686370963275825,3.390862035092951,18,1054
2512,Vinayak PG,12.9202997,77.6094562,PG,"BTM Layout, Bengaluru",3.231585820032479,3.9652585318484608,22,1309
2513,RR ENCLAVE PG FOR WOMEN,12.9139662,77.6036515,PG,"BTM Layout, Bengaluru",2.322826407338863,3.029891043970097,17,1036
2515,Monogna PG,12.9150825,77.6104538,PG,"BTM Layout, Bengaluru",3.036204610638965,3.6983186494360103,20,1186
2518,Sri Sai PG For Ladies,12.912755,77.6107344,PG,"BTM Layout, Bengaluru",2.9660016885326117,3.588619412015909,19,1168
2519,Sri Lakshmi Srinivasa Pg For Gents,12.9110033,77.6042041,PG,"BTM Layout, Bengaluru",2.234963139112939,2.8831346720378983,18,1101
2520,Pranitha Reddy Gents PG,12.9091749,77.6094674,PG,"BTM Layout, Bengaluru",2.7210390213958706,3.2837358244711403,18,1089
2521,Sri durga pg,12.9197576,77.6088451,PG,"BTM Layout, Bengaluru",3.142796709924849,3.8757170769562874,22,1317
2523,Gokul PG for Gents,12.907183,77.606254,PG,"BTM Layout, Bengaluru",2.335881032732279,2.8751097617503447,14,856
2524,Slv pg for gents,12.9094919,77.6042226,PG,"BTM Layout, Bengaluru",2.1811540861568885,2.7960222089042217,15,876
2525,Brindavana Ladies PG,12.9178622,77.6022798,PG,"BTM Layout, Bengaluru",2.448829460558649,3.2171606837602256,18,1086
2526,Lakshmi PG,12.9139729,77.6090848,PG,"BTM Layout, Bengaluru",2.850274793361459,3.506576270510896,18,1102
2527,Sri Venkateswara Gent's PG,12.9182406,77.606988,PG,"BTM Layout, Bengaluru",2.8813930364300515,3.6131819973479518,21,1253
2530,Sai Manasa Executive PG for Ladies,12.9157789,77.6021796,PG,"BTM Layout, Bengaluru",2.2975080292322803,3.044434919626909,17,1038
2533,"Sri Ganesh PG, 2nd stage, BTM",12.9107818,77.6007207,PG,"BTM Layout, Bengaluru",1.877998939730017,2.5610256618708096,14,828
2534,New Sri Lakshmi Narasimha P.G,12.91398,77.611659,PG,"BTM Layout, Bengaluru",3.1080457188912107,3.743812164826003,20,1194
2536,KARTHIK PG GENTS,12.9173082,77.6074544,PG,"BTM Layout, Bengaluru",2.8671517186207054,3.584263829823316,19,1157
2538,Vinayaka PG For Ladies,12.9173978,77.6029241,PG,"BTM Layout, Bengaluru",2.4703741588713055,3.2283885656721534,18,1082
2539,Sri Lakshmi Narasimha PG,12.9183242,77.6051053,PG,"BTM Layout, Bengaluru",2.720661466897648,3.4691711871340707,21,1251
2542,Sri prasanna anjaneya pg for gents,12.9094661,77.6044912,PG,"BTM Layout, Bengaluru",2.20813001976159,2.8197204844163246,15,886
2543,Swapna PG For Ladies,12.9161631,77.6008934,PG,"BTM Layout, Bengaluru",2.2126787833840926,2.976620773035983,18,1096
2545,Reddy pg,12.9141014,77.6109503,PG,"BTM Layout, Bengaluru",3.0419100435844424,3.6850758851403604,20,1173
2546,Harshita PG,12.916199,77.6121758,PG,"BTM Layout, Bengaluru",3.257833904748686,3.92247178033395,24,1419
2547,Sri sai srinivasa pg for gents,12.9073776,77.6108899,PG,"BTM Layout, Bengaluru",2.8355730338888074,3.3486047498839397,17,1008
2548,OM Sai Ram Ladies PG,12.9169631,77.6123172,PG,"BTM Layout, Bengaluru",3.3087743400346916,3.9825847829595937,22,1313
2549,SVNS PG for Ladies,12.913674,77.610442,PG,"BTM Layout, Bengaluru",2.972945170675584,3.613276848193111,20,1179
2553,S.T.R PG for gents,12.9051914,77.6041187,PG,"BTM Layout, Bengaluru",2.0784115086003525,2.5763219923116876,13,781
2554,Partha Reddy Ladies PG,12.9129215,77.6109188,PG,"BTM Layout, Bengaluru",2.9911184455928366,3.615160580462635,20,1187
2555,Reddy PG for Gents,12.9149059,77.607944,PG,"BTM Layout, Bengaluru",2.7825439643689585,3.463091434443152,19,1111
2556,Sunshine Girls PG,12.9141733,77.6117764,PG,"BTM Layout, Bengaluru",3.1278399240261594,3.7657611793840617,20,1214
2557,Colive Heritage PG in BTM Layout Bengaluru,12.9202225,77.6027021,PG,"BTM Layout, Bengaluru",2.658514182419953,3.4430541590575294,20,1218
2559,SNS Gents PG,12.9081752,77.6038988,PG,"BTM Layout, Bengaluru",2.1081342531842138,2.6937706516389386,14,817
2560,Sri Balaji PG for Gents,12.9095315,77.6044413,PG,"BTM Layout, Bengaluru",2.205097858269825,2.8187013655010174,15,884
2562,SNR Gents PG,12.9144102,77.6113278,PG,"BTM Layout, Bengaluru",3.0928704053417375,3.73791947146661,20,1197
2563,Swapna PG for Gents,12.910481,77.605939,PG,"BTM Layout, Bengaluru",2.3919728254265737,3.0121320075791513,16,989
2565,New Arya's PG for gents,12.9138343,77.609866,PG,"BTM Layout, Bengaluru",2.921998579091698,3.5695813952700592,19,1126
2568,Colive Adelaide PG,12.9087765,77.605691,PG,"BTM Layout, Bengaluru",2.3127857506226026,2.8967791926312807,15,927
2571,Classic Exotica Ladies PG,12.9111881,77.600726,PG,"BTM Layout, Bengaluru",1.897991499430733,2.589244821867566,14,841
2573,MR PG FOR GENTS,12.9187915,77.607044,PG,"BTM Layout, Bengaluru",2.9212460026781577,3.6584842002568867,21,1268
2574,Sri Sai Ram PG,12.9117576,77.6012836,PG,"BTM Layout, Bengaluru",1.9803784553538566,2.675951157362357,15,879
2575,Lotus studio rooms ( men women pg),12.9134415,77.6090955,PG,"BTM Layout, Bengaluru",2.8281054513183563,3.4756432175987877,19,1123
2576,Sree balaji pg for gents,12.9084379,77.6051207,PG,"BTM Layout, Bengaluru",2.2437193748831636,2.824571466010864,14,869
2577,Sri Sai Ram Pg,12.9106823,77.6044943,PG,"BTM Layout, Bengaluru",2.25166034205888,2.8901766210885174,19,1121
2578,Pranitha Reddy Pg For Ladies,12.915453,77.6077313,PG,"BTM Layout, Bengaluru",2.7900210164667505,3.4803867849537977,19,1142
2581,Zolo Heaven PG,12.9041913,77.6042174,PG,"BTM Layout, Bengaluru",2.0829975438267017,2.5480465258813765,13,805
2582,SaiKumar PG For Gents,12.9148785,77.6129445,PG,"BTM Layout, Bengaluru",3.274666050863908,3.9146653723300973,20,1209
2583,MDK Ladies PG,12.9195356,77.6088068,PG,"BTM Layout, Bengaluru",3.125381925157433,3.856338354461541,22,1323
2584,Sai Ram Pg For Gents,12.911718,77.6062836,PG,"BTM Layout, Bengaluru",2.4738178619029485,3.1156328081954694,19,1126
2586,Kasi Reddy pg for gents,12.917696,77.6055756,PG,"BTM Layout, Bengaluru",2.721001323748472,3.458759152858644,19,1161
2587,Vijayalakshmi Pg For Ladies,12.9135828,77.602845,PG,"BTM Layout, Bengaluru",2.2257674878858924,2.9352834582525587,17,1011
2592,RAO'S SRI SRINIVASAM PG FOR LADIES,12.9167475,77.6119944,PG,"BTM Layout, Bengaluru",3.266768678313578,3.94017347890421,22,1304
2595,BS comforts pg for gents,12.9174686,77.6076656,PG,"BTM Layout, Bengaluru",2.8960136059972785,3.6132696403347757,21,1251
2596,Adithya Ladies PG,12.9166758,77.6121907,PG,"BTM Layout, Bengaluru",3.2823111226405053,3.953283277992897,22,1298
2599,Poojitha pg for ladies,12.9138743,77.6118241,PG,"BTM Layout, Bengaluru",3.120389815492658,3.7532221277537383,20,1200
2604,ALANKRUTHA LUXARY PG FOR MEN,12.914021,77.6113195,PG,"BTM Layout, Bengaluru",3.075579736361601,3.714599894703148,20,1184
2605,Ekdanta Ladies PG,12.9136811,77.6101791,PG,"BTM Layout, Bengaluru",2.9468400762743334,3.589395740990212,19,1149
2606,Insta Rooms (PG%2FHome Stay),12.90862,77.6033453,PG,"BTM Layout, Bengaluru",2.0625686007224275,2.66515895048045,13,794
2607,Bharath PG,12.9176641,77.6053189,PG,"BTM Layout, Bengaluru",2.696204395862733,3.4358386592779055,20,1213
2608,Ivana Ladies PG,12.9134204,77.6107504,PG,"BTM Layout, Bengaluru",2.993635780184807,3.627365683022745,20,1198
2611,New Delux PG (Girls),12.9133635,77.6061729,PG,"BTM Layout, Bengaluru",2.534893460250613,3.20726523321277,17,1023
2612,Mahalakshmi ladies pg,12.907237,77.6074329,PG,"BTM Layout, Bengaluru",2.462907504153435,2.994803792587679,15,900
2613,Om Sai Ram PG for Men,12.9180018,77.6073315,PG,"BTM Layout, Bengaluru",2.8975589012441607,3.6238225084812687,21,1250
2614,Annapurna luxury pg for ladies,12.9137031,77.609221,PG,"BTM Layout, Bengaluru",2.851924281666091,3.5027180855958973,19,1116
2615,Vijaya Pg For Gents,12.9200134,77.6090791,PG,"BTM Layout, Bengaluru",3.1798523879342415,3.9135455458197246,22,1300
2617,Colive Heritage PG,12.9215851,77.6075308,PG,"BTM Layout, Bengaluru",3.1511671857025716,3.910615764401382,23,1382
2618,Golden PG,12.9214176,77.6070433,PG,"BTM Layout, Bengaluru",3.0985159172292773,3.8601266059001067,23,1370
2619,SMS PG for ladies,12.913574,77.60986,PG,"BTM Layout, Bengaluru",2.910319996163096,3.5537117300317376,20,1176
2621,"Adiga Homes %7C Rent%2FBuy Plots, Flats %26 PG's",12.9113381,77.6020173,PG,"BTM Layout, Bengaluru",2.0315120819192343,2.7104012911939876,15,922
2625,PHS Home Paying Guest,12.9171674,77.6031411,PG,"BTM Layout, Bengaluru",2.4732709674831557,3.2268935894442023,18,1086
2627,Mother delux Pg,12.9173347,77.6076918,PG,"BTM Layout, Bengaluru",2.8905659137083095,3.605989806938092,21,1247
2631,Balaji pg,12.9167101,77.6100623,PG,"BTM Layout, Bengaluru",3.078716228885916,3.766692018149697,22,1311
2632,Serene Suites Luxury PG for ladies,12.914722,77.610251,PG,"BTM Layout, Bengaluru",2.999602409799946,3.657948498335533,23,1379
2633,BTM Ladies Pg,12.9154218,77.6057232,PG,"BTM Layout, Bengaluru",2.5981502163049455,3.3062378136002653,18,1102
2635,Punjabi Gents PG,12.9156242,77.6054777,PG,"BTM Layout, Bengaluru",2.5866863473971047,3.299837577930055,18,1105
2636,UPASANA COMFORTS,12.9065928,77.604689,PG,"BTM Layout, Bengaluru",2.157970407339605,2.6934391902084185,13,801
2637,Keerthana ladies pg,12.9129194,77.6112608,PG,"BTM Layout, Bengaluru",3.0258701551039535,3.6472503230869595,20,1216
2638,POOJITHA CLASSIC P G FOR LADIES,12.912364,77.6091749,PG,"BTM Layout, Bengaluru",2.79232800710705,3.4205890019192804,19,1157
2640,KESHAVA PG FOR LADIES,12.9177805,77.6077997,PG,"BTM Layout, Bengaluru",2.9267986337547933,3.6466190598692187,20,1184
2641,SVLNS MEN'S PG,12.9108049,77.6044087,PG,"BTM Layout, Bengaluru",2.2477376111298453,2.889697043057504,18,1108
2642,SLV PG for Ladies,12.9136952,77.6099143,PG,"BTM Layout, Bengaluru",2.920886580104992,3.5658188888668505,20,1180
2644,lifestyle pg for ladies,12.9138975,77.6112797,PG,"BTM Layout, Bengaluru",3.0664592093872125,3.7038209629736865,20,1183
2645,Colive Darwin PG,12.9090332,77.605824,PG,"BTM Layout, Bengaluru",2.3338965706268278,2.9228012096187537,15,913
2884,Flats and Flatmates,12.8883625,77.5915576,Apartment,"Carmelaram, Bengaluru",1.843829435217191,1.395443648124764,7,431
3057,"Electronic City (KA-51) RTO Office, Bangalore arakere",12.8872037,77.611336,Office,"Carmelaram, Bengaluru",3.3904361627612905,3.354136607959388,16,938
3083,Fidelitus Corp Property Services Private Limited,12.9205498,77.5725512,Office,"Carmelaram, Bengaluru",2.3124070510022805,2.8368453589155904,16,981
4257,Nextcoworks,12.9033359,77.6050157,Office,"HSR Layout, Bengaluru",2.169016071571856,2.6016874124711062,14,864
4277,Onepinboard - Coworking and Managed Office Space Provider,12.9033214,77.6053586,Office,"HSR Layout, Bengaluru",2.206204245619586,2.6369254041651353,14,856
4417,Nextcoworks,12.8723977,77.5836931,Office,"HSR Layout, Bengaluru",3.4797525809918555,2.714341118065742,13,752
5056,Green View Apartments,12.9292649,77.5888717,Apartment,"Jayanagar, Bengaluru",2.877170639643754,3.6916516766593808,17,1011
5058,Samrat Apartments,12.9198034,77.5985654,Apartment,"Jayanagar, Bengaluru",2.31938322284703,3.130627901197675,17,1013
5059,Altus Apartment,12.9254596,77.5834235,Apartment,"Jayanagar, Bengaluru",2.429452573402884,3.196040059068148,14,857
5060,Sobha Opal Apartments,12.9203764,77.588747,Apartment,"Jayanagar, Bengaluru",1.9018618256056443,2.7273870756625076,13,808
5061,Sri Lakshmi Nivas Apartments,12.9233286,77.5874555,Apartment,"Jayanagar, Bengaluru",2.2024761697574027,3.0142100746003533,14,851
5062,Bharat Apartments,12.9209212,77.5808556,Apartment,"Jayanagar, Bengaluru",1.9707816507862121,2.690347884934929,14,839
5064,Pranav Apartments,12.9317422,77.5782448,Apartment,"Jayanagar, Bengaluru",3.206844869690769,3.911848102391047,18,1061
5065,ELITE VISTA Apartments,12.9309697,77.5869569,Apartment,"Jayanagar, Bengaluru",3.0434281248899495,3.8429245877533997,19,1151
5069,Gowlani Apartments,12.9229898,77.5867916,Apartment,"Jayanagar, Bengaluru",2.1574444902235954,2.963785717029286,15,880
5070,Ushas Apartment,12.928198,77.5890618,Apartment,"Jayanagar, Bengaluru",2.7630569793673008,3.5799097469169143,16,976
5071,G.K Heritage Apartments,12.9200679,77.5783549,Apartment,"Jayanagar, Bengaluru",1.96117890525409,2.6223341124578443,14,820
5072,Olive apartment,12.9296812,77.5919422,Apartment,"Jayanagar, Bengaluru",2.9888673840963476,3.8174422508037167,18,1095
5074,IshaPriya Apartments,12.9257986,77.5902825,Apartment,"Jayanagar, Bengaluru",2.5266297682602925,3.3528519861529347,16,962
5075,Adarsh Residency,12.9167969,77.5765819,Apartment,"Jayanagar, Bengaluru",1.7221484090486199,2.3045495797163493,13,807
5076,SR Apartments,12.9226242,77.5869838,Apartment,"Jayanagar, Bengaluru",2.118963488892852,2.9275606850956066,14,835
5080,Neo Devine Apartments,12.9317226,77.5760778,Apartment,"Jayanagar, Bengaluru",3.2664442554747755,3.940945367195881,19,1139
5081,Samridhi,12.9282439,77.5821681,Apartment,"Jayanagar, Bengaluru",2.750247978650961,3.5018799604259216,16,948
5082,Jains Prakriti,12.9214865,77.5740309,Apartment,"Jayanagar, Bengaluru",2.311250333619551,2.8822965091341572,18,1101
5083,RNS Apartments,12.9318288,77.5845016,Apartment,"Jayanagar, Bengaluru",3.1320868229455594,3.9099894953462466,18,1086
5084,Adarsh Gardens Apartments,12.9169573,77.5778016,Apartment,"Jayanagar, Bengaluru",1.6716009630272834,2.292049276138742,13,758
5085,SHREYAS APARTMENTS,12.9266893,77.5827087,Apartment,"Jayanagar, Bengaluru",2.5722087087044736,3.3298886491296518,15,901
5086,Yashasvi apartment,12.929245,77.587999,Apartment,"Jayanagar, Bengaluru",2.862730331920511,3.671511171839269,17,1001
5087,Devakinandan Apartments,12.9287188,77.5896059,Apartment,"Jayanagar, Bengaluru",2.8300341642226727,3.6493932419880166,16,967
5088,Pallavi Pristine Thangavelu Apartments,12.9225846,77.5874887,Apartment,"Jayanagar, Bengaluru",2.1208267093841964,2.933873963034206,14,832
5089,Diamante Paradise Apartment,12.9236036,77.5772206,Apartment,"Jayanagar, Bengaluru",2.372186540066037,3.0301215993732438,16,965
5091,Suraj Krupa Apartment,12.923859,77.5874045,Apartment,"Jayanagar, Bengaluru",2.260393288787653,3.070993854694861,14,860
5092,Shravanee Sumo,12.92058,77.57862,Apartment,"Jayanagar, Bengaluru",2.0041385791964044,2.6745805304440315,14,848
5094,RR Elegance,12.9230923,77.5921852,Apartment,"Jayanagar, Bengaluru",2.295988791895664,3.130783046150466,17,998
5095,RRBC Piccassso,12.9199464,77.5893359,Apartment,"Jayanagar, Bengaluru",1.8701591025803819,2.6995149999067225,14,840
5096,Spartacus Apartments,12.9287802,77.5903103,Apartment,"Jayanagar, Bengaluru",2.8511604680589913,3.674050016772882,17,1006
5097,Evantha Kamala,12.9221399,77.5817239,Apartment,"Jayanagar, Bengaluru",2.0848371073229597,2.823226545946985,13,802
5098,Unity Grace Apartment,12.9219444,77.5854938,Apartment,"Jayanagar, Bengaluru",2.03319673583443,2.8270813790325615,13,778
5102,Varahi Royal,12.9291159,77.5757389,Apartment,"Jayanagar, Bengaluru",3.002925404004903,3.661853596687166,18,1108
5103,Nandi Samruddhi,12.9305803,77.5891297,Apartment,"Jayanagar, Bengaluru",3.0259557559927153,3.8405506168998116,17,1047
5104,K. V. Bliss,12.9265341,77.5828039,Apartment,"Jayanagar, Bengaluru",2.5540476941634793,3.3128972372662537,15,897
5106,Evantha Aristi,12.9206851,77.5765144,Apartment,"Jayanagar, Bengaluru",2.1044468360131643,2.7265130687014696,14,858
5107,Prestige Green Moor,12.9322497,77.584135,Apartment,"Jayanagar, Bengaluru",3.1798143294392913,3.9541355517024055,18,1071
5108,Radhika Apartments,12.9205237,77.5868587,Apartment,"Jayanagar, Bengaluru",1.8852516797687668,2.6956900416392924,13,756
5109,SRI GOWRI PEARL APARTMENT,12.9240871,77.574649,Apartment,"Jayanagar, Bengaluru",2.5331085050233213,3.141810026966927,18,1050
5110,South Shelters,12.9216046,77.5862561,Apartment,"Jayanagar, Bengaluru",1.9993176922162623,2.8021130035781496,13,772
5111,Rangapriya Residency,12.9297629,77.5887346,Apartment,"Jayanagar, Bengaluru",2.9298808379389674,3.742965339111238,17,1012
5112,Manikchand 117 FF,12.9214821,77.574667,Apartment,"Jayanagar, Bengaluru",2.276107140829884,2.8619678329225122,15,917
5113,BSR Green Park Apartment,12.929462,77.588891,Apartment,"Jayanagar, Bengaluru",2.8991584037257496,3.713539045178136,17,1014
5115,S.A.S RESIDENCY JAYANAGAR,12.9292924,77.5923184,Apartment,"Jayanagar, Bengaluru",2.957706719885953,3.7878517635303415,18,1073
5116,144,12.9287663,77.5873169,Apartment,"Jayanagar, Bengaluru",2.8022804296399166,3.606553817062493,17,1041
5117,Shelter Apartment,12.9283702,77.5902695,Apartment,"Jayanagar, Bengaluru",2.805619388668242,3.6287775926983428,17,1005
5118,Pradhan Residency,12.931928,77.5878243,Apartment,"Jayanagar, Bengaluru",3.1574395030783813,3.962388337519665,19,1133
5119,Sai Gokul Apartments,12.9299142,77.5879504,Apartment,"Jayanagar, Bengaluru",2.9360981199181184,3.743849417470616,18,1080
5120,Shravanee Abhiman,12.9205435,77.5752759,Apartment,"Jayanagar, Bengaluru",2.1527827898910252,2.743619020666068,15,874
5121,Adarsh Palace Apartments,12.916102,77.5847776,Apartment,"Jayanagar, Bengaluru",1.3830885125788288,2.1729248817484,10,611
5122,Elegant Grandeur,12.925652,77.5779154,Apartment,"Jayanagar, Bengaluru",2.5627449514382574,3.2437072969390734,15,923
5124,R K Pristine,12.9322132,77.5868216,Apartment,"Jayanagar, Bengaluru",3.1804393098078174,3.9779152947699705,19,1136
5126,K G Serenity,12.9275775,77.5915214,Apartment,"Jayanagar, Bengaluru",2.751034818702898,3.580242916448122,17,993
5127,Sandhya Nivas,12.9226075,77.5836059,Apartment,"Jayanagar, Bengaluru",2.111710610943056,2.8804611986361714,13,772
5128,Apartments in Bangalore,12.9166835,77.5943995,Apartment,"Jayanagar, Bengaluru",1.7696591138975821,2.5929731768812907,14,834
5129,Evantha Jaya,12.9254704,77.5965038,Apartment,"Jayanagar, Bengaluru",2.726042217834744,3.5602005403427746,18,1096
5133,Deccan Apartment,12.9251619,77.5776768,Apartment,"Jayanagar, Bengaluru",2.5188465522292596,3.193401330316366,15,914
5134,gokul apartments,12.9202902,77.5868288,Apartment,"Jayanagar, Bengaluru",1.8590902452359297,2.6695952557416107,15,894
5136,Apartment,12.928977,77.5977103,Apartment,"Jayanagar, Bengaluru",3.133219857626753,3.9681323866371536,18,1105
5137,Shree Apartments,12.9270631,77.5795769,Apartment,"Jayanagar, Bengaluru",2.66741567067969,3.380592292612757,16,962
5139,Mayflower Apartment,12.9258697,77.5767159,Apartment,"Jayanagar, Bengaluru",2.627422529338809,3.2877538036142524,17,1007
5140,Bheema Residency,12.9319648,77.5875549,Apartment,"Jayanagar, Bengaluru",3.158825867635997,3.961871816807831,19,1141
5141,Pooja Mansion,12.9229053,77.5874909,Apartment,"Jayanagar, Bengaluru",2.1562334560709293,2.9688454071666817,14,840
5142,Oakyard Apartment,12.9215857,77.5989235,Apartment,"Jayanagar, Bengaluru",2.499126328954318,3.316188485134933,18,1057
5143,Chandan Enclave,12.921631,77.5833058,Apartment,"Jayanagar, Bengaluru",2.0061521164283205,2.7702155905512558,13,760
5144,Mallige Apartments,12.9316046,77.5771535,Apartment,"Jayanagar, Bengaluru",3.22116520978883,3.910696356481589,18,1092
5146,Svr Housing,12.9258886,77.5872704,Apartment,"Jayanagar, Bengaluru",2.4832357911048,3.2902248341138827,15,904
5147,Comfort Annapoorna,12.9315968,77.5864996,Apartment,"Jayanagar, Bengaluru",3.1100220991652257,3.9054553793731674,18,1105
5150,Samruddhi,12.922514,77.588153,Apartment,"Jayanagar, Bengaluru",2.123406781003971,2.9417168820333544,14,825
5151,Block 6 shanti park apartments,12.9174588,77.5908069,Apartment,"Jayanagar, Bengaluru",1.6575667662329583,2.4933133181594864,14,847
5153,Gangothri Castle,12.9202428,77.5873881,Apartment,"Jayanagar, Bengaluru",1.8612828590705004,2.677038191478386,13,779
5154,Sri Nilaya Apartments,12.9299555,77.5875394,Apartment,"Jayanagar, Bengaluru",2.9361646390523193,3.740943382660551,18,1081
5155,Samruddhi enclave,12.9285156,77.5771204,Apartment,"Jayanagar, Bengaluru",2.8923761917486295,3.5711287525957647,17,1039
5156,Nagashree Krishna Nilaya,12.9286442,77.5774655,Apartment,"Jayanagar, Bengaluru",2.895259883229062,3.579966107963595,17,1024
5158,Adarsh Court Apartment,12.9258537,77.5764524,Apartment,"Jayanagar, Bengaluru",2.6356607781326638,3.291082922619581,17,1013
5159,Bhadra Dhama Apartment,12.9315004,77.5816894,Apartment,"Jayanagar, Bengaluru",3.115905129665179,3.8640595446548756,19,1111
5160,Canara Bank Apartment,12.9288933,77.5913467,Apartment,"Jayanagar, Bengaluru",2.888124491035309,3.7153426684176827,17,1015
5161,Krishna Nidhi apartment,12.9265188,77.5819147,Apartment,"Jayanagar, Bengaluru",2.563165527755763,3.3100077078073196,15,898
5162,"THE BIG TREE, Ceear Realty",12.9232035,77.5793467,Apartment,"Jayanagar, Bengaluru",2.2574682223113713,2.955195259581586,15,891
5163,Gelli Apartment,12.9169858,77.5762482,Apartment,"Jayanagar, Bengaluru",1.7592427173680516,2.3342403295636625,13,803
5164,174 Jayanagar,12.9266056,77.5807654,Apartment,"Jayanagar, Bengaluru",2.591904654963779,3.3222711900727746,15,920
5165,Sunil's Residence,12.924788,77.58455,Apartment,"Jayanagar, Bengaluru",2.3492276248767765,3.129938094691834,14,867
5166,Shubham Dreamz,12.9279047,77.5741712,Apartment,"Jayanagar, Bengaluru",2.940007238975971,3.56605920674699,21,1234
5167,SAI GUPTA MANSION,12.9316242,77.5850978,Apartment,"Jayanagar, Bengaluru",3.1088732991649985,3.8923670571595563,18,1108
5168,V.Venture ORCHID,12.9217898,77.5891899,Apartment,"Jayanagar, Bengaluru",2.0656882448429386,2.8916715910909376,14,841
5169,Chandajij home,12.9290287,77.5866693,Apartment,"Jayanagar, Bengaluru",2.826000838261607,3.624856756852461,17,1024
5170,Green View Apartments Vaishnavi Yoga,12.929193,77.5883658,Apartment,"Jayanagar, Bengaluru",2.8617706060199404,3.6731011592487826,17,997
5171,WHITE HOUSE,12.9284472,77.5829341,Apartment,"Jayanagar, Bengaluru",2.7647325339114914,3.525936906799981,17,998
5172,Sri Narsimhadri Apartments,12.9303675,77.5782304,Apartment,"Jayanagar, Bengaluru",3.058604679125252,3.7600120032740714,17,1028
5173,Evantha Luxury Residences,12.9275023,77.5750875,Apartment,"Jayanagar, Bengaluru",2.8602541102005583,3.500069242678647,18,1067
5174,K.T. Apartments,12.9294052,77.5915041,Apartment,"Jayanagar, Bengaluru",2.947470864276217,3.7747584454655003,17,1032
5175,Jaynagar Home,12.931306,77.590251,Apartment,"Jayanagar, Bengaluru",3.125587372441201,3.9454367812133,18,1061
5177,B V Apartment,12.9248177,77.5872317,Apartment,"Jayanagar, Bengaluru",2.3643373936994387,3.1722795652197147,15,893
5178,1760 Apartments,12.9232737,77.597613,Apartment,"Jayanagar, Bengaluru",2.573046654801296,3.401106438614541,17,998
5181,Sresta Nivas,12.9250074,77.5937974,Apartment,"Jayanagar, Bengaluru",2.557212819397285,3.3928717817733363,18,1067
5182,Varadha nilayam,12.930594,77.589196,Apartment,"Jayanagar, Bengaluru",3.028531355583761,3.843497929280011,17,1046
5183,Benaka Residency,12.9283683,77.5796028,Apartment,"Jayanagar, Bengaluru",2.8085666265081004,3.525103049502726,17,990
5184,SURYA RESIDENCY,12.9254991,77.5812689,Apartment,"Jayanagar, Bengaluru",2.4613460802077407,3.197549451479952,15,912
5185,Sri Garuda Estates,12.9270375,77.5876946,Apartment,"Jayanagar, Bengaluru",2.615114811178733,3.4241095367193477,15,926
5187,Swagath Building 02,12.928229,77.586026,Apartment,"Jayanagar, Bengaluru",2.7335608773042845,3.527494667572538,16,963
5188,Comfort Residency 2,12.9308737,77.5885432,Apartment,"Jayanagar, Bengaluru",3.0495871886861816,3.86029726930381,19,1120
5189,ETERNITY STRUCTURES PRIVATE LIMITED,12.9263769,77.5868473,Apartment,"Jayanagar, Bengaluru",2.5332496267368168,3.3361504560687987,15,898
5190,Elegant Home,12.9307624,77.5827115,Apartment,"Jayanagar, Bengaluru",3.023281979628349,3.7826922541566823,18,1061
5192,Benaka Residency,12.9283846,77.579607,Apartment,"Jayanagar, Bengaluru",2.8102444461587375,3.5268774134706886,17,990
5193,Lalac Apartment,12.9222617,77.5816284,Apartment,"Jayanagar, Bengaluru",2.0999632624558675,2.836890592145854,13,806
5194,Mohsin flat,12.91776,77.595741,Apartment,"Jayanagar, Bengaluru",1.951853796762998,2.7714505803769605,14,862
5195,Nicks Haven,12.9276392,77.5824588,Apartment,"Jayanagar, Bengaluru",2.680011397272547,3.4349704528116836,16,931
5196,Arjun Sagar Residency,12.923392,77.5752505,Apartment,"Jayanagar, Bengaluru",2.43505078082261,3.0508503264651927,17,998
5198,Manikchand117f,12.9228649,77.5761886,Apartment,"Jayanagar, Bengaluru",2.3390383385328564,2.970831582329031,15,900
5199,Raju Lxr,12.928304,77.583928,Apartment,"Jayanagar, Bengaluru",2.7421616381816714,3.514835578117193,16,931
5201,Rajmahal Palace,12.9292413,77.589418,Apartment,"Jayanagar, Bengaluru",2.8837973055341535,3.7015200081824284,17,993
5203,Santa Clara Apartments,12.9185605,77.5886927,Apartment,"Jayanagar, Bengaluru",1.703736744952123,2.531785752968085,14,822
5204,Manish prajapati,12.9313533,77.58058,Apartment,"Jayanagar, Bengaluru",3.1158946951714266,3.850573666468157,18,1079
5206,3 BHK Luxury Apartment Flat For Sales,12.9264971,77.5757599,Apartment,"Jayanagar, Bengaluru",2.7294051373458266,3.375645442450483,18,1071
5207,Vasay Plaza,12.9300119,77.5858623,Apartment,"Jayanagar, Bengaluru",2.931044712536334,3.7222436197660387,19,1154
5208,A.K.HOUSE,12.931296,77.5902866,Apartment,"Jayanagar, Bengaluru",3.1251981406643212,3.9452323324939127,18,1062
5209,Madhavram Metropolitan Apartment,12.9281327,77.5982673,Apartment,"Jayanagar, Bengaluru",3.0768983372592476,3.9104393417174816,19,1152
5211,Hari pg,12.9310857,77.5857001,Apartment,"Jayanagar, Bengaluru",3.049904842658226,3.8390192613135317,19,1113
5212,Gvs Complex,12.9317762,77.5852403,Apartment,"Jayanagar, Bengaluru",3.125861745834646,3.910569500864278,19,1114
5213,Shanthi Park Apartment,12.9186896,77.5912864,Apartment,"Jayanagar, Bengaluru",1.8039145990155727,2.639641345979512,15,905
5214,Thrilokesh Apartment,12.9286593,77.5771895,Apartment,"Jayanagar, Bengaluru",2.9054523167356896,3.5858406864514762,17,1036
5215,Bharathi,12.9299623,77.5783627,Apartment,"Jayanagar, Bengaluru",3.0114253225832655,3.7136811030009143,17,1037
5217,Elite Apartments,12.9152314,77.5865765,Apartment,"Jayanagar, Bengaluru",1.2972632281915144,2.1143623694201517,11,630
5218,Sapthagiri Apartments,12.9293499,77.5895781,Apartment,"Jayanagar, Bengaluru",2.8986220365716338,3.717111456336639,17,998
5219,Pramuk MM Meridian,12.9296981,77.5748312,Apartment,"Jayanagar, Bengaluru",3.0976558428222196,3.744614933995679,19,1140
5220,pushpakama Apartment,12.927353,77.5900769,Apartment,"Jayanagar, Bengaluru",2.6906315284300497,3.514031655315572,16,943
5221,Flash Jayanagar 3B,12.9227074,77.5813161,Apartment,"Jayanagar, Bengaluru",2.154807011860891,2.887094231565759,14,830
5223,Cauvery Complex,12.9309517,77.5816751,Apartment,"Jayanagar, Bengaluru",3.0554908679496187,3.8030621612698265,18,1088
5224,Ashirwad Apartments,12.9229648,77.5824172,Apartment,"Jayanagar, Bengaluru",2.1642513528802043,2.915192989017744,14,813
5225,Manjunatha Residency,12.9251479,77.585048,Apartment,"Jayanagar, Bengaluru",2.3887291317690273,3.174994452266642,14,864
5227,Adarsh Palace Apartments Owners Association,12.9146869,77.5848344,Apartment,"Jayanagar, Bengaluru",1.225655684009312,2.0181626994034843,10,605
5229,5 Elements Realty - Buy Best Luxruous 2BHK %26 3BHK Apartments %26 Bungalows in Bangalore.,12.9313187,77.575799,Apartment,"Jayanagar, Bengaluru",3.232776237310619,3.901713276829801,18,1101
5230,Reco-liv - Sharing Flats %7CShared Accommodation %7C Serviced Apartments on Rent - Kumaraswamy Layout,12.9309258,77.581138,Apartment,"Jayanagar, Bengaluru",3.0600629157239103,3.8011384128625427,18,1089
5231,Oasis apartments,12.9031385,77.5916957,Apartment,"Jayanagar, Bengaluru",0.727355286766962,1.2699643719032327,7,432
5233,Haripriya Apartments,12.9088363,77.583491,Apartment,"Jayanagar, Bengaluru",0.5979678985928824,1.3537028678396146,8,466
5237,Padmasree,12.9188091,77.5967517,Apartment,"Jayanagar, Bengaluru",2.110893892806126,2.9288691568665994,15,910
5239,Jasmine Apartments,12.9284688,77.565564,Apartment,"Jayanagar, Bengaluru",3.4708792783563185,3.9503305672319358,22,1307
5240,AMC Comforts,12.920258,77.575547,Apartment,"Jayanagar, Bengaluru",2.1107366880274645,2.7052959692916647,14,846
5244,Nanda Shelters,12.9305943,77.5811091,Apartment,"Jayanagar, Bengaluru",3.0239896621044275,3.764365501562786,19,1121
5245,Apartemen Anandamaya,12.9056493,77.5849807,Apartment,"Jayanagar, Bengaluru",0.22059472210689643,1.0414147844816377,4,261
5247,G.B Apartments,12.9091651,77.5530444,Apartment,"Jayanagar, Bengaluru",3.517832219741163,3.426829654320466,23,1360
5249,Altus Vision,12.9291466,77.576503,Apartment,"Jayanagar, Bengaluru",2.9794937099361123,3.650825866321439,17,1049
5250,KK Apartment,12.9035473,77.5812005,Apartment,"Jayanagar, Bengaluru",0.4127645478312973,0.7604203879650401,4,211
5253,Sriven Properties,12.9302616,77.5828143,Apartment,"Jayanagar, Bengaluru",2.9668747319403024,3.7272709354050013,17,1027
5255,Sri Raksha Paying Guest House,12.9311448,77.5906152,Apartment,"Jayanagar, Bengaluru",3.1154235685103506,3.9371760680746815,18,1093
5256,Royal Palms,12.9152548,77.5915092,Apartment,"Jayanagar, Bengaluru",1.4687857700127251,2.302060307619524,11,684
5257,Apartment,12.9158236,77.5602995,Apartment,"Jayanagar, Bengaluru",2.999789832529666,3.165546342122247,17,1028
5259,Jayanagar Residency,12.9260203,77.5852877,Apartment,"Jayanagar, Bengaluru",2.4859179662498807,3.27422459812986,15,898
5263,UDAY HOUSE - Uday Group Of Companies,12.9288283,77.5828511,Apartment,"Jayanagar, Bengaluru",2.807705206324761,3.5680467496421664,17,1002
5264,ECO HOUSE HOSPITALITY JAYANAGAR,12.9298279,77.5870974,Apartment,"Jayanagar, Bengaluru",2.9179283976055466,3.719499677570442,18,1073
5266,G K SHELTERS (P) LTD.,12.932161,77.58407,Apartment,"Jayanagar, Bengaluru",3.1701735002400153,3.943879362541514,18,1067
5267,Archana Homoeo House,12.9308482,77.5851407,Apartment,"Jayanagar, Bengaluru",3.0226051093372246,3.806827595450118,18,1075
5269,Arundhati Apartment,12.8629878,77.5942651,Apartment,"Jayanagar, Bengaluru",4.6331653841877865,3.9834233752536212,20,1201
5271,Shanthi Drug House,12.9234698,77.5856607,Apartment,"Jayanagar, Bengaluru",2.2032686008772333,2.9975934511532047,14,853
5273,Lavish spaces PVT LTD,12.9295927,77.5816687,Apartment,"Jayanagar, Bengaluru",2.9055770066860256,3.651960480953587,17,1011
5274,Apartment,12.9043722,77.5941047,Apartment,"Jayanagar, Bengaluru",0.9892173141562295,1.5634726478883822,8,496
5275,Punjab Handloom House,12.9322303,77.5840106,Apartment,"Jayanagar, Bengaluru",3.178087575921534,3.9512091377685805,18,1071
5276,Tolet Bangalore,12.92826,77.584277,Apartment,"Jayanagar, Bengaluru",2.7359188093504647,3.5124271390011272,18,1064
5277,Sree Balaji Drug House,12.9325839,77.5835796,Apartment,"Jayanagar, Bengaluru",3.219289848992273,3.988167051917623,19,1121
5278,Nagasri Book House,12.9299074,77.5843752,Apartment,"Jayanagar, Bengaluru",2.918760802087685,3.6959044490279522,17,993
5280,SAI ASSOCIATES,12.9206007,77.5835721,Apartment,"Jayanagar, Bengaluru",1.8895080145570364,2.6575266004973557,12,730
5281,Saptagiri Gents PG.,12.9298832,77.5854589,Apartment,"Jayanagar, Bengaluru",2.9156787607892807,3.7033213717267013,19,1164
5282,Akshaya Paying Guest Accommodation,12.9302787,77.5852954,Apartment,"Jayanagar, Bengaluru",2.9594099684241972,3.7453330887833927,18,1107
5283,House Of ASSA,12.9314658,77.581732,Apartment,"Jayanagar, Bengaluru",3.1115534798636997,3.860177090519123,19,1112
5284,Sri Vaishnavi Pg Accommodation,12.929977,77.5926111,Apartment,"Jayanagar, Bengaluru",3.0395639035169535,3.8699601431694766,18,1077
5285,Raymond ( Textile House ),12.9294049,77.5849888,Apartment,"Jayanagar, Bengaluru",2.862083082322813,3.645510114075763,19,1123
5286,Sneha PG Accommodation,12.926939,77.5901,Apartment,"Jayanagar, Bengaluru",2.646104991424106,3.470107746633424,17,1019
5287,Jayanagar 4th 'T' Block,12.9246407,77.595439,Apartment,"Jayanagar, Bengaluru",2.5919406184662304,3.427003318562437,17,994
5288,Hindustan Drug House,12.9279078,77.5823805,Apartment,"Jayanagar, Bengaluru",2.710599158392001,3.4647180578282777,16,941
5289,Nobel House Chinese %26 Thai Restaurant,12.930954,77.582908,Apartment,"Jayanagar, Bengaluru",3.0428490622991005,3.8044945473451133,19,1123
5290,Geetha Handloom House,12.9305772,77.5857456,Apartment,"Jayanagar, Bengaluru",2.993507478353409,3.7833219931140225,18,1098
5291,Solarify - Rooftop Solar,12.926077,77.581911,Apartment,"Jayanagar, Bengaluru",2.5145229804440827,3.260882772619604,15,887
5292,Jayanagar Handloom House,12.9295437,77.5853009,Apartment,"Jayanagar, Bengaluru",2.877692820098804,3.664048043356769,20,1173
5293,Bengaluru One,12.9282797,77.5894509,Apartment,"Jayanagar, Bengaluru",2.779024265658084,3.5980359295644866,16,955
5294,Sapna Book House,12.9306046,77.5814969,Apartment,"Jayanagar, Bengaluru",3.019541326472095,3.764688318009464,18,1050
5295,Shilpa Developers,12.9309893,77.5810702,Apartment,"Jayanagar, Bengaluru",3.068070581112428,3.808380957661593,18,1091
5296,Jayanager ladies Class pg Accommodation,12.9187541,77.5870348,Apartment,"Jayanagar, Bengaluru",1.6921024951522854,2.5071352298404133,12,748
5297,Lucknow - Chikan -house,12.927123,77.578156,Apartment,"Jayanagar, Bengaluru",2.711970392196273,3.4025533992568278,16,952
5298,Ladies Fashion House,12.929257,77.5846479,Apartment,"Jayanagar, Bengaluru",2.845902523599566,3.6259999620114085,19,1129
5299,Venkatesh Tent House,12.9264436,77.5850025,Apartment,"Jayanagar, Bengaluru",2.5328004686850747,3.3178229004294413,15,915
5301,Sri Sai Comforts,12.929347,77.5868589,Apartment,"Jayanagar, Bengaluru",2.862690581844146,3.6628128692810846,18,1086
5302,T V House Network (Bangalore) Pvt Ltd,12.9317871,77.5836689,Apartment,"Jayanagar, Bengaluru",3.1303315948550936,3.9000938089962918,18,1056
5304,Jayanagar 5th Block,12.917152,77.583371,Apartment,"Jayanagar, Bengaluru",1.510064442006815,2.273443992791995,13,770
5305,Santhosh Banarasi Pan House,12.927714,77.5809805,Apartment,"Jayanagar, Bengaluru",2.7094349300894356,3.444612282931875,16,975
5307,Preethi Villa Girls PG,12.9306828,77.5813978,Apartment,"Jayanagar, Bengaluru",3.029535696458503,3.7735480183861325,18,1109
5309,Corner House - Jayanagar 5th Block,12.9228749,77.5850139,Apartment,"Jayanagar, Bengaluru",2.135978681004494,2.923337846374263,14,824
5311,fineAPPel Technologies,12.9260125,77.5768969,Apartment,"Jayanagar, Bengaluru",2.6357424966371013,3.300059181643033,17,1004
5312,Shree balaji paratha House,12.9317403,77.5836352,Apartment,"Jayanagar, Bengaluru",3.1253048614316943,3.8947259135991086,18,1087
5314,Krishna Temple,12.9289912,77.5915356,Apartment,"Jayanagar, Bengaluru",2.9036202818888857,3.731444802552009,17,1040
5315,Preethi Girls PG,12.9303174,77.5868914,Apartment,"Jayanagar, Bengaluru",2.9705784165175575,3.7701148468706838,19,1154
5318,Glen%E2%80%99s Bake House - Jayanagar,12.9173863,77.583473,Apartment,"Jayanagar, Bengaluru",1.5347034653019371,2.3001904992455096,11,665
5320,Fidelitus Corp Property Services Private Limited,12.9205498,77.5725512,Apartment,"Jayanagar, Bengaluru",2.3124070510022805,2.8368453589155904,16,981
5322,Plastic Welding Machines and Industrial Heaters,12.9311148,77.5781492,Apartment,"Jayanagar, Bengaluru",3.1414032724298004,3.8435724266101285,17,1047
5324,JALARAM SWEETS,12.9309256,77.5815201,Apartment,"Jayanagar, Bengaluru",3.0546417537921307,3.8003444920923903,18,1087
5325,Rajiv Gandhi University of Health Sciences,12.9267588,77.5923523,Apartment,"Jayanagar, Bengaluru",2.688429839540029,3.5208894575165486,17,1035
5326,BBMP Office Jayanagar,12.9293584,77.5842369,Office,"Jayanagar, Bengaluru",2.858130191700613,3.633972743024753,16,970
5327,Swiggy Jayanagar Super Hub,12.92785,77.5852226,Office,"Jayanagar, Bengaluru",2.6892868854218017,3.475808039762602,16,974
5328,Corporation Office,12.9188138,77.5953819,Office,"Jayanagar, Bengaluru",2.025265048549008,2.8508879571354124,15,881
5329,Sub-Registrar Office Jayanagar,12.9280789,77.5854215,Office,"Jayanagar, Bengaluru",2.7150097788655727,3.503359207397476,16,983
5331,India Post - Jayanagara Head Post Office,12.9236932,77.5861076,Office,"Jayanagar, Bengaluru",2.230163025222561,3.028985403174802,15,900
5332,Jayanagar office,12.9161501,77.5866722,Office,"Jayanagar, Bengaluru",1.3998995652137407,2.216130754771654,11,664
5333,Bruhat Bengaluru Mahanagara Palike,12.9305551,77.5910547,Office,"Jayanagar, Bengaluru",3.0609844000705575,3.885295241042243,18,1090
5334,India Post - Jayanagara 3rd Block Sub Post Office,12.9305238,77.583322,Office,"Jayanagar, Bengaluru",2.992075743374207,3.758141052789012,18,1063
5335,Deputy Commissioner for Transport %26 Senior Regional Transport office,12.928476,77.5843252,Office,"Jayanagar, Bengaluru",2.7597822164779435,3.536756607593358,18,1062
5336,Jayanagar ARO office,12.9310289,77.5758291,Office,"Jayanagar, Bengaluru",3.2011261784465486,3.8694082770487848,18,1105
5337,Jayanagar MLA's Office,12.9251305,77.589743,Office,"Jayanagar, Bengaluru",2.44136526978103,3.2658009741188754,16,938
5338,"Regus - Bangalore, Supreme",12.9221,77.5738,Office,"Jayanagar, Bengaluru",2.382657644778598,2.954878461242322,18,1087
5339,Golden Square Jayanagar,12.9271628,77.5850462,Office,"Jayanagar, Bengaluru",2.6127754151339677,3.3978729820069393,16,941
5340,Sub Registrar's Office,12.9242244,77.5743534,Office,"Jayanagar, Bengaluru",2.561086774406742,3.1648019957508557,18,1061
5341,"Jaya nagar,Bangalore",12.9317383,77.5833659,Office,"Jayanagar, Bengaluru",3.1266070388879106,3.8932704916224736,18,1086
5342,Specico Office,12.929525,77.5856775,Office,"Jayanagar, Bengaluru",2.876355596497431,3.6662125804613583,19,1162
5344,Office Republic,12.9305876,77.5851779,Office,"Jayanagar, Bengaluru",2.9936502669907066,3.778335878216356,18,1077
5345,BDA Complex Jayanagar,12.9301788,77.5845929,Office,"Jayanagar, Bengaluru",2.948477574888178,3.7277255082743457,18,1058
5346,India Post - Jayanagara East Sub Post Office,12.9193353,77.5925839,Office,"Jayanagar, Bengaluru",1.9262280953985311,2.7616217623425374,15,894
5347,LGSTO,12.9285313,77.5843193,Office,"Jayanagar, Bengaluru",2.7659462584103753,3.542844083272385,18,1062
5348,AISECT Bangalore Office,12.9273261,77.5807134,Office,"Jayanagar, Bengaluru",2.6717640827467983,3.4025487212413474,16,939
5349,Employment Service Bureau,12.9264092,77.5868523,Office,"Jayanagar, Bengaluru",2.53687275949538,3.3397825597934077,15,898
5350,Office,12.9205135,77.5922038,Office,"Jayanagar, Bengaluru",2.0293078553327857,2.8650878573033443,15,870
5351,Jayanagar 4th 'T' Block,12.9246407,77.595439,Office,"Jayanagar, Bengaluru",2.5919406184662304,3.427003318562437,17,994
5352,Work District,12.9304017,77.5824309,Office,"Jayanagar, Bengaluru",2.9860014997063846,3.7420745210081114,17,1024
5353,Nada Kacheri Office,12.9292133,77.5845262,Office,"Jayanagar, Bengaluru",2.841254960230344,3.6201278102902767,19,1130
5354,Office Of The Asst-Excreitive Engineer,12.9296314,77.5844744,Office,"Jayanagar, Bengaluru",2.887844658642531,3.666067277017806,19,1112
5355,UBER Attachment Office Jayanagar,12.9261021,77.5937296,Office,"Jayanagar, Bengaluru",2.6679458856008607,3.5032170339918975,18,1062
5356,NF Agencies,12.9301909,77.583651,Office,"Jayanagar, Bengaluru",2.9531398997086895,3.7227138139036833,18,1055
5357,Food Corporation Of India,12.9246985,77.5974146,Office,"Jayanagar, Bengaluru",2.6978181301030943,3.52912016301431,18,1057
5358,Sri Vinayaka Industries,12.9308683,77.5846325,Office,"Jayanagar, Bengaluru",3.0250773313236663,3.8044994054549863,18,1058
5359,Anand Enterprises,12.9309298,77.5829805,Office,"Jayanagar, Bengaluru",3.039587853716374,3.8020199983271032,19,1126
5361,GRAAM Office,12.9253998,77.5830953,Office,"Jayanagar, Bengaluru",2.425598711036308,3.1878546486674737,14,867
5363,Chanakya Enterprises - Corporate Services,12.930733,77.585533,Office,"Jayanagar, Bengaluru",3.010300849429736,3.798141995557999,18,1090
5364,BBMP Office,12.9192972,77.5868115,Office,"Jayanagar, Bengaluru",1.7491268932034538,2.5610454654061923,12,734
5366,Online Passport Agents in Bangalore,12.9271785,77.585064,Office,"Jayanagar, Bengaluru",2.6145250374442415,3.399799369819862,16,946
5368,Office of Area Manager,12.9304982,77.5770633,Office,"Jayanagar, Bengaluru",3.1053784588861824,3.790175631923913,18,1062
5369,Integrated Enterprises India Limited,12.9317131,77.5835851,Office,"Jayanagar, Bengaluru",3.122547017459842,3.891458465914117,18,1085
5370,"RKR Office, %23RKR4Jayanagar",12.930321,77.5836717,Office,"Jayanagar, Bengaluru",2.967478301183764,3.737272512522516,18,1050
5371,BESCOM MAINTENANCE OFFICE,12.9295211,77.5884886,Office,"Jayanagar, Bengaluru",2.8996630085446506,3.7114432331398586,17,1011
5373,BWSSB,12.9303168,77.5846271,Office,"Jayanagar, Bengaluru",2.9637669427921836,3.7433083456041123,18,1061
5374,SBI Mutual Fund,12.9278433,77.5810449,Office,"Jayanagar, Bengaluru",2.7225161354584175,3.4587705799337423,16,979
5375,Office,12.9282453,77.582706,Office,"Jayanagar, Bengaluru",2.7444928194579488,3.5028556727505644,17,1005
5378,"Neha Baddi, Advocate, Mediator %26 Notary. Saujanya Associates",12.9284236,77.5853157,Office,"Jayanagar, Bengaluru",2.7531702351462775,3.5402844290542945,17,1028
5379,Corporate Office -Liveinn Buildtech Pvt Ltd,12.931031,77.5830855,Office,"Jayanagar, Bengaluru",3.050013416610737,3.8136081706948963,19,1130
5380,Sendit Head office,12.9295141,77.5861733,Office,"Jayanagar, Bengaluru",2.8770040653272417,3.6712681598232604,19,1152
5381,Nyla Business Ventures - Corporate Office,12.9320722,77.5796595,Office,"Jayanagar, Bengaluru",3.211399904548031,3.935571944318486,18,1108
5383,Progressive infotech private limited,12.9320828,77.5822756,Office,"Jayanagar, Bengaluru",3.1736864075737814,3.928817406655382,19,1134
5384,DEEYESS %26 CO,12.9323932,77.5843407,Office,"Jayanagar, Bengaluru",3.195182367810254,3.971436794712102,18,1105
5385,Shapur Arcade,12.930775,77.5824,Office,"Jayanagar, Bengaluru",3.027641944643414,3.7835386465490757,18,1071
5386,GRB Corporate Office,12.9262237,77.5832519,Office,"Jayanagar, Bengaluru",2.515549490585316,3.2800725875015564,15,883
5387,BSNL Telephone Exchange,12.9240368,77.5839881,Office,"Jayanagar, Bengaluru",2.2678653549783583,3.0417904386486407,15,880
5388,Flutura Business Solutions Pvt. Ltd,12.9320696,77.5831994,Office,"Jayanagar, Bengaluru",3.1644528040617925,3.9294352630361944,19,1117
5389,Uber attachment office Jayanagar 4th block,12.9273104,77.5802442,Office,"Jayanagar, Bengaluru",2.6793754678763877,3.4032405577835747,18,1072
5392,Personal Baggage,12.9299279,77.5843773,Office,"Jayanagar, Bengaluru",2.9210343496597577,3.698194299898041,17,1046
5396,INSTASQUARES Business Centre Jayanagar,12.931077,77.578815,Office,"Jayanagar, Bengaluru",3.121012242880557,3.8322568082649133,18,1056
5397,Lavish spaces PVT LTD,12.9295927,77.5816687,Office,"Jayanagar, Bengaluru",2.9055770066860256,3.651960480953587,17,1011
5398,Nippon India Mutual Fund,12.9303541,77.5836109,Office,"Jayanagar, Bengaluru",2.971482699437342,3.740631949615976,17,1048
5399,Confianza solutions jayanagar,12.9295816,77.5852145,Office,"Jayanagar, Bengaluru",2.8818184999602887,3.667335711814335,19,1135
5400,Storm Water Drain,12.9298114,77.5843485,Office,"Jayanagar, Bengaluru",2.9081585787075634,3.685053606022706,16,989
5401,Dezire HR Services,12.9290623,77.5836307,Office,"Jayanagar, Bengaluru",2.8279226808481908,3.597262453593626,17,1023
5402,"LIC of India, Branch Office",12.914013,77.585511,Office,"Jayanagar, Bengaluru",1.1518758442024783,1.9571457371091454,9,544
5403,MANAPPURAM CHITS kar pvt ltd,12.9325448,77.5855702,Office,"Jayanagar, Bengaluru",3.211804323609141,3.999010553007322,20,1172
5404,Minor Irrigation Circle,12.9288637,77.5823348,Office,"Jayanagar, Bengaluru",2.8168298242318413,3.570945043672489,17,1028
5406,Jaya Nagar 4th Block,12.927793,77.583593,Office,"Jayanagar, Bengaluru",2.6872194215994827,3.4560950266254777,15,913
5407,Aditya Birla Sunlife Mutual Fund,12.9269695,77.5839539,Office,"Jayanagar, Bengaluru",2.5937894720739245,3.366901791100242,15,898
5408,The New India Assurance Co Limited,12.9308547,77.5853587,Office,"Jayanagar, Bengaluru",3.02353358771316,3.8097441891625383,18,1084
5409,Vaayoo,12.9311458,77.5828123,Office,"Jayanagar, Bengaluru",3.0649044569673234,3.8255564948050953,19,1132
5410,Geo Resorts - True Value,12.9290668,77.581699,Office,"Jayanagar, Bengaluru",2.8471485913414067,3.5934559847695375,17,990
5411,Auto %26 Taxi Meter Office,12.9299953,77.5842582,Office,"Jayanagar, Bengaluru",2.9288560163678237,3.7047886403626573,17,996
5412,HDFC Life,12.9319318,77.5838333,Office,"Jayanagar, Bengaluru",3.145633548410752,3.9170381751702177,18,1060
5413,SOTC For Holidays,12.9324368,77.5835795,Office,"Jayanagar, Bengaluru",3.202952566802503,3.971825262661244,19,1115
5414,HP World,12.9310232,77.5837397,Office,"Jayanagar, Bengaluru",3.0451277007355837,3.815622617990937,17,1033
5415,ManipalCigna Health Insurance Company Ltd,12.9302036,77.5862522,Office,"Jayanagar, Bengaluru",2.953979309210346,3.748406167546772,19,1129
5416,Design Studio Architect,12.9312491,77.5817481,Office,"Jayanagar, Bengaluru",3.0874159244576695,3.836069763369626,19,1111
5418,Jayanagar Traffic Police Station,12.9285604,77.5815865,Office,"Jayanagar, Bengaluru",2.7928888363205466,3.5372758207129333,17,1006
5419,AMC Corporate Office,12.9285215,77.5810456,Office,"Jayanagar, Bengaluru",2.796998303987666,3.5341490377778033,16,987
5421,Sharekhan,12.9172756,77.5775873,Office,"Jayanagar, Bengaluru",1.713749938691879,2.331389446615868,13,755
5422,Aviva Life Insurance Company,12.9304121,77.5861793,Office,"Jayanagar, Bengaluru",2.9767917041019984,3.770452716129487,19,1124
5423,Kesari Tours Jayanagar,12.9323028,77.5840093,Office,"Jayanagar, Bengaluru",3.1861493545001727,3.9592505005360956,18,1074
5424,PNB MetLife India Insurance Company Limited,12.9266206,77.5781724,Office,"Jayanagar, Bengaluru",2.6577888367639084,3.346892721079927,16,941
5425,Sphere Technosoft,12.930729,77.5860614,Office,"Jayanagar, Bengaluru",3.011485628110862,3.8039291940346898,19,1110
5427,United India Insurance Company Limited,12.9285539,77.5830018,Office,"Jayanagar, Bengaluru",2.7759739636426244,3.5380178750073124,16,981
5428,Flutura Decision Sciences %26 Analytics,12.9320107,77.5832111,Office,"Jayanagar, Bengaluru",3.157837596629304,3.9229324081282333,19,1117
5430,CCP Iot Technologies Pvt Ltd,12.9257593,77.5839261,Office,"Jayanagar, Bengaluru",2.4595002760383275,3.2324183087830445,14,862
5431,Ganjam Nagappa Sons,12.9293361,77.5846773,Office,"Jayanagar, Bengaluru",2.854655593938331,3.635022239477039,19,1125
5432,4X XEROX,12.932259,77.5835963,Office,"Jayanagar, Bengaluru",3.1831173340615986,3.952153820104205,18,1082
5434,Reliance general insurance,12.9262272,77.5768698,Office,"Jayanagar, Bengaluru",2.659233910539344,3.324088128895048,17,997
5435,Indium Group,12.931018,77.5811676,Office,"Jayanagar, Bengaluru",3.0697822205201555,3.811311941631385,18,1092
5436,EuroKids Regional Office,12.9289859,77.5827649,Office,"Jayanagar, Bengaluru",2.825957096058473,3.5853318894876134,17,1007
5437,Powered Bookkeeping Solutions Private Limited,12.9303251,77.5824315,Office,"Jayanagar, Bengaluru",2.9775152805946554,3.733558544978807,17,1021
5438,Yuvapatha ABVP State Office,12.9272121,77.5872315,Office,"Jayanagar, Bengaluru",2.629332661081714,3.4345361746052436,16,946
5440,Care Health Insurance Limited (Formerly Known as Religare Health Insurance Company Limited).,12.930932,77.5830681,Office,"Jayanagar, Bengaluru",3.039160684597878,3.8025464638308746,19,1129
5441,Reliance Life Insurance,12.9323712,77.5863025,Office,"Jayanagar, Bengaluru",3.1950079414727366,3.9883359002680425,19,1168
5442,A%26B Law Associates,12.9296574,77.5865074,Office,"Jayanagar, Bengaluru",2.8947315158610483,3.691716200293679,17,1045
5444,Rainbow Properties,12.9305116,77.5857644,Office,"Jayanagar, Bengaluru",2.9862710266567416,3.7762908185138846,18,1099
5445,Axiss Dental Clinic and Corporate office - Jayanagar,12.92619,77.586491,Office,"Jayanagar, Bengaluru",2.5097617009922932,3.3097095035916,15,887
5446,Xtreme Tattoo Studio %26 Tattoo Removal Center,12.9293334,77.5837384,Office,"Jayanagar, Bengaluru",2.8574407940525774,3.627964136707241,16,970
5447,National Insurance,12.9325352,77.5836105,Office,"Jayanagar, Bengaluru",3.2137214715365543,3.982903921282868,19,1119
5448,Prayojana Engineering Services,12.9310427,77.5828895,Office,"Jayanagar, Bengaluru",3.052834615327611,3.8143019286475845,19,1129
5451,PRAKASH ELECTRONICS,12.9302044,77.5836508,Office,"Jayanagar, Bengaluru",2.9546402526508713,3.7242121233303394,18,1055
5452,KRAMPTON TECHNOLOGIES,12.9304297,77.5860238,Office,"Jayanagar, Bengaluru",2.978075579618537,3.7704004500416333,19,1123
5453,Infimaze Global Solutions,12.9316466,77.5823268,Office,"Jayanagar, Bengaluru",3.1248771653525487,3.880365115218032,19,1123
5454,Sree Balaji Drug House,12.9325839,77.5835796,Office,"Jayanagar, Bengaluru",3.219289848992273,3.988167051917623,19,1121
5455,Evolve Work Studio - Coworking space in Jayanagar,12.9295301,77.5823449,Office,"Jayanagar, Bengaluru",2.890438108136905,3.6450529258926756,17,1001
5456,Thomas Cook,12.9286978,77.5826851,Office,"Jayanagar, Bengaluru",2.7948072230214738,3.5531097449004445,17,991
5457,SilverPeak Global Pvt. Ltd.,12.9297967,77.5836335,Office,"Jayanagar, Bengaluru",2.909458332883491,3.6788403391606717,18,1069
5458,Indian Railways Reservation Counter,12.9293463,77.5843126,Office,"Jayanagar, Bengaluru",2.8565574322735383,3.633191409609271,16,970
5460,D Mart,12.9287417,77.5912211,Office,"Jayanagar, Bengaluru",2.8685275220064876,3.6954178373438915,17,1010
5461,Cell Star Solutions Pvt Ltd,12.9306279,77.5826587,Office,"Jayanagar, Bengaluru",3.00885582638069,3.7676241308723606,18,1080
5462,Raikars,12.9286921,77.582756,Office,"Jayanagar, Bengaluru",2.793494460032691,3.552649105490309,17,990
5463,Sri Gajanana Enterprises,12.929971,77.584193,Office,"Jayanagar, Bengaluru",2.9263594757034515,3.701628514982531,17,996
5464,Vi - Vodafone Idea Store,12.931099,77.583032,Office,"Jayanagar, Bengaluru",3.057957449682571,3.82098871600833,19,1128
5465,JJJ I-Tech Pvt Ltd,12.9293977,77.5856754,Office,"Jayanagar, Bengaluru",2.862199235217652,3.652117537756961,19,1162
5466,Airtel Store,12.9269533,77.5861989,Office,"Jayanagar, Bengaluru",2.592697778720791,3.3892639190054883,15,897
5467,BharatMatrimony - JayaNagar,12.9303772,77.5837077,Office,"Jayanagar, Bengaluru",2.973532741787585,3.743707033394338,17,1010
5468,Sudhaa %26 Company,12.932583,77.5835,Office,"Jayanagar, Bengaluru",3.2196159536037605,3.9877019306626296,19,1120
5469,Karnataka State Women Development Corporation,12.9259401,77.5830419,Office,"Jayanagar, Bengaluru",2.4859522614051976,3.2476813527276027,15,879
5470,Fullerton India Credit Co. Ltd.,12.9310072,77.5794733,Office,"Jayanagar, Bengaluru",3.098837784460129,3.818783414789694,18,1074
5471,C. Diwakar and B G Sriram Advocate and Notary,12.9297783,77.5868255,Office,"Jayanagar, Bengaluru",2.9102854861686884,3.7097618830891177,18,1062
5472,PCS Securities Ltd Regional Office,12.9308131,77.5867147,Office,"Jayanagar, Bengaluru",3.0243372178822243,3.8220734648301145,19,1134
5473,Leggings Boutique,12.9297472,77.5834704,Office,"Jayanagar, Bengaluru",2.9049210684934734,3.6725240362185647,18,1071
5474,"BuildTrack - Automation For Home, Offices, Hotels, Hospitals, Warehouse in Bangalore",12.9301891,77.5828099,Office,"Jayanagar, Bengaluru",2.9588773976496885,3.7192001269952395,17,1025
5475,Aabushan,12.9319538,77.5833423,Office,"Jayanagar, Bengaluru",3.150676492294248,3.9171182910248077,18,1095
5480,UNIMONI Financial Services Ltd - JAYANAGAR (UAE Exchange),12.9313279,77.5833667,Office,"Jayanagar, Bengaluru",3.0810425591231794,3.84767367049611,18,1097
5482,Bysani Group,12.930833,77.583033,Office,"Jayanagar, Bengaluru",3.0284451541151136,3.791427290788494,19,1128
5483,ZenPoint IP Services,12.9290476,77.5836374,Office,"Jayanagar, Bengaluru",2.8262521629292214,3.5956660541021326,17,1023
5484,Elaan,12.9316862,77.5833923,Office,"Jayanagar, Bengaluru",3.120661428647009,3.887592941501827,18,1084
5485,Solar Rooftop,12.9285187,77.5853157,Office,"Jayanagar, Bengaluru",2.763744108372707,3.5508040378555155,17,1024
5486,Sri Sri Tattva Head Office,12.9201749,77.5859893,Office,"Jayanagar, Bengaluru",1.8388376678615084,2.6405455388542594,14,867
5488,Darshans Builders %26 Developers,12.928664,77.582625,Office,"Jayanagar, Bengaluru",2.7916589045789695,3.5492184384375847,17,996
5489,Chandana Enterprises,12.9296312,77.5866344,Office,"Jayanagar, Bengaluru",2.8926295689682973,3.6906839265651072,17,1045
5490,Edgetech Air Systems Pvt. Ltd,12.9281467,77.5859454,Office,"Jayanagar, Bengaluru",2.72407682241964,3.517336982475912,17,1013
5491,Muthoot Finance Ltd,12.928407,77.5860476,Office,"Jayanagar, Bengaluru",2.7534324639127084,3.5474248806732778,16,971
5492,Jayanagar 5th Block,12.917152,77.583371,Office,"Jayanagar, Bengaluru",1.510064442006815,2.273443992791995,13,770
5493,PhonoRange -Jayanagar (Opposite to BDA Complex),12.9290375,77.5837334,Office,"Jayanagar, Bengaluru",2.8246031440608528,3.595078586469361,16,960
5494,Ali %26 Prashanth,12.9320665,77.5837412,Office,"Jayanagar, Bengaluru",3.161016751459805,3.9314999694573554,18,1077
5496,Samsung Service Center - Samsung Washing Machine Ac Refrigerator Microwave Led Lcd Repair %26 Service Centre In Bangalore,12.9309857,77.5821048,Office,"Jayanagar, Bengaluru",3.054098189841714,3.80671993245757,18,1100
5497,Karnataka Marwari Youth Federation,12.9293739,77.5870245,Office,"Jayanagar, Bengaluru",2.866987481989772,3.668403444954011,18,1086
5498,The Indian National Trust for Art and Cultural Heritage,12.9308965,77.5839442,Office,"Jayanagar, Bengaluru",3.0301303774786033,3.80272664385294,17,1031
5499,Bajaj Finance FD - Fixed Deposit,12.9287786,77.5836115,Office,"Jayanagar, Bengaluru",2.7965327962384916,3.5656520333760353,17,1037
5500,"Bank of India, Jayanagar",12.9282066,77.5854032,Office,"Jayanagar, Bengaluru",2.729175512701573,3.517268920311131,16,988
