Place_name,Latitude,Longitude,Category,Region,haversine_distance_from_centroid,haversine_distance_from_voosh_kitchen,09_30_voosh,19_00_voosh,13_30_voosh,distance_in_meters_from_voosh
Sri Lakshmi ganesha luxury pg for ladies,13.0136207,77.6644045,PG,"Adugodi, Bengaluru",3.016931818402096,1.5296588307277394,6,7,7,434
kerala cafe,13.0145414,77.6472731,Restaurant,"Adugodi, Bengaluru",1.5090359194037128,0.3909829854015482,1,1,1,81
Bizongo,13.0277782,77.6324487,Office,"Ambalipura, Bengaluru",0.7975874125251357,2.3494962356968236,7,8,7,462
The Open Office,13.0111962,77.6576458,Office,"Ambalipura, Bengaluru",2.5488081577564885,0.9448931286607996,4,5,5,308
Axis Bank,13.0281125,77.6324919,Office,"Ambalipura, Bengaluru",0.8040645400033424,2.3664009238432016,10,11,10,661
Thalassery Restaurant,13.0149383,77.6315899,Restaurant,"Ambalipura, Bengaluru",1.4851271499954473,2.05420919690439,7,9,8,551
The Coorg Food Company,13.0249444,77.6315639,Restaurant,"Ambalipura, Bengaluru",0.8688014464623386,2.2769831724366574,8,9,8,516
Cafe@Rite,13.0306172,77.667511,Restaurant,"Ambalipura, Bengaluru",3.077485625363773,2.4496287586185295,9,11,9,662
EDEN HUTS RESTAURANT,13.0277782,77.6324487,Restaurants,"Bellandur, Bengaluru",0.7975874125251357,2.3494962356968236,7,8,7,462
The Coorg Food Company,13.0249444,77.6315639,Restaurant,"Carmelaram, Bengaluru",0.8688014464623386,2.2769831724366574,8,9,8,516
Jal Vayu Towers,12.9959329,77.6549463,Apartment,"Indiranagar, Bengaluru",3.7196780492384707,2.2920017276048874,16,17,16,1028
Imperio Restaurant kalyan nagar,13.0239564,77.6430723,Restaurant,"Indiranagar, Bengaluru",0.4361001562727459,1.189757169020588,5,6,6,376
All Peoples Church %26 World Outreach Office,13.0208806,77.6430362,Office,"J.P. Nagar, Bengaluru",0.6680059140026238,0.9697129115646521,4,5,5,313
Caravan Serviced Apartments,13.0057553,77.6571938,Apartments,"Junnasandra, Bengaluru",2.9395360580655754,1.3578471622441581,7,8,7,458
Griha Promoters Private Ltd,13.0181246,77.646108,Apartments,"Junnasandra, Bengaluru",1.1137473275679992,0.5283552891519908,3,4,4,222
Amigo Casa Apartments,13.0101579,77.6685876,Apartment,"K.R Puram, Bengaluru",3.5976201641236187,2.0661067005864973,8,9,9,556
BANGALORE ONE,13.0171033,77.6704647,Office,"K.R Puram, Bengaluru",3.488541496497166,2.164342465631044,9,10,9,592
n,13.015242,77.6611672,Office,"K.R Puram, Bengaluru",2.622600449653519,1.1579546024841316,5,6,6,364
Maruti Suzuki Service (Kalyani Motors Horamavu),13.0297689,77.665949,Office,"K.R Puram, Bengaluru",2.8951942326559386,2.260587182567148,10,12,10,697
Sub Registrar Office,13.0144612,77.6477867,Office,"K.R Puram, Bengaluru",1.5479216508653997,0.3464595096706986,1,1,1,70
Gravity PG Service,13.0118651,77.6681219,PG,"K.R Puram, Bengaluru",3.4644459112010266,1.9645419640584756,7,9,8,512
Sri balaji PG,13.0165437,77.6654645,PG,"K.R Puram, Bengaluru",2.9928901378656816,1.6204788325992985,8,8,8,501
Omkareshwara luxury ladies pg,13.0134689,77.6645551,PG,"K.R Puram, Bengaluru",3.039106434838266,1.5487982368748285,6,7,7,428
SRI SAI Krishna PG for BOYS,13.0145817,77.6665771,PG,"K.R Puram, Bengaluru",3.185450777207695,1.748270602625549,7,8,7,476
Reddy PG for Mens,13.0159193,77.6673602,PG,"K.R Puram, Bengaluru",3.2096163736089625,1.8251610419740771,7,8,8,509
Zolo Cygnus Co-Living %7C Redefining PG,13.0206664,77.6558476,PG,"K.R Puram, Bengaluru",1.8582071634841817,0.7700964267827594,4,4,4,251
Shree Chamundeeshwari Dosa Camp,13.0143768,77.6647403,Restaurant,"K.R Puram, Bengaluru",3.0129930581886883,1.5529341751512624,6,7,7,430
Ovenstory Pizza Kasturi Nagar,13.0023385,77.6611044,Restaurant,"K.R Puram, Bengaluru",3.5045317390560347,1.9115051562376653,7,9,8,534
Lotus comforts Girls P.G,13.0178245,77.6596438,PG,"Koramangala, Karnataka",2.353348304959618,1.007753953277745,4,5,4,278
The Coorg Food Company,13.0249444,77.6315639,Restaurant,"Koramangala, Karnataka",0.8688014464623386,2.2769831724366574,8,9,8,516
EDEN HUTS RESTAURANT,13.0277782,77.6324487,Restaurant,"Marathahalli, Bengaluru",0.7975874125251357,2.3494962356968236,7,8,7,462
Bhagini,13.0186275,77.655851,Restaurant,"Marathahalli, Bengaluru",1.94054349270788,0.6434532946933749,6,8,7,450
Home Town Paying Guest,13.0161314,77.6367274,PG,"MG Road, Bengaluru",1.1198051657004184,1.4936438288698088,6,8,7,451
Reddy's Kitchen,13.0189979,77.6564302,Restaurant,"Radha Reddy Layout, Bengaluru",1.9817366411706472,0.717974147922983,3,4,3,216
Tamarind Restaurant,13.0126815,77.6475978,Restaurant,"Sarjapura, Bengaluru",1.7026815497117496,0.49325535179093577,1,2,2,109
Apartment 010,13.0116105,77.6380621,Apartments,"Thygaraja Layout, Bengaluru",1.588489604390427,1.4379859944474733,6,7,7,441
Prestige North Point,13.0233789,77.6374308,Apartments,"Thygaraja Layout, Bengaluru",0.35464055674275186,1.6328882675866576,8,8,8,506
"ICICI Bank HRBR Layout, Bangalore-Branch %26 ATM",13.0247999,77.6369441,Offices,"Thygaraja Layout, Bengaluru",0.30266200531444454,1.7606058739193957,7,10,9,589
CMR University OMBR Campus,13.0059177,77.6503747,Offices,"Thygaraja Layout, Bengaluru",2.505848665575208,1.1309771917530027,4,5,4,308
Annapurna ladies pg,13.027366,77.6391614,PG,"Thygaraja Layout, Bengaluru",0.17610461223780108,1.7565238256237452,9,10,10,592
Imperio Restaurant kalyan nagar,13.0239564,77.6430723,Restaurant,"Thygaraja Layout, Bengaluru",0.4361001562727459,1.189757169020588,5,6,6,376
Aqni - The Restaurant,13.024423,77.630063,Restaurant,"Thygaraja Layout, Bengaluru",1.0376393902411964,2.4016485611704885,9,10,9,578
Truffles,13.0224528,77.6397246,Restaurant,"Thygaraja Layout, Bengaluru",0.37544772431383816,1.3664752276033878,6,8,7,458
Byli,13.0227279,77.6397619,Restaurant,"Thygaraja Layout, Bengaluru",0.34517643150303395,1.3791510464953365,6,8,7,469
"Holige Mane, HRBR Layout",13.0154241,77.6421122,Restaurant,"Thygaraja Layout, Bengaluru",1.189717438729494,0.9132458986914432,3,4,4,210
Sri Brindavan Vaibhav Veg,13.0231499,77.6292242,Restaurant,"Thygaraja Layout, Bengaluru",1.155661249618621,2.436495437880355,10,12,11,714
MTR,13.021741,77.6434469,Restaurant,"Thygaraja Layout, Bengaluru",0.6212566700066271,0.9906326122403357,6,7,6,398
Tamarind Restaurant,13.0126815,77.6475978,Restaurant,"Thygaraja Layout, Bengaluru",1.7026815497117496,0.49325535179093577,1,2,2,109
The Filter Coffee,13.0177513,77.6428888,Restaurant,"Thygaraja Layout, Bengaluru",0.9684982756858957,0.8465714261231809,4,4,4,252
Chulha Chauki da Dhaba,13.0249314,77.6316224,Restaurant,"Thygaraja Layout, Bengaluru",0.8626696519902012,2.2706442285397235,8,9,8,516
Draggers cafe,13.021494,77.641755,Restaurant,"Thygaraja Layout, Bengaluru",0.5383275729407343,1.1233236196441951,5,6,6,353
The Local,13.0212208,77.6414976,Restaurant,"Thygaraja Layout, Bengaluru",0.5543670628295774,1.1313527114785447,5,6,6,376
Pizza Hut,13.0261221,77.6361322,Restaurant,"Thygaraja Layout, Bengaluru",0.3698613803330913,1.9163879349268556,7,7,7,434
Pizza Hut,13.0216653,77.6399916,Restaurant,"Thygaraja Layout, Bengaluru",0.46510325773059163,1.2977636783727606,6,7,6,410
Domino's Pizza,13.0211393,77.6419989,Restaurant,"Thygaraja Layout, Bengaluru",0.5854522572278791,1.0800666340964828,5,6,5,344
Domino's Pizza,13.029742,77.6340093,Restaurant,"Thygaraja Layout, Bengaluru",0.7401468456304885,2.3456984357949437,8,9,8,515
Apartment 010,13.0116105,77.6380621,Apartments,"Vivek nagar, Bengaluru",1.588489604390427,1.4379859944474733,6,7,7,441
Srinivasa Executive PG for Men,13.0267741,77.6404053,PG,"Whitefield, Bengaluru",0.1417681750763489,1.6159551022239995,8,8,8,482
Annapurna ladies pg,13.027366,77.6391614,PG,"Whitefield, Bengaluru",0.17610461223780108,1.7565238256237452,9,10,10,592
Evergreen Apartment,13.0092845,77.658391,Appartments,kasturi_nagar,2.7489135724183624,1.1404116409166587,6,7,6,414
Rakesh Fantasy Garden,13.0069451,77.6590014,Appartments,kasturi_nagar,2.975843178732298,1.370778492127891,6,7,6,397
Shri Sai Samruddhi Apartment,13.0082701,77.6619733,Appartments,kasturi_nagar,3.117789213028435,1.515568964909028,8,9,8,549
Vijay Property Apartment,13.0048836,77.6547447,Appartments,kasturi_nagar,2.8527035056323498,1.327495954839308,6,7,7,444
Crescent Luxuria,13.0075783,77.6592612,Appartments,kasturi_nagar,2.946947954369091,1.3391726156714325,6,7,6,423
Pristine Diamond Apartments,13.0067102,77.6565842,Appartments,kasturi_nagar,2.816002539173947,1.2328043684831906,6,7,6,428
Ashirwad Apartments,13.0029819,77.6607696,Appartments,kasturi_nagar,3.4270916065321155,1.8325634428306752,7,9,8,527
Samskruthi Apartment,13.0041354,77.662609,Appartments,kasturi_nagar,3.4736906713248694,1.8663977657786968,8,10,9,585
Kasturi Palace Apartment,13.000387,77.6615546,Appartments,kasturi_nagar,3.700351402182594,2.116311404503976,8,10,9,589
Shakthi Pride Apartments,13.0084122,77.6590824,Appartments,kasturi_nagar,2.8695652240093588,1.2610157889422082,7,8,7,477
Srinivasa Apartment,13.0076594,77.657999,Appartments,kasturi_nagar,2.8429117409130553,1.2393232190233945,5,6,5,364
Apartment,13.0025131,77.6598546,Appartments,kasturi_nagar,3.400905627996045,1.8172736079221927,7,9,8,520
Heritage Pride apartments,13.0098407,77.6598884,Appartments,kasturi_nagar,2.832321271936468,1.2304409899120239,6,7,6,418
Aishwarya Apartment,13.0075221,77.6621227,Appartments,kasturi_nagar,3.18295541598179,1.577634082015041,7,8,7,499
Anaaya Apartments,13.0092181,77.6584925,Appartments,kasturi_nagar,2.762026886424043,1.1535395678370972,6,7,6,416
Sneha Apartments,13.0069604,77.6572493,Appartments,kasturi_nagar,2.8432016163661578,1.2500097522464075,6,6,6,389
Sai Darshan Apartments,13.0094182,77.6586906,Appartments,kasturi_nagar,2.763284708465037,1.1552997700480334,6,7,6,428
Sathya Park View,12.998751,77.6629164,Appartments,kasturi_nagar,3.9345382992527576,2.3498508176058976,8,10,9,592
Chhabria Surya Apartments,13.0056789,77.6549238,Appartments,kasturi_nagar,2.7925311785827898,1.2521488351815913,7,8,7,455
CR Silver Woods Apartment,13.0069366,77.6543139,Appartments,kasturi_nagar,2.6410686605397453,1.0976939749065087,5,6,5,348
Geetha Nilaya,13.0062535,77.6567409,Appartments,kasturi_nagar,2.8655420700889165,1.2848779553438796,6,7,6,445
JALA,13.0077771,77.6614671,Appartments,kasturi_nagar,3.110302897541769,1.5040293578758364,8,9,8,526
Sri Ram Castle,13.0075415,77.6598174,Appartments,kasturi_nagar,2.9937165014786378,1.38527379087837,6,7,6,432
Vega Eternity Apartments,13.0091926,77.6560356,Appartments,kasturi_nagar,2.5722826509064842,0.9724669043691516,4,5,5,302
Bildens Ganga apartments,13.007588,77.6604803,Appartments,kasturi_nagar,3.043378434221957,1.434961210955852,6,8,7,452
NAVA SUBHA SAMRUDDHI,13.0063368,77.6561284,Appartments,kasturi_nagar,2.8156853706376923,1.2432262419369617,6,7,6,419
Ravi Mansion,13.0047353,77.6596708,Appartments,kasturi_nagar,3.20295177106987,1.6055100528878434,7,9,8,513
Prime Lake Front,13.0073693,77.6623151,Appartments,kasturi_nagar,3.209846390598843,1.6045095264714913,7,8,7,492
kcd apartment,13.010811,77.661327,Appartments,kasturi_nagar,2.8916869639724894,1.3101873837934759,6,7,7,449
SV MANOR,13.0093894,77.6591506,Appartments,kasturi_nagar,2.8029966343651087,1.1959323699975672,6,7,6,411
Scion Park View Apartments,13.0077949,77.6582279,Appartments,kasturi_nagar,2.84979760477539,1.2444842987877107,5,6,5,367
Choonda Bhaji Appartment,13.0098985,77.6600099,Appartments,kasturi_nagar,2.838568035543678,1.2377427888358152,6,7,6,422
Sai home's Apartment,13.0085242,77.6607711,Appartments,kasturi_nagar,2.999128787902136,1.3936253341142526,7,8,8,500
ACK Gardenia,13.0077637,77.661664,Appartments,kasturi_nagar,3.1275876723963125,1.5218221173469555,8,9,8,546
Rais Pinnacle Apartment,13.0110693,77.6588325,Appartments,kasturi_nagar,2.6577483202458145,1.059986257408664,5,6,5,358
Balaji Residency,13.009611,77.6599745,Appartments,kasturi_nagar,2.855646619884491,1.2526602212772942,6,7,6,423
Manjunad appartment,13.0028992,77.6599674,Appartments,kasturi_nagar,3.3762979912177595,1.7887423843708552,7,9,8,516
Sun Flower Apartment,13.0050128,77.6595318,Appartments,kasturi_nagar,3.1701179635673093,1.5719598396500782,8,9,8,535
Big Sky Elite Apartment,13.0055061,77.6528954,Appartments,kasturi_nagar,2.683303057727595,1.204593355732196,5,6,5,352
N. V. Residency,13.0097719,77.6582643,Appartments,kasturi_nagar,2.7026297617286916,1.0946394170889273,6,7,6,405
Shiva Sai Residency,12.9993047,77.6624001,Appartments,kasturi_nagar,3.8514139610368727,2.267379703008696,8,9,8,567
Rais Pinnacle Apartment,13.0110693,77.6588325,Appartments,kasturi_nagar,2.6577483202458145,1.059986257408664,5,6,5,358
Rajanikanth Apartment,13.0090845,77.6666199,Appartments,kasturi_nagar,3.4751107887414037,1.9107770692927055,8,9,8,517
Muthulakshmi Residency,13.0082531,77.6620776,Appartments,kasturi_nagar,3.1277889190826436,1.5259174809527556,8,9,8,545
RadhaKrishna Nilaya,13.0036477,77.6611119,Appartments,kasturi_nagar,3.39799406200632,1.7977120670444322,7,9,8,519
N. V. Residency,13.0097719,77.6582643,Appartments,kasturi_nagar,2.7026297617286916,1.0946394170889273,6,7,6,405
Anugraha,13.0068358,77.6607234,Appartments,kasturi_nagar,3.1190712785098142,1.5105586229593353,7,8,7,471
Chakradhar,13.0094042,77.6607025,Appartments,kasturi_nagar,2.931504200967391,1.3306781378994845,7,8,7,454
Sai Keerthi Apartments,13.0059866,77.6566523,Appartments,kasturi_nagar,2.881958582883374,1.305312879519198,6,8,7,456
Venkateshwara Krupa,13.0082194,77.659963,Appartments,kasturi_nagar,2.9548442665571084,1.3466407495105381,7,9,8,512
Big Sky Elite Apartment,13.0055061,77.6528954,Appartments,kasturi_nagar,2.683303057727595,1.204593355732196,5,6,5,352
S R Enclave,13.0072572,77.6557338,Appartments,kasturi_nagar,2.709817634308414,1.1331232265787834,5,6,6,378
V.G Raj,13.004679,77.6565175,Appartments,kasturi_nagar,2.9856882704188012,1.4256234211765701,6,7,6,431
Indraprastha Apartments,13.0067997,77.6551565,Appartments,kasturi_nagar,2.70926502469524,1.1487543158819897,7,8,7,474
Sanjana Residency,13.0086752,77.6600134,Appartments,kasturi_nagar,2.925651534564704,1.3185327712270711,7,8,7,464
Pristine Silver Oak,13.0009943,77.6622033,Appartments,kasturi_nagar,3.6953257590812196,2.102524454217257,8,10,9,597
Grey Pearl,13.006829,77.656639,Appartments,kasturi_nagar,2.8099575220557726,1.2248572702139542,6,7,6,423
Shambhus,13.0014631,77.6611841,Appartments,kasturi_nagar,3.583305105455776,1.9952094530758266,8,9,8,549
SRI RAMA ENCLAVE,13.0071408,77.6562027,Appartments,kasturi_nagar,2.752750003750784,1.17029475773973,6,7,6,398
Vana Apartments,13.0124252,77.6612008,Appartments,kasturi_nagar,2.7803559736314605,1.2273201721010374,6,7,6,399
Sri Lakshmi Venkateshwara Nilaya,13.0048871,77.6593629,Appartments,kasturi_nagar,3.1678978164887037,1.5717059360604575,7,9,8,536
Crimson Court Apartments (Vellara Group),13.0066232,77.6565795,Appartments,kasturi_nagar,2.8229781439464072,1.2407280248973627,6,7,6,432
Paranjyothi Residency,13.0086735,77.6599013,Appartments,kasturi_nagar,2.9165752501060904,1.3091944973439225,7,8,7,458
VJ Infiniti,13.0073245,77.6575825,Appartments,kasturi_nagar,2.838214627341222,1.239340874049123,5,6,6,373
Sai homes,13.0107783,77.6612877,Appartments,kasturi_nagar,2.8903148109107786,1.3080191538718087,6,7,7,442
Sree Laxmi Nivas,13.0048735,77.6555683,Appartments,kasturi_nagar,2.906065203480696,1.361910725526558,6,7,6,419
Silicon Residency,13.0083042,77.6598517,Appartments,kasturi_nagar,2.939564998434345,1.3313480070772745,7,9,8,515
Thirumala Maruthi,13.0078287,77.6590779,Appartments,kasturi_nagar,2.9133828211762856,1.3054584718689815,6,7,6,410
Pawan's House,13.0048588,77.6585963,Appartments,kasturi_nagar,3.114527223284733,1.5250452363385163,7,8,7,491
Sowmyashailesh,13.0071734,77.6608306,Appartments,kasturi_nagar,3.1024097088692577,1.4939147597711084,7,8,7,472
Trillium Kasturi Nagar,13.0060762,77.6548064,Appartments,kasturi_nagar,2.749545824486113,1.2064707061501965,7,8,7,475
Sri L.V Nest,13.0077951,77.6558516,Appartments,kasturi_nagar,2.672952894777591,1.088430003870151,5,6,5,361
Thavalam,13.0106758,77.660071,Appartments,kasturi_nagar,2.7907385337697326,1.1975674231616027,6,7,6,404
K L Rajesh,13.0042471,77.661001,Appartments,kasturi_nagar,3.3415643419878274,1.739071149334858,7,8,7,507
Vijayalakshmi Nilayam,13.007061,77.6609901,Appartments,kasturi_nagar,3.123617414473669,1.5151376680472128,7,8,7,469
SLN Paradise Apartment,13.0076407,77.6545365,Appartments,kasturi_nagar,2.5942872590867783,1.0354519991995461,5,5,5,327
Sree Ram Kripa,13.0097584,77.65991,Appartments,kasturi_nagar,2.839891678455724,1.2375548389875413,6,7,6,419
Pooja Nilaya,13.0104526,77.6612565,Appartments,kasturi_nagar,2.908693470868284,1.3217838331436471,6,7,7,432
Divya Vaibhav Building,13.003839,77.6620267,Appartments,kasturi_nagar,3.4518303044140684,1.8468304475499178,8,9,8,561
Home Away,13.0077985,77.6606944,Appartments,kasturi_nagar,3.0452565385420356,1.437373672657539,7,8,7,473
%2317,13.0080044,77.6573943,Appartments,kasturi_nagar,2.7696222046518484,1.1677021648623185,5,6,5,347
Sumani Nirvana Appartment,13.007768,77.658217,Appartments,kasturi_nagar,2.851064130733432,1.2459110466110626,5,6,5,367
Abroos House,13.0102647,77.6607915,Appartments,kasturi_nagar,2.8805859164355336,1.2880262687236026,6,7,7,419
Pristine Parkview,13.0080963,77.6577971,Appartments,kasturi_nagar,2.793064202736605,1.1883699704889301,5,6,5,364
"Gods Grace, Kasturi Nagar",13.0079012,77.6601434,Appartments,kasturi_nagar,2.9929563719686425,1.38455983341994,7,8,7,456
Narayanappa building,13.009367,77.6586085,Appartments,kasturi_nagar,2.7603812683155042,1.1521785897436698,6,7,6,426
Maruthi residency,13.0094935,77.6595999,Appartments,kasturi_nagar,2.8326477675952875,1.227438066353699,6,7,7,420
Doctor Apartments (Savithra Buliding),13.0059811,77.6540422,Appartments,kasturi_nagar,2.7091349129472917,1.1870474258683315,6,7,6,408
Dream Scape Towers,13.0119816,77.660934,Appartments,kasturi_nagar,2.7829723234241373,1.21771655574732,5,6,6,384
Prime Regency,13.0095733,77.6606296,Appartments,kasturi_nagar,2.91363009040193,1.3136724277075313,6,7,7,447
Shiva Sai Elite,13.0107524,77.6581072,Appartments,kasturi_nagar,2.618793765999823,1.0142420191674644,5,5,5,328
"M.K. Maple, Kasturi Nagar",13.0071189,77.658527,Appartments,kasturi_nagar,2.9258686064091073,1.3222084444755977,6,7,6,406
JCN Brundavana,13.0010556,77.6648412,Appartments,kasturi_nagar,3.886306808165962,2.2810786251087927,9,10,9,597
Sumuka Banaswadi,13.0101066,77.6619502,Appartments,kasturi_nagar,2.992140383286282,1.4061978450208854,7,7,7,448
Kasturi Nagar,13.0087642,77.6604715,Appartments,kasturi_nagar,2.9571090792904164,1.351639203722154,7,8,7,482
Dhayaalu,13.0056645,77.6559982,Appartments,kasturi_nagar,2.864809871821097,1.3024412843851079,6,8,7,455
Dreamland,13.0077364,77.6581486,Appartments,kasturi_nagar,2.8482878387294535,1.2435814089451656,5,6,5,366
Sri Eshwara Nilaya,13.0056913,77.6578179,Appartments,kasturi_nagar,2.9893143710763512,1.400923476134246,7,8,7,456
Kasturi G 206,13.0023256,77.6599747,Appartments,kasturi_nagar,3.425221931989849,1.841837115984133,7,9,8,515
Saveria Builders %26 Developers,13.0091897,77.6569944,Appartments,kasturi_nagar,2.645761323612598,1.0398322911063604,5,6,5,348
Gopalan Aristocrat,13.0009421,77.6607006,Appartments,kasturi_nagar,3.593647033720856,2.013523190501973,7,8,7,507
Samvath,13.0087523,77.6670567,Appartments,kasturi_nagar,3.5348639761779546,1.969100032346904,8,9,8,532
Chansandra Pedanana,13.0094307,77.6602574,Appartments,kasturi_nagar,2.892075492221581,1.2892648722921582,6,7,7,433
2HM-202,13.0040562,77.6623903,Appartments,kasturi_nagar,3.4628274264753833,1.8561771470319317,8,10,9,584
Manjunatha Nilaya,13.0087382,77.6601671,Appartments,kasturi_nagar,2.9337586420825503,1.3272454879293942,7,8,7,462
"416, 2nd A main road",13.0070066,77.659443,Appartments,kasturi_nagar,3.0051762104992408,1.3983734654199378,6,7,7,445
SriSaiResidency,13.0019862,77.6651583,Appartments,kasturi_nagar,3.8384434623121164,2.2306769153246577,9,10,9,598
Rishi,13.0060997,77.6544095,Appartments,kasturi_nagar,2.721778101957668,1.188115116583368,7,8,7,491
Muni Reddy Nilaya,13.0087271,77.6559577,Appartments,kasturi_nagar,2.603971014168887,1.0088207148750703,5,5,5,325
SNS Residency,13.0104437,77.6608183,Appartments,kasturi_nagar,2.871006332931827,1.2806658664356245,6,7,7,419
Dulsine Cottage,13.0037924,77.6608124,Appartments,kasturi_nagar,3.364015968344342,1.7646683089619193,7,8,7,506
Moonstone,13.0090859,77.6568394,Appartments,kasturi_nagar,2.6418995013338815,1.0372049912238288,5,6,5,342
Sri Maruthi Nialaya,13.0099335,77.6592339,Appartments,kasturi_nagar,2.7708763957069573,1.1665139312789647,6,7,6,395
Saveria Pebble,13.0088084,77.6581093,Appartments,kasturi_nagar,2.762297913671911,1.1542462148334238,6,7,6,408
K.P Apartments,12.9975598,77.6618149,Appartments,kasturi_nagar,3.962983622410494,2.3965760492954127,16,18,16,1054
Ar Sm Signature,13.0048028,77.6599471,Appartments,kasturi_nagar,3.217959977499386,1.6183500886784075,6,8,7,458
Sahithi Daisy III,13.0096964,77.6594698,Appartments,kasturi_nagar,2.8073785429700786,1.2026951057979733,6,7,6,406
sls Estate,13.0033875,77.6674988,Appartments,kasturi_nagar,3.9248029099173034,2.3195771331312587,10,11,10,647
Scion Lavendula,13.0071114,77.6573888,Appartments,kasturi_nagar,2.841105786932646,1.2453947187125978,5,6,6,381
SV Grande Apartment,13.009924,77.6554338,Appartments,kasturi_nagar,2.4685126472829,0.8682406447653754,4,5,4,277
Caravan Serviced Apartments,13.0057553,77.6571938,Appartments,kasturi_nagar,2.9395360580655754,1.3578471622441581,7,8,7,458
Maruthi Plaza,13.0062238,77.6573955,Appartments,kasturi_nagar,2.914648141103614,1.3262200824680785,6,7,7,427
Saveria Metropole,12.9962397,77.6591914,Appartments,kasturi_nagar,3.918923773738773,2.398906487887976,15,17,16,1021
Sri Sapphire park,13.006231,77.6667248,Appartments,kasturi_nagar,3.6640417484083168,2.07020620172652,8,10,9,570
"9th Cross road, BBMP. ward no 50",13.0079642,77.6609148,Appartments,kasturi_nagar,3.051248580706004,1.4441804308323973,7,8,7,482
Sri Nivas Apartments,13.0124057,77.6605407,Appartments,kasturi_nagar,2.7214353083053022,1.160863763602699,6,7,6,392
Garudadri residency,13.0058446,77.6534261,Appartments,kasturi_nagar,2.6835111158605276,1.181886926328061,6,7,6,398
Sri Lakshmi Narasimha Nivas,13.0058246,77.6577291,Appartments,kasturi_nagar,2.971839487768498,1.3832579334608437,7,8,7,451
Sri Sai Nilaya,13.0027628,77.664445,Appartments,kasturi_nagar,3.722925432858774,2.115020165332372,9,9,9,568
IB Ramnani Building,13.0037631,77.6603634,Appartments,kasturi_nagar,3.3332646124081453,1.7368914852869615,7,8,7,495
YD Exotica,13.0133719,77.6544548,Appartments,kasturi_nagar,2.1285333336232193,0.5229415341490518,3,4,3,218
Ashirwad,13.0080044,77.6573943,Appartments,kasturi_nagar,2.7696222046518484,1.1677021648623185,5,6,5,347
Bro house,13.0118453,77.6608664,Appartments,kasturi_nagar,2.7853037983916646,1.2167263219163647,5,6,6,382
S N Sai Khrupa,13.0042102,77.6678725,Appartments,kasturi_nagar,3.89909351424375,2.2980548101554383,10,11,10,662
R S G Enclave,13.001677,77.6644476,Appartments,kasturi_nagar,3.8072967482301183,2.2014840847217316,9,10,9,584
Dr M. K Rajashree Pain Specialist,13.0016103,77.6620118,Appartments,kasturi_nagar,3.630481538870194,2.03549968157217,8,10,8,577
OM SAI NIVASA,13.0038227,77.6674202,Appartments,kasturi_nagar,3.8875975441625346,2.283599390398055,10,10,10,626
Artforms Inspiron Apartments,13.0070431,77.6582444,Appartments,kasturi_nagar,2.910459204784245,1.3087773271207466,6,7,6,399
Christard,13.0070725,77.6585612,Appartments,kasturi_nagar,2.9321425411092816,1.328532976999114,6,7,6,408
BNM Building,13.0075467,77.6574659,Appartments,kasturi_nagar,2.811614230980506,1.2121202890208567,5,6,5,364
35 Atharva,13.0040839,77.6690942,Appartments,kasturi_nagar,4.012594154960636,2.415306595837907,11,12,11,718
SN Luxor Apartments,13.0075196,77.6538959,Appartments,kasturi_nagar,2.562060807817519,1.0207680276631974,4,5,5,314
Sunil residency,13.0097637,77.6610672,Appartments,kasturi_nagar,2.9380488545349226,1.3422625888912314,6,7,7,449
Pushpa Ramakrishna nivasa chenamma temple Street vijinapura,13.0032432,77.6667429,Appartments,kasturi_nagar,3.872320152636056,2.2652438270789976,9,10,10,617
Red Apartments,13.0050094,77.6528946,Appartments,kasturi_nagar,2.7299230005724477,1.258580352351953,5,6,5,367
Mahadevai Illam,13.0016062,77.6648061,Appartments,kasturi_nagar,3.840447247975442,2.233964580151193,9,10,9,596
Nagamma Sunrise,13.0045012,77.6676237,Appartments,kasturi_nagar,3.8579321066152517,2.257425213397676,10,11,10,656
Srinilaya Apartments,13.019727,77.669633,Appartments,kasturi_nagar,3.330668241352882,2.1104363920135243,11,12,11,746
Sai Tranquil,13.0087443,77.6551566,Appartments,kasturi_nagar,2.5440229659870925,0.959038720180987,5,5,5,318
Sri Venkatadri nilaya,13.0108384,77.6562672,Appartments,kasturi_nagar,2.4624338290998278,0.8539321818014723,4,5,4,301
SAMPANN RESIDENCY,12.9961093,77.6593122,Appartments,kasturi_nagar,3.9382095806257267,2.4173839470298297,15,17,16,1022
RK Apartments Block 5,13.0158239,77.6672174,Appartments,kasturi_nagar,3.1987623986407026,1.8098325021981465,7,8,8,505
Vajra,13.010005,77.6589357,Appartments,kasturi_nagar,2.7409592017778426,1.1357553062642407,6,7,6,409
Surabhi Nilayam,13.005844,77.6558159,Appartments,kasturi_nagar,2.8368952617716974,1.2756978910341976,6,7,6,421
SN Sathya Enclave,13.0075013,77.6539281,Appartments,kasturi_nagar,2.5657966206144347,1.023922538831415,4,5,5,315
Royal Nest Apartments 5M-613,13.0097525,77.6567009,Appartments,kasturi_nagar,2.5793722102372847,0.9723812531744058,5,6,5,339
Ittina Padma,13.0093762,77.6675477,Appartments,kasturi_nagar,3.543547932141593,1.9905994328934868,8,9,8,554
Pochi Residency,13.0036807,77.6696429,Appartments,kasturi_nagar,4.087053170969965,2.489633016256301,11,12,11,740
Mercury Residency,13.0076982,77.6682372,Appartments,kasturi_nagar,3.705823356613043,2.1347386793044367,10,11,10,632
Haripriya Apartments,13.0110116,77.6536484,Appartments,kasturi_nagar,2.247559579127836,0.6587210894693145,3,3,3,201
Annai Residency,13.0162156,77.6659682,Appartments,kasturi_nagar,3.0567325831858283,1.674317239943046,7,8,8,509
RK Apartment Block 21,13.0166357,77.6668734,Appartments,kasturi_nagar,3.1332550281580054,1.7733696137872947,8,9,8,525
"Rk Apartment, Block 12",13.0167915,77.6646951,Appartments,kasturi_nagar,2.905147520486657,1.53832080134508,8,9,9,540
"ANR Bhavana, Kasturinagar",13.0080618,77.6607795,Appartments,kasturi_nagar,3.0330565668002185,1.4259552647294682,7,8,7,487
Rohin%E2%80%99s Apartment( F Block),13.0002172,77.6668557,Appartments,kasturi_nagar,4.107321880173034,2.499772797787325,12,12,12,743
JHR Apartments Block 1,13.0167626,77.6687122,Appartments,kasturi_nagar,3.3178964714312356,1.9729615270958463,8,9,8,546
Aishwaria Apartments,13.0104625,77.6514333,Appartments,kasturi_nagar,2.140092554474808,0.6333927647015979,3,3,3,201
RSR RESIDENCY,13.0081734,77.660107,Appartments,kasturi_nagar,2.9699261386492117,1.3618378836659428,7,8,8,508
SU RESIDENCY,13.0168957,77.6668603,Appartments,kasturi_nagar,3.122600200111349,1.7731795561196455,9,9,9,567
Karthik Apartments,13.0084843,77.6437292,Appartments,kasturi_nagar,1.9809789199408925,1.1203535257758983,3,4,3,230
Arka Grandeur,13.0068216,77.6460403,Appartments,kasturi_nagar,2.227504029218702,1.1386804256037075,4,5,4,306
Nest apartment ombr layout,13.0120928,77.6571145,Appartments,kasturi_nagar,2.4411953451629143,0.8418254804633367,4,5,4,278
The Pearl Apartment,13.0066985,77.654735,Appartments,kasturi_nagar,2.689860556230362,1.139806153697066,8,9,8,522
Punith Gowda house,13.0032697,77.6667483,Appartments,kasturi_nagar,3.870855619788459,2.2638414923720673,9,10,10,616
Kalyan Apartments,13.0273248,77.6372114,Appartments,kasturi_nagar,0.3017913111755668,1.907402649201459,8,8,9,498
ssun,13.0071947,77.6583775,Appartments,kasturi_nagar,2.9084907605975236,1.3052338181941507,6,7,6,400
Classic Paradise,13.0098011,77.6599635,Appartments,kasturi_nagar,2.841419926980793,1.239643003412485,6,7,6,421
Green View Park,13.0082775,77.6581652,Appartments,kasturi_nagar,2.807416315665437,1.2005593489898894,5,6,6,386
Apartment,13.0188178,77.6685836,Appartments,kasturi_nagar,3.242246698340001,1.9809893026393115,9,10,9,627
Hanuman Mansion,13.0071048,77.6673485,Appartments,kasturi_nagar,3.662503202518909,2.079449157180353,9,10,9,596
United Stanza Apartments,13.0082517,77.6507067,Appartments,kasturi_nagar,2.298581839956103,0.8715964360161905,4,4,4,248
Anaaya Enclave,13.0093146,77.6588557,Appartments,kasturi_nagar,2.784326684602376,1.1764127533118753,6,7,7,432
Charming Height Apartment,13.0168287,77.6523563,Appartments,kasturi_nagar,1.7118876104699452,0.2159011273957309,3,3,3,189
Apartment,13.0062748,77.6497352,Appartments,kasturi_nagar,2.4386689707486333,1.0944274459556347,4,5,5,308
Ni%C3%A9math,13.0028669,77.6678946,Appartments,kasturi_nagar,3.994743009190334,2.3889226459777633,10,12,10,693
Angels Garden,13.0094274,77.655511,Appartments,kasturi_nagar,2.5141108312626685,0.9173720584141906,4,5,4,298
Vidya,13.0044336,77.6671325,Appartments,kasturi_nagar,3.8207677461340777,2.2183181514034334,10,11,10,648
Apartment 010,13.0116105,77.6380621,Appartments,kasturi_nagar,1.588489604390427,1.4379859944474733,6,7,7,441
Suravi Apartment,13.0278899,77.6352072,Appartments,kasturi_nagar,0.5218562242660473,2.1147407362546145,9,9,8,547
Aryav Constructions,13.0027757,77.6629801,Appartments,kasturi_nagar,3.608506261456026,2.003791121868106,9,11,9,671
vinayaka complex,13.0036977,77.6603445,Appartments,kasturi_nagar,3.3372365328511995,1.7413821563789784,7,8,7,496
Margadarshi Apts,13.001117,77.637872,Appartments,kasturi_nagar,2.753190940482402,2.1557365631770167,12,9,7,537
Midas Haven Apartments,13.0193559,77.6620808,Appartments,kasturi_nagar,2.546452162806108,1.3047212331297855,5,6,6,358
Blue Moon House,13.0062372,77.6531901,Appartments,kasturi_nagar,2.633030174553782,1.1330652087241917,6,6,6,387
Sri Nedhi Apartment,13.007602,77.639354,Appartments,kasturi_nagar,2.0262991028270214,1.5337130053114278,6,7,6,393
Suvega Sunrise Apartment,13.0303779,77.6496264,Appartments,kasturi_nagar,1.2050445805802659,1.5918858870766104,10,11,11,654
Rajamatha Grant Apartments,13.0230091,77.6628132,Appartments,kasturi_nagar,2.541445749520467,1.5387217254149474,7,8,7,474
CVSR Homes,13.0165941,77.6690437,Appartments,kasturi_nagar,3.357811877042691,2.0082382869287527,8,9,8,541
Sangau property management,13.0073917,77.6575463,Appartments,kasturi_nagar,2.830097559260447,1.2310432501545707,5,6,6,371
Ullasa,13.0038019,77.6615479,Appartments,kasturi_nagar,3.418360078195691,1.8153036341753066,8,9,8,538
Kasturi Nagar,13.0060924,77.6594498,Appartments,kasturi_nagar,3.0773397676794794,1.4739443622742585,6,7,6,421
Bhargav bro veedu,13.0105163,77.6544289,Appartments,kasturi_nagar,2.3455828259518268,0.7507978594180296,3,4,4,224
Grand comfort kasturi Nagar,13.0059007,77.6574555,Appartments,kasturi_nagar,2.9458910559440628,1.3596685073004686,7,8,7,450
B Channasandra,13.0085242,77.6607711,Appartments,kasturi_nagar,2.999128787902136,1.3936253341142526,7,8,8,500
Gannabhavanam,13.0055185,77.6564254,Appartments,kasturi_nagar,2.9064494947164077,1.338427743099886,7,8,7,476
ALOKI GROUP,13.0069278,77.6592718,Appartments,kasturi_nagar,2.998025780175248,1.3920061296772401,6,7,6,400
Tansan Infrastructure Private Limited,13.0045075,77.6621307,Appartments,kasturi_nagar,3.407674646223385,1.800569333214863,8,9,8,554
Doctors Layout,13.0058618,77.6568339,Appartments,kasturi_nagar,2.905248421271153,1.327314214199889,7,7,7,449
Hazarath mawayya,13.0025837,77.6643562,Appartments,kasturi_nagar,3.7297283191294692,2.122210210728003,8,9,9,556
Hotel Prince Service Apartment,13.0096613,77.6667066,Appartments,kasturi_nagar,3.449194034627989,1.894241328900505,8,9,8,513
Presidency School,13.0071767,77.6594274,Appartments,kasturi_nagar,2.9908188430088245,1.3835965260949232,6,7,7,442
Bharat Financial Inclusion Ltd.,13.0036874,77.6593972,Appartments,kasturi_nagar,3.2696350457775853,1.6815150532691812,7,8,7,493
Shivling Temple,13.007632,77.6585055,Appartments,kasturi_nagar,2.8839271212623787,1.2781426962255757,5,6,6,374
Hyderabad Irani Tea,12.9996235,77.6622836,Appartments,kasturi_nagar,3.8161751677453113,2.231055100003112,8,9,8,560
Ambadas Home Studio NGEF Layout Kasturi Nagar - Top Home Interior Designers,13.0029844,77.6630178,Appartments,kasturi_nagar,3.5949503768232285,1.9894880184265489,9,11,10,680
MSI%F0%9F%87%AE%F0%9F%87%B3 Painting Concepts%F0%9F%87%AE%F0%9F%87%B3 Bangalore,13.0036946,77.6653681,Appartments,kasturi_nagar,3.7268400987186037,2.118698373499789,9,9,9,569
East of NGEF Layout,13.005025,77.6614869,Appartments,kasturi_nagar,3.317543909620933,1.7106905673825543,7,9,8,517
S A ENERGY SOLUTIONS,13.008579,77.6598402,Appartments,kasturi_nagar,2.9184639147328775,1.3107277180165622,7,8,7,465
House Name Plate India,13.0097457,77.6621968,Appartments,kasturi_nagar,3.037314197953861,1.448896624823003,7,8,7,471
The Raymond Shop,13.0116781,77.6701837,Appartments,kasturi_nagar,3.674363020270566,2.1866639150591145,8,9,8,563
Customer Centria,13.0184739,77.6576385,office,muniswamy_reddy_layout,2.1249779385095695,0.816156319845277,3,4,3,231
Sub Registrar Office,13.0144612,77.6477867,office,muniswamy_reddy_layout,1.5479216508653997,0.3464595096706986,1,1,1,70
"Entraine Business Services Pvt, Ltd",13.0138128,77.6604372,office,muniswamy_reddy_layout,2.629228884843749,1.1044088310832934,4,5,4,292
Horamavu Ladies PG,13.0201968,77.657233,pg,muni_swamy_reddy_layout,2.0170878576132774,0.8594072668886182,4,4,4,254
Vivek PG Gents,13.0230947,77.6602507,pg,muni_swamy_reddy_layout,2.2649147011899293,1.311363540760968,5,6,6,373
Nirvi Ladies PG,13.019112,77.6598063,pg,muni_swamy_reddy_layout,2.3197087573768913,1.0613595168684804,5,5,5,318
Nalini PG,13.0217652,77.6603098,pg,muni_swamy_reddy_layout,2.2956995046627204,1.2347965255762379,5,6,5,351
Shankar Reddy pg,13.0158994,77.6673806,pg,muni_swamy_reddy_layout,3.2124519297831617,1.8273951385757672,7,8,8,508
PEDDA PEERAIAH PG FOR GENTS - IN RAMAMURTHY NAGAR,13.0152468,77.6660686,pg,muni_swamy_reddy_layout,3.106100965652136,1.6877308504496813,7,8,7,468
Shanthi Ladies PG,13.022054,77.657822,pg,muni_swamy_reddy_layout,2.0252436979885573,1.0329065004143558,4,5,4,290
Gravity PG Service,13.0118651,77.6681219,pg,muni_swamy_reddy_layout,3.4644459112010266,1.9645419640584756,7,9,8,512
Sai Ganesh New Luxury PG for Ladies,13.0144686,77.6641423,pg,muni_swamy_reddy_layout,2.9500159173454867,1.4873865444837453,6,7,7,434
Br pg For Men,13.0130191,77.6638231,pg,muni_swamy_reddy_layout,2.9920632684606314,1.481698852783622,6,7,6,400
New balaji boys pg,13.0244859,77.6569746,pg,muni_swamy_reddy_layout,1.8954186598479608,1.1669905630709543,5,6,5,374
KAJAMUGAM PG for MENS,13.024431,77.6589606,pg,muni_swamy_reddy_layout,2.1104134257954836,1.3030612807244546,5,6,5,333
Sai ganesh new luxury pg for gents,13.0139905,77.6641948,pg,muni_swamy_reddy_layout,2.978262561659831,1.5003738162341085,6,7,6,414
Reddy PG for Mens,13.0159193,77.6673602,pg,muni_swamy_reddy_layout,3.2096163736089625,1.8251610419740771,7,8,8,509
Anjanadri pg,13.0238466,77.6509099,pg,muni_swamy_reddy_layout,1.2520164549806685,0.8637936786903124,5,6,5,355
Lotus comforts Girls P.G,13.0178245,77.6596438,pg,muni_swamy_reddy_layout,2.353348304959618,1.007753953277745,4,5,4,278
Shri Balaji pg for Gents,13.0180732,77.6654921,pg,muni_swamy_reddy_layout,2.941439916705396,1.6376186292160104,9,9,9,563
Sri Sai Balaji Luxury new Pg for Men,13.0226171,77.6561347,pg,muni_swamy_reddy_layout,1.8335962977494469,0.947557233122045,4,5,5,311
Sri NKS PG,13.0062216,77.6543349,pg,muni_swamy_reddy_layout,2.7060698084441825,1.1725767074437141,7,8,7,495
Sri Manjunatha Luxury PG for Gents,13.022995,77.6482427,pg,muni_swamy_reddy_layout,0.9946649181305702,0.8064968811400912,6,7,6,395
Sri Sai Datta PG,13.0066457,77.6507773,pg,muni_swamy_reddy_layout,2.455978532916978,1.0503130450765616,5,6,5,339
Chandru's Paying Guest,12.9957125,77.6577143,pg,muni_swamy_reddy_layout,3.8847177812768505,2.3961770767964023,15,17,15,1004
New Boys Pg,13.0171662,77.6525588,pg,muni_swamy_reddy_layout,1.7083111144319094,0.2518770525286601,2,2,2,134
"Ujwala Ladies PG %7C Kalyan Nagar, Bengaluru",13.0188171,77.6479406,pg,muni_swamy_reddy_layout,1.1986580974445575,0.412110929891284,3,3,3,199
Upasana ladies pg,13.030813,77.635749,pg,muni_swamy_reddy_layout,0.6897416248000007,2.2890217966532207,9,10,9,598
SS Stays Aura PG for Men,13.0236317,77.6489612,pg,muni_swamy_reddy_layout,1.050133927813708,0.8555398609853768,6,7,7,431
Durganjali PG,13.0075008,77.6554466,pg,muni_swamy_reddy_layout,2.66903350158215,1.0942045737587167,6,6,6,353
Aashirwad Paying Guest Luxury PG For Women %E2%80%93 Lokhande%E2%80%99s Hospital,13.0198063,77.6498413,pg,muni_swamy_reddy_layout,1.3019218723993204,0.4198452651657039,4,4,4,240
Ss stays all new posh pg for men,13.0248005,77.6509267,pg,muni_swamy_reddy_layout,1.2396101832232482,0.9698284075986652,6,7,6,398
New Boys Pg,13.0171662,77.6525588,pg,muni_swamy_reddy_layout,1.7083111144319094,0.2518770525286601,2,2,2,134
Sri Manjunatha Luxury PG for Gents,13.022995,77.6482427,pg,muni_swamy_reddy_layout,0.9946649181305702,0.8064968811400912,6,7,6,395
Sri Lakshmi Venkata Ramana PG For GENTS,13.0203998,77.653878,pg,muni_swamy_reddy_layout,1.667053020606814,0.6022368177866235,4,4,4,248
Jolly Girls and Ladies PG,13.027711,77.6317361,pg,muni_swamy_reddy_layout,0.8702879284784012,2.4101668727811036,8,8,8,499
Shirdi Sai Paying Guest,13.0225905,77.6495877,pg,muni_swamy_reddy_layout,1.1471266586746482,0.7299907830387549,5,6,5,351
Vikyath Ladies Paying Guest,13.0257464,77.6411865,pg,muni_swamy_reddy_layout,0.17938588353589693,1.4746493191542833,6,6,7,388
Sri Venkateswara PG for Gents,13.0164362,77.6494059,pg,muni_swamy_reddy_layout,1.4945984973872322,0.12616265357795023,1,1,1,50
SANJANA RITHVIK GENTS PG,13.0018258,77.6652363,pg,muni_swamy_reddy_layout,3.856879147106691,2.2492353405930934,9,10,9,611
Sri NKS PG,13.0062216,77.6543349,pg,muni_swamy_reddy_layout,2.7060698084441825,1.1725767074437141,7,8,7,495
REHOBOTH GIRLS PG,13.006504,77.6497429,pg,muni_swamy_reddy_layout,2.4163604476883105,1.0689536929012782,4,5,5,315
Ganga pg,13.0083891,77.6462304,pg,muni_swamy_reddy_layout,2.070033005766468,0.9737802888878021,4,4,4,240
Nagaraju PG FOR CDAC students,12.996736,77.6571212,pg,muni_swamy_reddy_layout,3.754042033524264,2.2677728782358053,15,17,16,1007
Campus pg,13.0060924,77.6594498,pg,muni_swamy_reddy_layout,3.0773397676794794,1.4739443622742585,6,7,6,421
Home Town Paying Guest,13.0161314,77.6367274,pg,muni_swamy_reddy_layout,1.1198051657004184,1.4936438288698088,6,8,7,451
Sai Vinayaka Ladies PG,13.0057438,77.6538547,pg,muni_swamy_reddy_layout,2.719025727342546,1.2058066335251683,6,7,6,407
MD PG %5B PG For Girls Only %5D,13.0169806,77.6473562,pg,muni_swamy_reddy_layout,1.2982198358550603,0.35624018310667643,2,2,2,126
Habitat 15 ladies PG 2,13.0172038,77.6403936,pg,muni_swamy_reddy_layout,0.96306206569628,1.1034431700400138,4,5,5,303
Samhita pg homes,13.0259055,77.6359278,pg,muni_swamy_reddy_layout,0.39062245171653814,1.9206441520422515,7,8,7,455
Janapada ladies PG,13.0150486,77.6485956,pg,muni_swamy_reddy_layout,1.5490898018638244,0.23782391896949606,2,2,2,111
Sri Sai Datta PG,13.0066457,77.6507773,pg,muni_swamy_reddy_layout,2.455978532916978,1.0503130450765616,5,6,5,339
Habitat 15 ladies pg,13.0172037,77.6403778,pg,muni_swamy_reddy_layout,0.9629088475819515,1.1051428202350742,4,5,5,304
Shalom ladies PG,13.0209831,77.6447307,pg,muni_swamy_reddy_layout,0.7790298705605017,0.8299839148809937,4,5,4,270
SS STAYS SPRING PG FOR MEN,13.030239,77.6335534,pg,muni_swamy_reddy_layout,0.8127518766129069,2.4191369401510183,9,9,9,556
Chandru's Paying Guest,12.9957125,77.6577143,pg,muni_swamy_reddy_layout,3.8847177812768505,2.3961770767964023,15,17,15,1004
SHAMIYANA LADIES PG,13.0199716,77.6401485,pg,muni_swamy_reddy_layout,0.6541801995116671,1.203163937377202,5,6,6,361
My pg,13.0156153,77.6670466,pg,muni_swamy_reddy_layout,3.1896015674108833,1.791861761581244,7,8,8,495
Slv Pg For Gents,13.0276279,77.6396547,pg,muni_swamy_reddy_layout,0.20101077419845534,1.7408798396890777,8,8,8,488
King%E2%80%99s PG,13.0201502,77.6556242,pg,muni_swamy_reddy_layout,1.8539429624465533,0.7145043974987467,3,4,4,229
Shakthi ladies pg,13.0111279,77.6442457,pg,muni_swamy_reddy_layout,1.7120593085945874,0.87486718356902,4,4,4,262
RMR Stays Gents Pg,13.0323486,77.6363928,pg,muni_swamy_reddy_layout,0.8012705340293632,2.368471861434814,9,10,9,607
Harsha Ladies Pg,13.0065809,77.6473971,pg,muni_swamy_reddy_layout,2.3031446822188077,1.1097627996478263,5,6,5,336
Sri Venkateshwara Gents Pg Near Cmr College Banaswadi,13.0053512,77.6519735,pg,muni_swamy_reddy_layout,2.6455680746392254,1.2042912143661522,5,6,5,338
Royal Girls PG,13.0279859,77.6404774,pg,muni_swamy_reddy_layout,0.26126790207165684,1.7124950291523786,10,10,10,612
Kalyannagar pg for gents,13.0277919,77.6399323,pg,muni_swamy_reddy_layout,0.22305493362375967,1.7343405110247248,9,10,10,597
Pg in banasawadi,13.0048536,77.653551,pg,muni_swamy_reddy_layout,2.7827903581489823,1.2917989712969613,5,6,6,377
Vaishnavi Ladies PG,13.0274868,77.6306781,pg,muni_swamy_reddy_layout,0.9768898491021898,2.494909725891914,9,9,9,551
SS Stays Gents pg,13.0318134,77.6344206,pg,muni_swamy_reddy_layout,0.866150703774635,2.469285579084384,9,10,9,599
Sri Venkateshwara PG Hostel for Men,13.0257532,77.6404673,pg,muni_swamy_reddy_layout,0.10157035560732149,1.5296263760653328,8,9,9,530
Habitat Boys PG,13.0172844,77.6402132,pg,muni_swamy_reddy_layout,0.952430207848854,1.1238910162508111,5,5,5,320
Home Like Pg Ruby,13.0317268,77.6369851,pg,muni_swamy_reddy_layout,0.7120108207698722,2.2742480400470195,9,10,9,622
sri sai balaji gents pg,13.0257509,77.642147,pg,muni_swamy_reddy_layout,0.2833493510024088,1.4057700298347378,6,6,7,381
Urban Himalayas Girls PG KalyanNagar,13.0159008,77.6457627,pg,muni_swamy_reddy_layout,1.2934812432420262,0.515189059895371,2,3,3,168
Nancy Dsouza Pg,13.0203913,77.6347851,pg,muni_swamy_reddy_layout,0.7933836116339652,1.7699584305164981,9,10,9,578
"King's Lounge PG, Luxury Living for Gents",13.0201087,77.6556081,pg,muni_swamy_reddy_layout,1.853879946052437,0.7102399606568268,3,4,3,228
Sri Sai Gents PG,13.0323365,77.6362755,pg,muni_swamy_reddy_layout,0.8055371194874104,2.375676348412791,9,10,9,604
Nandini ladies P.G,13.0225011,77.6600031,pg,muni_swamy_reddy_layout,2.2482394426253394,1.2511240523229703,5,6,5,359
Shamiyana Girls pg,13.0198353,77.6342319,pg,muni_swamy_reddy_layout,0.8793267200171976,1.8125286563241605,8,9,9,543
Rishabh ladies PG,13.0324203,77.6367537,pg,muni_swamy_reddy_layout,0.7928417221640509,2.3495647748346995,9,10,9,615
Royal PG,13.0294062,77.6394894,pg,muni_swamy_reddy_layout,0.3983404508503472,1.9025460619695973,10,10,10,611
SS stays aura pg,13.0241085,77.6491873,pg,muni_swamy_reddy_layout,1.063193176785063,0.9033621508476118,6,7,7,448
passing clouds girls . PG,13.0201668,77.6481096,pg,muni_swamy_reddy_layout,1.122106311061011,0.5230441219244865,4,4,4,253
Sruti Pg,13.0259314,77.6360272,pg,muni_swamy_reddy_layout,0.37993656202267667,1.9134398617863921,7,8,7,452
Srushti PG for ladies,13.0086623,77.6431511,pg,muni_swamy_reddy_layout,1.9481573290076417,1.1480922392162598,3,4,3,216
"Paying Guest for senior citizens,PG caretaker for elderly ,Senior Citizen Accommodation in Bangalore",13.0325288,77.6582627,pg,muni_swamy_reddy_layout,2.161709127713139,2.0116573103111244,9,11,10,678
"Direct Admission in MBBS, MD, MS, PG Medical, B.Tech, MBA",13.001818,77.661922,pg,muni_swamy_reddy_layout,3.60683610770068,2.011290217005753,8,10,8,571
Adityashri P.G. Ladies,13.0092163,77.6453094,pg,errappa_reddy_layout,1.9498727937202776,0.9496305563158374,3,3,3,202
Ganga pg,13.0083891,77.6462304,pg,errappa_reddy_layout,2.070033005766468,0.9737802888878021,4,4,4,240
Harsha Ladies Pg,13.0065809,77.6473971,pg,errappa_reddy_layout,2.3031446822188077,1.1097627996478263,5,6,5,336
Sri Venkateshwara Gents Pg Near Cmr College Banaswadi,13.0053512,77.6519735,pg,errappa_reddy_layout,2.6455680746392254,1.2042912143661522,5,6,5,338
Sai Balagi PG for Ladies,13.007952,77.6425817,pg,errappa_reddy_layout,2.0145565467326962,1.2478023644314788,4,4,4,254
St Mary's PG,13.0117816,77.642653,pg,errappa_reddy_layout,1.5976320171015643,0.9770555912244018,3,4,4,262
Shakthi ladies pg,13.0111279,77.6442457,pg,errappa_reddy_layout,1.7120593085945874,0.87486718356902,4,4,4,262
Sri Sai Datta PG,13.0066457,77.6507773,pg,errappa_reddy_layout,2.455978532916978,1.0503130450765616,5,6,5,339
VMK Gents Pg Banaswadi,13.0054184,77.650816,pg,errappa_reddy_layout,2.5773532632014464,1.1868463908693878,5,6,5,335
Sri NKS PG,13.0062216,77.6543349,pg,errappa_reddy_layout,2.7060698084441825,1.1725767074437141,7,8,7,495
Sri Venkateswara PG for Gents,13.0164362,77.6494059,pg,errappa_reddy_layout,1.4945984973872322,0.12616265357795023,1,1,1,50
Marian villa PG for Boys,13.0115846,77.6366058,pg,errappa_reddy_layout,1.6147972659258925,1.5878485812937972,6,8,7,451
Prakash PG,13.0114243,77.6364914,pg,errappa_reddy_layout,1.6347313547369973,1.6052844574574323,7,8,7,461
SAI VISHNU LUXURY PG FOR GENTS,13.0180387,77.6572479,pg,errappa_reddy_layout,2.10541349320528,0.7610808716445947,6,7,6,419
REHOBOTH GIRLS PG,13.006504,77.6497429,pg,errappa_reddy_layout,2.4163604476883105,1.0689536929012782,4,5,5,315
Pg in banasawadi,13.0048536,77.653551,pg,errappa_reddy_layout,2.7827903581489823,1.2917989712969613,5,6,6,377
SS Stays Aura PG for Men,13.0236317,77.6489612,pg,errappa_reddy_layout,1.050133927813708,0.8555398609853768,6,7,7,431
MD PG %5B PG For Girls Only %5D,13.0169806,77.6473562,pg,errappa_reddy_layout,1.2982198358550603,0.35624018310667643,2,2,2,126
New Boys Pg,13.0171662,77.6525588,pg,errappa_reddy_layout,1.7083111144319094,0.2518770525286601,2,2,2,134
Durganjali PG,13.0075008,77.6554466,pg,errappa_reddy_layout,2.66903350158215,1.0942045737587167,6,6,6,353
Durganjali PG,13.0075008,77.6554466,pg,errappa_reddy_layout,2.66903350158215,1.0942045737587167,6,6,6,353
Anjanadri pg,13.0238466,77.6509099,pg,errappa_reddy_layout,1.2520164549806685,0.8637936786903124,5,6,5,355
Comfort Mens Paying Guest at Kammanahalli,13.0146457,77.6356243,pg,errappa_reddy_layout,1.313117376089374,1.621100105443954,6,7,7,437
Sri NKS PG,13.0062216,77.6543349,pg,errappa_reddy_layout,2.7060698084441825,1.1725767074437141,7,8,7,495
Classic Castle PG,13.030973,77.639003,pg,errappa_reddy_layout,0.5754004952725705,2.072363582142914,11,12,11,699
Sri Lakshmi Venkata Ramana PG For GENTS,13.0203998,77.653878,pg,errappa_reddy_layout,1.667053020606814,0.6022368177866235,4,4,4,248
Casabella PG,13.0132655,77.6301121,pg,errappa_reddy_layout,1.7296436886520854,2.2325069931209343,8,11,10,648
Sai Ganesh New Luxury PG for Ladies,13.0144686,77.6641423,pg,errappa_reddy_layout,2.9500159173454867,1.4873865444837453,6,7,7,434
Annapurna ladies pg,13.027366,77.6391614,pg,errappa_reddy_layout,0.17610461223780108,1.7565238256237452,9,10,10,592
Br pg For Men,13.0130191,77.6638231,pg,errappa_reddy_layout,2.9920632684606314,1.481698852783622,6,7,6,400
Sri Sai Balaji Luxury new Pg for Men,13.0226171,77.6561347,pg,errappa_reddy_layout,1.8335962977494469,0.947557233122045,4,5,5,311
MD PG %5B PG For Girls Only %5D,13.0169806,77.6473562,pg,errappa_reddy_layout,1.2982198358550603,0.35624018310667643,2,2,2,126
Sri Lakshmi ganesha luxury pg for ladies,13.0136207,77.6644045,pg,errappa_reddy_layout,3.016931818402096,1.5296588307277394,6,7,7,434
SS STAYS SPRING PG FOR MEN,13.030239,77.6335534,pg,errappa_reddy_layout,0.8127518766129069,2.4191369401510183,9,9,9,556
Pg in banasawadi,13.0048536,77.653551,pg,errappa_reddy_layout,2.7827903581489823,1.2917989712969613,5,6,6,377
Pacific Stay Ladies PG,13.01729,77.6345435,pg,errappa_reddy_layout,1.0920792512975384,1.7353870828003464,7,7,7,449
SS STAYS SPRING PG FOR MEN,13.030239,77.6335534,pg,errappa_reddy_layout,0.8127518766129069,2.4191369401510183,9,9,9,556
Upasana ladies pg,13.030813,77.635749,pg,errappa_reddy_layout,0.6897416248000007,2.2890217966532207,9,10,9,598
Gravity PG Service,13.0118651,77.6681219,pg,errappa_reddy_layout,3.4644459112010266,1.9645419640584756,7,9,8,512
SHAMIYANA LADIES PG,13.0199716,77.6401485,pg,errappa_reddy_layout,0.6541801995116671,1.203163937377202,5,6,6,361
Reddy PG for Mens,13.0159193,77.6673602,pg,errappa_reddy_layout,3.2096163736089625,1.8251610419740771,7,8,8,509
Janapada ladies PG,13.0150486,77.6485956,pg,errappa_reddy_layout,1.5490898018638244,0.23782391896949606,2,2,2,111
Zolo Cygnus Co-Living %7C Redefining PG,13.0206664,77.6558476,pg,errappa_reddy_layout,1.8582071634841817,0.7700964267827594,4,4,4,251
Shamiyana Girls pg,13.0198353,77.6342319,pg,errappa_reddy_layout,0.8793267200171976,1.8125286563241605,8,9,9,543
Sampoorna Men's and Women's PG's,13.0087658,77.6557771,pg,errappa_reddy_layout,2.5874835334496025,0.9939809200429388,5,5,5,320
VMK Gents Pg Banaswadi,13.0054184,77.650816,pg,errappa_reddy_layout,2.5773532632014464,1.1868463908693878,5,6,5,335
Raji Ladies PG,13.0184223,77.6524549,pg,errappa_reddy_layout,1.6239623512776973,0.3340418563961235,2,3,2,151
Sri Venkateshwara PG for Ladies,13.0275215,77.6401478,pg,errappa_reddy_layout,0.20016626001562493,1.696348667263813,10,10,10,614
REHOBOTH GIRLS PG,13.006504,77.6497429,pg,errappa_reddy_layout,2.4163604476883105,1.0689536929012782,4,5,5,315
"Ujwala Ladies PG %7C Kalyan Nagar, Bengaluru",13.0188171,77.6479406,pg,errappa_reddy_layout,1.1986580974445575,0.412110929891284,3,3,3,199
Srinivasa Luxury PG For Gents,13.026656,77.6399587,pg,errappa_reddy_layout,0.10338414791998655,1.6396919163599575,7,8,8,469
RMR Stays Gents Pg,13.0323486,77.6363928,pg,errappa_reddy_layout,0.8012705340293632,2.368471861434814,9,10,9,607
Shirdi Sai Paying Guest,13.0225905,77.6495877,pg,errappa_reddy_layout,1.1471266586746482,0.7299907830387549,5,6,5,351
Green hostel,13.0064947,77.6512132,pg,errappa_reddy_layout,2.494196747449971,1.0694014228789983,5,6,5,337
Sai Vinayaka Ladies PG,13.0057438,77.6538547,pg,errappa_reddy_layout,2.719025727342546,1.2058066335251683,6,7,6,407
Omkareshwara luxury ladies pg,13.0134689,77.6645551,pg,errappa_reddy_layout,3.039106434838266,1.5487982368748285,6,7,7,428
Habitat Boys PG,13.0172844,77.6402132,pg,errappa_reddy_layout,0.952430207848854,1.1238910162508111,5,5,5,320
Sri Venkateshwara PG Hostel for Men,13.0257532,77.6404673,pg,errappa_reddy_layout,0.10157035560732149,1.5296263760653328,8,9,9,530
Urban Himalayas Girls PG KalyanNagar,13.0159008,77.6457627,pg,errappa_reddy_layout,1.2934812432420262,0.515189059895371,2,3,3,168
Habitat 15 ladies PG 2,13.0172038,77.6403936,pg,errappa_reddy_layout,0.96306206569628,1.1034431700400138,4,5,5,303
SRI SAI BALAJI PG FOR GENTS,13.0284387,77.6346571,pg,errappa_reddy_layout,0.6029041779903459,2.199367339002499,9,10,10,574
sri sai mens pg,13.0139538,77.6638836,pg,errappa_reddy_layout,2.949878745970898,1.4677323784619916,6,7,7,417
Campus pg,13.0060924,77.6594498,pg,errappa_reddy_layout,3.0773397676794794,1.4739443622742585,6,7,6,421
Grandma's PG,13.023727,77.648551,pg,errappa_reddy_layout,1.0044489922997986,0.8756524947125434,6,7,6,415
Phoebe Girls Home,13.0192774,77.6296346,pg,errappa_reddy_layout,1.2960514812137647,2.2896760824099474,9,10,10,610
Samhita pg homes,13.0259055,77.6359278,pg,errappa_reddy_layout,0.39062245171653814,1.9206441520422515,7,8,7,455
SS STAYS TRISHUL PLAZA PG FOR MEN,13.0228098,77.6487041,pg,errappa_reddy_layout,1.0486046778169928,0.7727387276491056,5,6,6,378
New Boys Pg,13.0171662,77.6525588,pg,errappa_reddy_layout,1.7083111144319094,0.2518770525286601,2,2,2,134
Royal Girls PG,13.0279859,77.6404774,pg,errappa_reddy_layout,0.26126790207165684,1.7124950291523786,10,10,10,612
Lotus Pg For Boys,13.0187914,77.6602258,pg,errappa_reddy_layout,2.3742872207459413,1.0942345405161682,5,5,5,323
Vaishnavi Ladies PG,13.0274868,77.6306781,pg,errappa_reddy_layout,0.9768898491021898,2.494909725891914,9,9,9,551
Sri balaji PG,13.0165437,77.6654645,pg,errappa_reddy_layout,2.9928901378656816,1.6204788325992985,8,8,8,501
Sai ganesh new luxury pg ladies,13.0134879,77.6641571,pg,errappa_reddy_layout,2.999742123767666,1.5060633028995023,6,7,7,422
Rishabh ladies PG,13.0324203,77.6367537,pg,errappa_reddy_layout,0.7928417221640509,2.3495647748346995,9,10,9,615
New balaji boys pg,13.0244859,77.6569746,pg,errappa_reddy_layout,1.8954186598479608,1.1669905630709543,5,6,5,374
Aashirwad Paying Guest Luxury PG For Women %E2%80%93 Lokhande%E2%80%99s Hospital,13.0198063,77.6498413,pg,errappa_reddy_layout,1.3019218723993204,0.4198452651657039,4,4,4,240
SS Stays Blossom - Women PG,13.026108,77.63229,pg,errappa_reddy_layout,0.7852489718849744,2.2670271284955112,8,8,8,503
Shanthi Ladies PG,13.022054,77.657822,pg,errappa_reddy_layout,2.0252436979885573,1.0329065004143558,4,5,4,290
Shalu Ladies PG,13.013849,77.6648026,pg,errappa_reddy_layout,3.0443233523542723,1.5678767842012864,7,7,7,445
KAJAMUGAM PG for MENS,13.024431,77.6589606,pg,errappa_reddy_layout,2.1104134257954836,1.3030612807244546,5,6,5,333
SS stays aura pg,13.0241085,77.6491873,pg,errappa_reddy_layout,1.063193176785063,0.9033621508476118,6,7,7,448
Shri Balaji pg for Gents,13.0180732,77.6654921,pg,errappa_reddy_layout,2.941439916705396,1.6376186292160104,9,9,9,563
S.L.R Men's PG,13.027579,77.6475064,pg,errappa_reddy_layout,0.8856001386099641,1.318648619079667,9,10,10,619
Srushti PG for ladies,13.0086623,77.6431511,pg,errappa_reddy_layout,1.9481573290076417,1.1480922392162598,3,4,3,216
Savi PG For Girls,13.0091504,77.6588746,pg,errappa_reddy_layout,2.7979321674188937,1.1897431008316244,6,7,7,434
Thehive PG,13.0202188,77.639581,pg,errappa_reddy_layout,0.6233027627861498,1.2704190665769226,6,7,6,397
Shalom ladies PG,13.0209831,77.6447307,pg,errappa_reddy_layout,0.7790298705605017,0.8299839148809937,4,5,4,270
The Arch PG,13.0280047,77.6399711,pg,errappa_reddy_layout,0.24708352087274799,1.7494186028957006,9,10,10,593
Nancy Dsouza Pg,13.0203913,77.6347851,pg,errappa_reddy_layout,0.7933836116339652,1.7699584305164981,9,10,9,578
King%E2%80%99s PG,13.0201502,77.6556242,pg,errappa_reddy_layout,1.8539429624465533,0.7145043974987467,3,4,4,229
Bethel ladies PG,13.02131,77.6384377,pg,errappa_reddy_layout,0.5157684269198524,1.431401918574281,8,9,9,552
OMG PG KASTURINAGAR,13.006623,77.6565878,pg,errappa_reddy_layout,2.82358331582229,1.2412233639723709,6,7,6,432
Sruti Pg,13.0259314,77.6360272,pg,errappa_reddy_layout,0.37993656202267667,1.9134398617863921,7,8,7,452
Isthara Shared Living,13.0262983,77.6326068,pg,errappa_reddy_layout,0.7521442977213358,2.2478136955929933,8,9,8,517
passing clouds girls . PG,13.0201668,77.6481096,pg,errappa_reddy_layout,1.122106311061011,0.5230441219244865,4,4,4,253
PG India,13.0203133,77.6433891,pg,errappa_reddy_layout,0.741650903946294,0.9036611287689336,6,7,7,427
UNNATI BOYS HOSTEL,12.9979585,77.6535324,pg,errappa_reddy_layout,3.4498277238054254,2.042248985341202,17,18,16,1076
PG METRICS,13.0082214,77.6389844,pg,errappa_reddy_layout,1.958233225604683,1.5249494962908248,5,6,5,350
Bhagini,13.013121,77.6636574,pg,errappa_reddy_layout,2.9708826236885195,1.4616361460860015,6,7,6,407
Digital Marketing and E-commerce PG Programme in Bangalore,13.0186259,77.631122,pg,errappa_reddy_layout,1.212790684259323,2.1197739352368727,8,9,9,543
Dolphin plaza,13.0192216,77.6375977,pg,errappa_reddy_layout,0.7635019742835364,1.4420724482574652,7,8,8,493
Sri Sai Stays,13.023763,77.6491212,pg,errappa_reddy_layout,1.0637604655436603,0.8666736045266794,6,7,7,440
Damsel Dwelling,13.011327,77.6488633,pg,errappa_reddy_layout,1.9027369714675695,0.5587863865419754,3,4,3,215
THE COMFORT INN,13.0135574,77.6403604,pg,errappa_reddy_layout,1.3669408904059248,1.1354658635366166,4,5,5,305
"Yuwati Sharan, Religious Of Mary Immaculate",13.0178146,77.6380554,pg,errappa_reddy_layout,0.9048789688742762,1.3633458549248274,6,7,6,392
Colive Premerio Towers,13.00415,77.660362,pg,errappa_reddy_layout,3.3016271894394187,1.7030559337226907,7,8,7,478
"OMBR Layout, Banaswadi",13.0107168,77.6474043,pg,errappa_reddy_layout,1.8839290460484865,0.6857211853107926,2,3,2,156
INDO ASIAN ACADEMY CO-ED DEGREE College %26 PG CENTRE,13.0270437,77.6358427,pg,errappa_reddy_layout,0.42211381070174464,2.0026060543047977,8,8,9,507
Bumble Bee,13.0228143,77.6507811,pg,errappa_reddy_layout,1.2637268153890466,0.7485012991584074,5,6,5,333
Banaswadi Fire Station,13.011526,77.6459584,pg,errappa_reddy_layout,1.7356103242750711,0.7077614546070358,4,5,5,284
Amazon P%26G Distributions,13.004671,77.6555307,pg,errappa_reddy_layout,2.921728700363813,1.3809490707937557,6,7,6,413
MG Caterers,13.013524,77.6585507,pg,errappa_reddy_layout,2.4729965991143614,0.9161515451378223,5,6,5,347
Sri L.V Nest,13.0077951,77.6558516,pg,errappa_reddy_layout,2.672952894777591,1.088430003870151,5,6,5,361
Vishnu Nivas,13.0163074,77.6602557,pg,errappa_reddy_layout,2.481956082026326,1.0556576164892408,5,6,6,358
Bombay Ladies Tailor,13.014949,77.657505,pg,errappa_reddy_layout,2.292023180786942,0.7678866852199608,3,4,4,232
CMR University OMBR Campus,13.0059177,77.6503747,pg,errappa_reddy_layout,2.505848665575208,1.1309771917530027,4,5,4,308
CMR Institute Of Management Studies,13.0061655,77.6509013,pg,errappa_reddy_layout,2.5090504878042355,1.104118842058041,5,6,5,348
Empire Restaurant %7C Kammanahalli,13.0146538,77.6355807,pg,errappa_reddy_layout,1.3137964802441757,1.625711939327961,6,7,6,432
Indian School of Business Management,13.0140534,77.6374291,pg,errappa_reddy_layout,1.3285328180149933,1.4355583953805795,5,6,6,360
DMart,13.0334862,77.6373028,pg,errappa_reddy_layout,0.8855697985177601,2.406484795206749,10,11,10,665
DigiSavera,13.030863,77.6355582,OFFICE,HBR_LAYOUT,0.7066219559325329,2.3074689432664517,9,10,9,605
Paramount Consultancy Services,13.0316783,77.6341263,OFFICE,HBR_LAYOUT,0.8756496425947712,2.4813814843877826,9,10,9,606
BAJARANGI TRADERS,13.0307925,77.6333562,OFFICE,HBR_LAYOUT,0.8677055699968629,2.4756131111178146,9,10,9,570
IWEEN SOFTWARE SOLUTIONS PVT LTD,13.0316703,77.6357485,OFFICE,HBR_LAYOUT,0.7685304836774418,2.358186446992969,9,10,9,585
CG Curves Animation Studio,13.0314545,77.6355338,OFFICE,HBR_LAYOUT,0.7613327083311561,2.3565697834056536,9,10,9,577
F R S Computer Service,13.0308139,77.633356,OFFICE,HBR_LAYOUT,0.8692392233523215,2.477201601804992,9,10,9,571
Skytech Consultancy,13.0326316,77.6383406,OFFICE,HBR_LAYOUT,0.7678964131691806,2.263478802273603,11,12,12,690
District Court Complex,13.0320732,77.6361823,OFFICE,HBR_LAYOUT,0.7839462073546787,2.360117279418463,9,10,9,596
HOLO Space Design Pvt Ltd,13.0210032,77.628726,OFFICE,HBR_LAYOUT,1.2876192389786194,2.422919866939472,10,11,10,631
Reyansh Manpower %26 IT Solutions Pvt Ltd,13.0316128,77.63567,OFFICE,HBR_LAYOUT,0.7677316705313932,2.3592812541315746,9,10,9,577
Hitachi Lift India Pvt. Lltd.,13.0277782,77.6324487,OFFICE,HBR_LAYOUT,0.7975874125251357,2.3494962356968236,7,8,7,462
Bajaj Finserv,13.0277362,77.6322344,OFFICE,HBR_LAYOUT,0.818724375433878,2.366310928499748,8,8,7,478
Colours Magic %7C House Appartment Office Painting Services,13.0231559,77.6371446,OFFICE,HBR_LAYOUT,0.3936363227180757,1.6479054027624234,7,9,8,541
Vaibhav Vocational Training Solutions Pvt Ltd,13.0315903,77.6356636,OFFICE,HBR_LAYOUT,0.7660144228732891,2.357924301663594,9,10,9,576
VENKATESHWARA HATCHERIES PVT LTD NEW OFFICE,13.0198213,77.6285507,OFFICE,HBR_LAYOUT,1.3641732133228819,2.4154086439540348,10,11,10,651
Studio Stones,13.0277782,77.6324487,OFFICE,HBR_LAYOUT,0.7975874125251357,2.3494962356968236,7,8,7,462
DISHTHI SOFTWARE AND SERVICES,13.0314229,77.6369177,OFFICE,HBR_LAYOUT,0.6839778299967793,2.253281803817,9,10,9,620
Shridhar Tent House (Corporate Office),13.0231599,77.6292247,OFFICE,HBR_LAYOUT,1.1553232613102769,2.436802722190118,10,12,11,714
DTDC,13.0312895,77.6358932,OFFICE,HBR_LAYOUT,0.7244128411996269,2.316505844043765,9,10,9,585
www.divorcebylaw.com,13.0317575,77.6377826,OFFICE,HBR_LAYOUT,0.6864625772443281,2.2222271743586712,10,11,10,651
WisdomToolz Learning Solutions,13.0315743,77.6370955,OFFICE,HBR_LAYOUT,0.691757871834507,2.2535750462248942,9,10,9,628
Endurance Events And Media,13.026547,77.632219,OFFICE,HBR_LAYOUT,0.7963723987820414,2.2980419556935305,8,8,8,492
Secondcry.com C%2Fo Priceless Parenting Pvt. Ltd.,13.0333238,77.6371888,OFFICE,HBR_LAYOUT,0.8717271903187476,2.39940215203068,10,11,10,669
Binu's Academy %2F Careerdalal.com,13.0336042,77.6360856,OFFICE,HBR_LAYOUT,0.9422607052072087,2.4973902505884205,10,12,10,705
Olives Furniture,13.0326099,77.637571,OFFICE,HBR_LAYOUT,0.7839006157642362,2.311131193208687,11,12,12,714
Kalyana Nagar Post Office,13.0171932,77.6509907,OFFICE,HBR_LAYOUT,1.569056749876575,0.13330532098741962,2,2,2,108
UHP Technologies Pvt Ltd,13.0291394,77.6327544,OFFICE,HBR_LAYOUT,0.821642021071734,2.40997687151644,11,12,11,698
S.S.R WEIGHING SOLUTIONS PVT LTD,13.0335253,77.6379048,OFFICE,HBR_LAYOUT,0.8743042119336002,2.3718303210229257,9,11,10,648
Sierra Cartel Coworking Space,13.0129041,77.6305365,OFFICE,HBR_LAYOUT,1.7360254589176607,2.1931230753162563,8,10,9,624
whirlpool air conditioner customer care bangalore,13.0307925,77.6333562,OFFICE,HBR_LAYOUT,0.8677055699968629,2.4756131111178146,9,10,9,570
Careongo Pharmacy,13.0314781,77.6360215,OFFICE,HBR_LAYOUT,0.7348039458100908,2.322433207045798,9,10,9,585
God Will Fulfill His Willfar,13.028817,77.632533,OFFICE,HBR_LAYOUT,0.8281000437592486,2.407923795864543,11,12,11,691
Life Line's Tender Chicken,13.0320916,77.6355797,OFFICE,HBR_LAYOUT,0.8179654131312484,2.405080713890812,9,10,9,599
Muthoot Finance Ltd,13.0310879,77.6357017,OFFICE,HBR_LAYOUT,0.7175087095880051,2.3145349224380416,9,10,9,594
Plama Heights,13.0338235,77.6364034,OFFICE,HBR_LAYOUT,0.9519005484036214,2.4952144652976505,10,12,10,710
Lapteck Laptop Service Center - Dell Hp Lenovo Acer Toshiba,13.0209723,77.6291694,OFFICE,HBR_LAYOUT,1.2455893930395796,2.3753582303023597,9,11,10,648
All Peoples Church %26 World Outreach Office,13.0208806,77.6430362,OFFICE,HBR_LAYOUT,0.6680059140026238,0.9697129115646521,4,5,5,313
Schindler India Pvt Ltd,13.0333961,77.6376645,OFFICE,HBR_LAYOUT,0.865949173894565,2.3752632796551647,10,11,10,652
Lucky Communications,13.0314752,77.6367723,OFFICE,HBR_LAYOUT,0.6958969939901108,2.267994153785218,9,10,9,615
A1 CAR A%2FC,13.022633,77.6284911,OFFICE,HBR_LAYOUT,1.2476914106862527,2.494440680085617,10,11,10,637
SS Stays Gents pg,13.0318134,77.6344206,PG,HBR_LAYOUT,0.866150703774635,2.469285579084384,9,10,9,599
Balaji Pg 2,13.0301398,77.6333775,PG,HBR_LAYOUT,0.8215271004175919,2.426525333941402,9,9,9,563
Vaishnavi Ladies PG,13.0274868,77.6306781,PG,HBR_LAYOUT,0.9768898491021898,2.494909725891914,9,9,9,551
Elite PG Inn,13.0327337,77.6354292,PG,HBR_LAYOUT,0.8876437068331469,2.4691374471183036,9,10,9,619
Springs PG,13.0303361,77.6335845,PG,HBR_LAYOUT,0.8166575754423705,2.423622826421002,9,9,9,554
PRESTIGE EXECUTIVE PG FOR GENTS,13.0267208,77.6302252,PG,HBR_LAYOUT,1.013218626335601,2.4958384859354976,9,9,9,550
Sunrise Paying Guest,13.0290364,77.6354518,PG,HBR_LAYOUT,0.5683512012208187,2.1761867354215787,10,11,10,678
Upasana ladies pg,13.030813,77.635749,PG,HBR_LAYOUT,0.6897416248000007,2.2890217966532207,9,10,9,598
Pinto Ladies PG,13.0269034,77.6306461,PG,HBR_LAYOUT,0.9701543730595598,2.4656148864851164,9,10,9,574
New Rishab PG,13.0319563,77.6367066,PG,HBR_LAYOUT,0.7474440694219412,2.3132142576019916,9,10,9,620
Jolly Girls and Ladies PG,13.027711,77.6317361,PG,HBR_LAYOUT,0.8702879284784012,2.4101668727811036,8,8,8,499
Rishabh ladies PG,13.0324203,77.6367537,PG,HBR_LAYOUT,0.7928417221640509,2.3495647748346995,9,10,9,615
Samhita pg homes,13.0259055,77.6359278,PG,HBR_LAYOUT,0.39062245171653814,1.9206441520422515,7,8,7,455
SRI SAI BALAJI PG FOR GENTS,13.0284387,77.6346571,PG,HBR_LAYOUT,0.6029041779903459,2.199367339002499,9,10,10,574
Classic Castle PG,13.030973,77.639003,PG,HBR_LAYOUT,0.5754004952725705,2.072363582142914,11,12,11,699
SS Stays Blossom - Women PG,13.026108,77.63229,PG,HBR_LAYOUT,0.7852489718849744,2.2670271284955112,8,8,8,503
Akshaya PG Acommodation,13.0317157,77.6349269,PG,HBR_LAYOUT,0.8234827382709319,2.4230652711702896,9,10,9,614
Kalyannagar pg for gents,13.0277919,77.6399323,PG,HBR_LAYOUT,0.22305493362375967,1.7343405110247248,9,10,10,597
Home Town Paying Guest,13.0161314,77.6367274,PG,HBR_LAYOUT,1.1198051657004184,1.4936438288698088,6,8,7,451
SaiVishnu Luxury PG For Gents,13.0279411,77.6393905,PG,HBR_LAYOUT,0.2359036321896543,1.7858938926977541,9,10,10,576
FF21-HBR,13.0279571,77.6309959,PG,HBR_LAYOUT,0.9547353474043294,2.4926052958486418,8,9,8,522
Srinivasa Luxury PG For Gents,13.026656,77.6399587,PG,HBR_LAYOUT,0.10338414791998655,1.6396919163599575,7,8,8,469
Annapurna ladies pg,13.027366,77.6391614,PG,HBR_LAYOUT,0.17610461223780108,1.7565238256237452,9,10,10,592
Pg in kalyannafar,13.028059,77.6401068,PG,HBR_LAYOUT,0.2561790785155014,1.7444587156129718,9,10,10,606
Royal PG,13.0294062,77.6394894,PG,HBR_LAYOUT,0.3983404508503472,1.9025460619695973,10,10,10,611
Slv Pg For Gents,13.0276279,77.6396547,PG,HBR_LAYOUT,0.20101077419845534,1.7408798396890777,8,8,8,488
Sri Venkateshwara PG Hostel for Men,13.0257532,77.6404673,PG,HBR_LAYOUT,0.10157035560732149,1.5296263760653328,8,9,9,530
Habitat Boys PG,13.0172844,77.6402132,PG,HBR_LAYOUT,0.952430207848854,1.1238910162508111,5,5,5,320
Sri Venkateshwara PG for Ladies,13.0275215,77.6401478,PG,HBR_LAYOUT,0.20016626001562493,1.696348667263813,10,10,10,614
Royal Girls PG,13.0279859,77.6404774,PG,HBR_LAYOUT,0.26126790207165684,1.7124950291523786,10,10,10,612
Habitat 15 ladies pg,13.0172037,77.6403778,PG,HBR_LAYOUT,0.9629088475819515,1.1051428202350742,4,5,5,304
MD PG %5B PG For Girls Only %5D,13.0169806,77.6473562,PG,HBR_LAYOUT,1.2982198358550603,0.35624018310667643,2,2,2,126
The Arch PG,13.0280047,77.6399711,PG,HBR_LAYOUT,0.24708352087274799,1.7494186028957006,9,10,10,593
ZIPYSpaces - Manyata Kalyan Nagar,13.0238152,77.6349899,PG,HBR_LAYOUT,0.5404497968437364,1.8886238895170826,8,9,9,552
New Boys Pg,13.0171662,77.6525588,PG,HBR_LAYOUT,1.7083111144319094,0.2518770525286601,2,2,2,134
S.S.R WEIGHING SOLUTIONS PVT LTD,13.0335253,77.6379048,PG,HBR_LAYOUT,0.8743042119336002,2.3718303210229257,9,11,10,648
Gravity PG Service,13.0118651,77.6681219,PG,HBR_LAYOUT,3.4644459112010266,1.9645419640584756,7,9,8,512
INDO ASIAN ACADEMY CO-ED DEGREE College %26 PG CENTRE,13.0270437,77.6358427,PG,HBR_LAYOUT,0.42211381070174464,2.0026060543047977,8,8,9,507
Byreshwara Layout,13.0330046,77.638783,PG,HBR_LAYOUT,0.8025558871788984,2.2701392371763434,12,12,12,733
Padma Digital Xerox,13.0313579,77.635423,PG,HBR_LAYOUT,0.7594976509119394,2.3571030814065135,9,9,9,565
Egg Bucket,13.0298233,77.6346895,PG,HBR_LAYOUT,0.6877665891963224,2.2960270060307533,9,10,9,615
JR Layout,13.0283762,77.6406737,PG,HBR_LAYOUT,0.3095400316316047,1.7330783680573185,7,8,8,467
Classic apartment,13.0196518,77.6288667,APPARTMENTS,HBR_LAYOUT,1.3439493123825945,2.378478755435201,9,10,10,623
Grace Garden Apartments,13.0292717,77.6342233,APPARTMENTS,HBR_LAYOUT,0.6912176371361405,2.294313765073972,9,10,9,626
Banjara Crest,13.0309807,77.6355715,APPARTMENTS,HBR_LAYOUT,0.7161796172420615,2.3157978869057434,9,10,9,592
Ashirwad Green Apartment,13.0215653,77.6284219,APPARTMENTS,HBR_LAYOUT,1.293475954872574,2.4696912908900175,10,11,10,677
Sai Parmesh Apartment,13.018968,77.6294836,APPARTMENTS,HBR_LAYOUT,1.3290500051629501,2.3007999724620474,9,10,9,598
Anand Apartments,13.0278657,77.6312587,APPARTMENTS,HBR_LAYOUT,0.9246373457162427,2.4630806543574586,8,9,8,514
Rise Quadwest Apartments,13.032076,77.6352216,APPARTMENTS,HBR_LAYOUT,0.83748580410108,2.4300784413913945,9,10,9,629
House no 1312,13.0309049,77.634171,APPARTMENTS,HBR_LAYOUT,0.8102762030408392,2.4185365821969476,9,9,9,564
Krishna apartment Teachers colony HBR layout,13.0244397,77.6293445,APPARTMENTS,HBR_LAYOUT,1.1143983507917747,2.4743371274704353,9,10,9,597
Sree Srinivasa manor,13.0332086,77.636615,APPARTMENTS,HBR_LAYOUT,0.8798509098058401,2.4272482344658384,10,11,10,661
Ananda Bairavi Apartment,13.0242013,77.6310497,APPARTMENTS,HBR_LAYOUT,0.9365322218722789,2.2935957678034273,10,10,9,587
ABC123 5th Cross HBR,13.0292839,77.6356467,APPARTMENTS,HBR_LAYOUT,0.5702790829996012,2.1788367755736373,10,11,10,661
Sri Gayathri Paradise,13.0312576,77.6376209,APPARTMENTS,HBR_LAYOUT,0.6386872564762242,2.1900484351417564,10,11,10,645
Ferns Nest I,13.0340931,77.638913,APPARTMENTS,HBR_LAYOUT,0.9219196689471286,2.363879423541025,10,12,10,692
Elegant Habitat,13.0332684,77.6379461,APPARTMENTS,HBR_LAYOUT,0.8454240031521258,2.345936250386647,10,12,10,702
Shalom,13.0323711,77.6356165,APPARTMENTS,HBR_LAYOUT,0.8425874610173719,2.425511076973293,9,10,9,607
Aiswariya,13.0319076,77.6369899,APPARTMENTS,HBR_LAYOUT,0.7303885910989636,2.289323788252582,9,10,9,626
Studio Apartment,13.0286154,77.6394699,APPARTMENTS,HBR_LAYOUT,0.31045416075832394,1.83630709645748,9,11,10,644
Lifestyle Apartment,13.0224083,77.6292438,APPARTMENTS,HBR_LAYOUT,1.1775653235612613,2.4091547660283736,9,10,9,603
Plama Heights,13.0338235,77.6364034,APPARTMENTS,HBR_LAYOUT,0.9519005484036214,2.4952144652976505,10,12,10,710
Jasper Apartments,13.0345277,77.637883,APPARTMENTS,HBR_LAYOUT,0.9841584594234489,2.465094742848985,10,12,10,708
Regency Magnum,13.0298596,77.6353197,APPARTMENTS,HBR_LAYOUT,0.6400398347481242,2.2482564121676814,9,10,9,617
Tulips apartments,13.0328692,77.6398307,APPARTMENTS,HBR_LAYOUT,0.7840471036186398,2.1957921007462757,10,11,10,656
Sai Excellency Apartments,13.0310113,77.638736,APPARTMENTS,HBR_LAYOUT,0.5832116696685645,2.09327181595055,11,12,11,697
SLV Arcade,13.0336977,77.6384647,APPARTMENTS,HBR_LAYOUT,0.8831164490154056,2.353348080275403,10,12,10,690
Mundra residence,13.031896,77.6349749,APPARTMENTS,HBR_LAYOUT,0.836440006628963,2.4338833032134195,10,11,10,640
Pratiksha Apartments,13.0320251,77.6428318,APPARTMENTS,HBR_LAYOUT,0.776650358925214,1.957842537138568,9,10,9,587
Griha Prakriti Apartment,13.0340658,77.6384262,APPARTMENTS,HBR_LAYOUT,0.9242418130693859,2.3897953847670035,10,11,10,660
Colarado Apartments,13.0314238,77.6365779,APPARTMENTS,HBR_LAYOUT,0.7001148945806899,2.277591272150413,9,10,9,610
BMR Complex,13.0316083,77.635695,APPARTMENTS,HBR_LAYOUT,0.7658386270412614,2.357069618607834,9,10,9,578
Golden Castle Apartments,13.0244638,77.6365585,APPARTMENTS,HBR_LAYOUT,0.3559308084692878,1.7757527498815064,8,8,8,481
Nagaraj building,13.0315128,77.6374341,APPARTMENTS,HBR_LAYOUT,0.6721662768141495,2.2248125506199514,10,11,10,641
Mantri Astra Complex,13.0346382,77.6416207,APPARTMENTS,HBR_LAYOUT,1.0058528258805348,2.2766230730790866,11,11,11,681
Karthik illam,13.0323068,77.6391836,APPARTMENTS,HBR_LAYOUT,0.721836057831367,2.181563842542858,11,12,11,696
R%26S Woodside Apartments,13.0338383,77.6380728,APPARTMENTS,HBR_LAYOUT,0.9050633678915744,2.390054864133367,10,11,10,659
Elegant Berkley,13.0290116,77.6334926,APPARTMENTS,HBR_LAYOUT,0.7441570169756777,2.337862777305537,8,8,8,499
Sai Sannidhi Apartments,13.0275179,77.6374661,APPARTMENTS,HBR_LAYOUT,0.2925569675601955,1.9009288780930942,9,9,9,546
Kalyan Apartments,13.0273248,77.6372114,APPARTMENTS,HBR_LAYOUT,0.3017913111755668,1.907402649201459,8,8,9,498
Daffodils Apartments,13.029678,77.6377362,APPARTMENTS,HBR_LAYOUT,0.47065285738378226,2.049362357785343,11,12,11,707
13%2F12 poornanajaneya,13.0321069,77.638508,APPARTMENTS,HBR_LAYOUT,0.7073796548510095,2.205579681018458,11,11,11,684
Classic Royale Garden,13.0347001,77.6385132,APPARTMENTS,HBR_LAYOUT,0.9931272430242465,2.4440717522810247,10,11,10,677
Jain Heights Apartments,13.0327859,77.6374043,APPARTMENTS,HBR_LAYOUT,0.8077239004921866,2.337645926819593,10,12,10,716
Rishabh ladies PG,13.0324203,77.6367537,APPARTMENTS,HBR_LAYOUT,0.7928417221640509,2.3495647748346995,9,10,9,615
Suravi Apartment,13.0278899,77.6352072,APPARTMENTS,HBR_LAYOUT,0.5218562242660473,2.1147407362546145,9,9,8,547
Sai Gurukrupa,13.0305547,77.6390784,APPARTMENTS,HBR_LAYOUT,0.5283164879355295,2.0304134474459206,10,11,10,680
Golden Valley Breeze Apartment,13.0261854,77.6418319,APPARTMENTS,HBR_LAYOUT,0.2523153418653492,1.4647185145475794,7,7,7,414
Silver Summit,13.0303609,77.6369637,APPARTMENTS,HBR_LAYOUT,0.5761400698778122,2.1619092014943027,10,11,10,653
Prasham Apartment,13.0213092,77.6437648,APPARTMENTS,HBR_LAYOUT,0.6798964193703331,0.9336723482842839,4,5,5,302
Elegant Mount Sinai,13.0351106,77.6395755,APPARTMENTS,HBR_LAYOUT,1.0326247022409663,2.4245625285220496,11,12,11,735
Hill View Apartment,13.0223071,77.6508045,APPARTMENTS,HBR_LAYOUT,1.2822340109581933,0.6922592212976832,5,5,5,321
Apartment%2316,13.0117404,77.6318079,APPARTMENTS,HBR_LAYOUT,1.7756173313089851,2.0834820864562054,8,11,9,632
Ssr Chambers,13.0311152,77.6374009,APPARTMENTS,HBR_LAYOUT,0.6320429496522016,2.193238564199067,10,11,10,647
Spring Serenity Apartment,13.0333517,77.6380562,APPARTMENTS,HBR_LAYOUT,0.8521763521389882,2.3466048226278895,10,12,10,699
YAYA ZIRCON APARTMENT,13.0109265,77.630646,APPARTMENTS,HBR_LAYOUT,1.9159846812947905,2.227704881495379,9,11,10,684
SLV Howell Apartment,13.0293212,77.6388795,APPARTMENTS,HBR_LAYOUT,0.3952448502753502,1.9375180474417437,9,10,10,591
Charming Height Apartment,13.0168287,77.6523563,APPARTMENTS,HBR_LAYOUT,1.7118876104699452,0.2159011273957309,3,3,3,189
Visherya Heights Apartment,13.0066539,77.644506,APPARTMENTS,HBR_LAYOUT,2.198674424937535,1.2345608308084215,5,5,5,322
Bairavi Cruz Luxor Apartment,13.0274719,77.6381095,APPARTMENTS,HBR_LAYOUT,0.23945669359045924,1.8461724316208243,9,10,9,574
Baigs Platinum Apartments,13.0014097,77.6376346,APPARTMENTS,HBR_LAYOUT,2.722536165635841,2.1473273290742774,12,9,7,537
PLATINUM CASTLE APARTMENT,13.0104832,77.651628,APPARTMENTS,HBR_LAYOUT,2.1510401349550348,0.634789630493302,3,4,4,214
PLR Homes,13.0052565,77.6504529,APPARTMENTS,HBR_LAYOUT,2.574906413823903,1.204416702496156,5,5,5,327
Apartment,13.0062748,77.6497352,APPARTMENTS,HBR_LAYOUT,2.4386689707486333,1.0944274459556347,4,5,5,308
Oakwood Apartment,13.0307757,77.6651108,APPARTMENTS,HBR_LAYOUT,2.825134578098963,2.273313901324945,8,10,8,592
Reliance Smart Point,13.0316596,77.6356888,APPARTMENTS,HBR_LAYOUT,0.7709980318537782,2.361705994042665,9,10,9,585
Haripriya Apartments,13.0110116,77.6536484,APPARTMENTS,HBR_LAYOUT,2.247559579127836,0.6587210894693145,3,3,3,201
SN Luxor Apartments,13.0075196,77.6538959,APPARTMENTS,HBR_LAYOUT,2.562060807817519,1.0207680276631974,4,5,5,314
JHR Apartments Block 1,13.0167626,77.6687122,APPARTMENTS,HBR_LAYOUT,3.3178964714312356,1.9729615270958463,8,9,8,546
Apartment,13.0025131,77.6598546,APPARTMENTS,HBR_LAYOUT,3.400905627996045,1.8172736079221927,7,9,8,520
FF21-HBR,13.0279571,77.6309959,APPARTMENTS,HBR_LAYOUT,0.9547353474043294,2.4926052958486418,8,9,8,522
Indoasian academy boys hostel 2,13.0283936,77.6357701,APPARTMENTS,HBR_LAYOUT,0.49776669680404717,2.1032666577044066,9,9,9,561
Pride Enterprises,13.0306422,77.6358331,APPARTMENTS,HBR_LAYOUT,0.6690643770281512,2.2690801788388386,9,10,9,618
Tirumalai Nivasam Apartments,13.0114756,77.6517379,APPARTMENTS,HBR_LAYOUT,2.072199832559747,0.5297231388751695,2,3,3,171
nandagokula nilaya comple,13.0313563,77.637068,APPARTMENTS,HBR_LAYOUT,0.6705967602382715,2.2370462024687683,9,10,9,624
Dua Real Estate - Buy Sell Rent Residential %26 Commercial,13.0287796,77.6337836,APPARTMENTS,HBR_LAYOUT,0.7041925180996047,2.2971399511411135,10,11,10,637
Colours Magic %7C House Appartment Office Painting Services,13.0231559,77.6371446,APPARTMENTS,HBR_LAYOUT,0.3936363227180757,1.6479054027624234,7,9,8,541
Axis Bank ATM,13.0309127,77.6354875,APPARTMENTS,HBR_LAYOUT,0.7156758909691154,2.3167823427702547,9,10,9,590
Chanda enterprises,13.0314336,77.636577,APPARTMENTS,HBR_LAYOUT,0.7011287437126902,2.278471865530119,9,10,9,610
Sam Yard,13.031849,77.6359687,APPARTMENTS,HBR_LAYOUT,0.7732266352188263,2.356808143848168,9,10,9,587
Ssv Bangarpet chats,13.0323416,77.6365277,APPARTMENTS,HBR_LAYOUT,0.7944669080178223,2.3584620841309967,9,10,9,608
Schindler Elevators,13.0335271,77.6373158,APPARTMENTS,HBR_LAYOUT,0.8895648586155619,2.409306272379785,10,11,10,665
PRODUCTS %26 SYSTEMS INC.,13.0308659,77.6359591,APPARTMENTS,HBR_LAYOUT,0.6812957293247666,2.277414899349681,9,10,9,605
ATTIRE Nighties and Kids Wear,13.0314248,77.6366031,APPARTMENTS,HBR_LAYOUT,0.6989700598823589,2.2758658033569557,9,10,9,611
VV Gem Apartments,13.0263997,77.6531817,appartment,hornavu_banaswadi,1.48004707871023,1.1824777283932593,7,8,7,465
Sri Krishna Brindavan Platinum Park,13.0249789,77.6541599,appartment,hornavu_banaswadi,1.5874235327978585,1.0646099971445149,6,7,6,421
Durga Meadows,13.0217315,77.655365,appartment,hornavu_banaswadi,1.7745472120641226,0.8185224896049822,4,5,4,278
Valliyathuparampill House,13.0232716,77.6541247,appartment,hornavu_banaswadi,1.6061081758776,0.8894191766187857,6,7,7,447
Shri Balaji Classic Apartment,13.0218309,77.6536864,appartment,hornavu_banaswadi,1.5963479802516685,0.7251951055890432,8,9,8,521
Manoj apartment,13.0214,77.654035,appartment,hornavu_banaswadi,1.6463348968271705,0.7031309388346532,4,5,4,285
Bhavana Enclave,13.0239345,77.6545768,appartment,hornavu_banaswadi,1.6432949716874077,0.9772278492971449,6,7,6,420
Krishna apartment,13.0254166,77.6574844,appartment,hornavu_banaswadi,1.9453217139823111,1.2830492502627175,5,6,6,389
Rosary Appartment,13.0269792,77.6549711,appartment,hornavu_banaswadi,1.67743762061001,1.3037637272087237,7,8,7,488
Pavan Apartment,13.0234584,77.6510745,appartment,hornavu_banaswadi,1.2777596216176548,0.8218081722084928,5,6,5,347
Homely Homes Nandi View Apartment,13.0274851,77.6562908,appartment,hornavu_banaswadi,1.8248497132471853,1.4134077134962393,7,8,8,503
Pristine Apartment,13.0228062,77.6555752,appartment,hornavu_banaswadi,1.770072485091999,0.9266582737961068,5,5,5,318
Sri Sai Krishna Nivas Apartments,13.0225721,77.6569292,appartment,hornavu_banaswadi,1.9190344526404663,1.0014261219698786,4,5,5,311
SLV Temple Tree Apartments,13.0222,77.6545077,appartment,hornavu_banaswadi,1.6716273029434094,0.8056576804937227,5,6,5,335
Kiran Apartment,13.0273665,77.6557601,appartment,hornavu_banaswadi,1.766333104720657,1.376885802106029,7,8,7,488
Varshitha Heights,13.027251,77.655023,appartment,hornavu_banaswadi,1.685618628974696,1.333933110814104,7,8,7,479
Bijith Tower,13.0238091,77.6511841,appartment,hornavu_banaswadi,1.281992915233787,0.8616213815928654,5,6,5,356
Platinum Park,13.0250324,77.6543616,appartment,hornavu_banaswadi,1.6089000679537115,1.07839272107626,6,7,6,418
Skyline Magnolia,13.0246302,77.6544481,appartment,hornavu_banaswadi,1.6213063092561746,1.041090838942997,6,7,6,412
LKY Apartments,13.0218747,77.6532397,appartment,hornavu_banaswadi,1.5485346417688783,0.7079767995718705,7,8,7,485
Vunnam Heights,13.022522,77.654935,appartment,hornavu_banaswadi,1.7085377792974026,0.8609491828502147,5,5,5,316
Sai Nilayam,13.0208718,77.655364,appartment,hornavu_banaswadi,1.8013328694147512,0.7476802267733269,4,4,4,260
Magnolia %23 21,13.0278072,77.6562693,appartment,hornavu_banaswadi,1.8265085317160241,1.444601583238895,7,8,8,499
My new room,13.0242998,77.6569623,appartment,hornavu_banaswadi,1.8958288928836369,1.1496888205887181,5,6,5,369
Enarch Tranquil,13.0233217,77.6535223,appartment,hornavu_banaswadi,1.540901853402331,0.8678722477804529,7,8,7,469
Sai Charita Green Oaks - Block 1,13.0216476,77.6562401,appartment,hornavu_banaswadi,1.8686359350462551,0.8757796315775661,4,5,4,296
Dee Cee Meadows Apartment,13.0202811,77.6572027,appartment,hornavu_banaswadi,2.0110745631605944,0.8616646882043755,3,4,4,252
%2311 Amrutha Nilaya,13.0257288,77.6571077,appartment,hornavu_banaswadi,1.9040128260598859,1.2882050061898243,6,7,7,444
Vimochan,13.023023,77.656108,appartment,hornavu_banaswadi,1.822504005310067,0.9807767140680853,5,5,5,320
House 2,13.0229885,77.6538043,appartment,hornavu_banaswadi,1.5779444689078288,0.8460597866883406,6,8,7,456
Shally Enclave,13.0220512,77.655944,appartment,hornavu_banaswadi,1.8267545271216283,0.8864100249126997,4,5,4,292
Chaudhary Building,13.0273571,77.6565063,appartment,hornavu_banaswadi,1.8467095486161378,1.411245824517489,7,8,8,504
Subii Lakshana Paradise,13.0196411,77.6566606,appartment,hornavu_banaswadi,1.978843436334052,0.7742771837159613,3,4,3,231
Fortune Alpha,13.0232519,77.6526575,appartment,hornavu_banaswadi,1.450363975431873,0.8297528762088731,6,7,6,395
Srinivasa nilayalam %2321 and 22,13.0254128,77.6525995,appartment,hornavu_banaswadi,1.4163319479699008,1.061208349205586,6,7,6,421
Parvati Nilaya,13.0237904,77.6524134,appartment,hornavu_banaswadi,1.4136414255071015,0.880847486598104,6,7,6,402
Bhavana Residency,13.022446,77.6548592,appartment,hornavu_banaswadi,1.7023637533190723,0.8493611351803585,4,5,5,311
Sai Kingsdale,13.0259572,77.6524667,appartment,hornavu_banaswadi,1.401283269529125,1.11761739574476,6,7,6,435
Sri Annapoorneshwari Residency,13.0242366,77.6534482,appartment,hornavu_banaswadi,1.5178394341183485,0.9602307171758669,7,8,8,508
Pramod kulkarni,13.0228783,77.6576615,appartment,hornavu_banaswadi,1.9911178676638568,1.0815161387375782,4,5,4,291
Purna Sri Nilayam,13.0233182,77.6561314,appartment,hornavu_banaswadi,1.819686082377206,1.0083177079218226,5,5,5,327
Nandi Nivas,13.0225911,77.6552,appartment,hornavu_banaswadi,1.7349780565673298,0.8835217468059673,5,5,5,323
Somnath Nivas,13.0273712,77.6546945,appartment,hornavu_banaswadi,1.6515307521654743,1.3338802438808128,7,8,7,487
Silveroak Heights,13.0259104,77.6576392,appartment,hornavu_banaswadi,1.9615855662569348,1.3374419122163574,6,7,6,404
Balaji residency,13.0255904,77.6533588,appartment,hornavu_banaswadi,1.4980762113715056,1.1006543657868513,6,7,7,448
BRB REGENCY,13.0245115,77.6554354,appartment,hornavu_banaswadi,1.7289921839672664,1.077766417229282,5,6,6,386
The Banyan Tree Apartments,13.0256275,77.6603802,appartment,hornavu_banaswadi,2.2586122581124966,1.5058654593896195,5,6,6,381
Aditya Constructions,13.0240597,77.6589013,appartment,hornavu_banaswadi,2.107450106475167,1.2693912806723415,6,7,6,412
TNT Platinum,13.0220551,77.6555574,appartment,hornavu_banaswadi,1.785915847014063,0.8595214199454247,4,5,4,294
They grace,13.0228229,77.6520917,appartment,hornavu_banaswadi,1.400917028195393,0.7681514751754249,5,6,6,375
SLN Mansion,13.0220872,77.6567712,appartment,hornavu_banaswadi,1.9132108646184312,0.9510580870786911,4,5,4,291
Honey Dew Apartment,13.0295635,77.6592236,appartment,hornavu_banaswadi,2.173337231690563,1.7707402465544737,7,8,7,483
Sri Balaji Oasis,13.0259806,77.6602041,appartment,hornavu_banaswadi,2.2394948931984837,1.5205423231145805,5,6,5,363
Sai Charita Green Oaks - Block 1,13.0219047,77.656336,appartment,hornavu_banaswadi,1.8718382483965412,0.9034111567477351,4,5,4,298
J R Elegance Apartment,13.0281725,77.6596789,appartment,hornavu_banaswadi,2.1980869543149173,1.6707586018939096,6,7,6,438
V4 Meridian Creative Apts,13.0236676,77.6596555,appartment,hornavu_banaswadi,2.1931538420270993,1.3004308360104206,5,6,5,362
Prema Leela Enclave,13.0225729,77.6562293,appartment,hornavu_banaswadi,1.8446072358216234,0.9504411818917049,4,5,4,307
Nava Athithi Grand Apartment,13.0271932,77.6623522,appartment,hornavu_banaswadi,2.4768162528755906,1.7803415727937353,6,7,6,444
S K Gokulam,13.0271074,77.6553642,appartment,hornavu_banaswadi,1.7210244806540012,1.3332177982654325,7,8,7,458
Geo Isaac- Isaac Family,13.0278313,77.6567181,appartment,hornavu_banaswadi,1.875099135494028,1.4686244474213295,8,9,8,533
"Bethel homes , %235",13.0213595,77.6549325,appartment,hornavu_banaswadi,1.7406451140950892,0.7567844633990548,4,5,4,296
Sampradaa,13.0237456,77.6532511,appartment,hornavu_banaswadi,1.5040520654970373,0.9016460742065665,7,8,7,487
Vaikuntam Nivas,13.0235877,77.6556382,appartment,hornavu_banaswadi,1.7624262924574903,1.0018040389124059,6,7,6,406
BHAVANA NIVAS,13.023492,77.65407,appartment,hornavu_banaswadi,1.596110813812741,0.9089657806601404,6,7,7,441
Swami Vivekananda Heights Apartment,13.0267177,77.6616825,appartment,hornavu_banaswadi,2.4016408832461518,1.6914499696322458,6,7,6,432
Elite Horamavu Apartments,13.0270847,77.6556396,appartment,hornavu_banaswadi,1.7505547227129459,1.3429570199574132,7,8,7,470
Jingle Heights,13.0279636,77.6629542,appartment,hornavu_banaswadi,2.548474556529486,1.8868096731562485,8,9,8,557
GNR DIAMOND PARK APARTMENT,13.0264804,77.6524086,appartment,hornavu_banaswadi,1.3968171556087716,1.173677747253737,6,7,6,440
%2304 Shirdi Sai Krupa,13.027568,77.6556871,appartment,hornavu_banaswadi,1.7607881000549555,1.3941266415172344,7,8,7,472
Crown Dale Villas,13.0244826,77.6547461,appartment,hornavu_banaswadi,1.6548826569047388,1.0399619766263608,6,7,6,407
Sri Sankalpa Residency,13.0277752,77.6557628,appartment,hornavu_banaswadi,1.7716122254929736,1.4185204641274225,7,8,7,487
VM Serenity,13.025343,77.6614776,appartment,hornavu_banaswadi,2.377995255415315,1.5715593257148919,6,7,6,440
Soven Apartments,13.0218058,77.6542515,appartment,hornavu_banaswadi,1.6559906192176868,0.7537761282179354,4,5,5,294
Midas Haven Apartments,13.0193559,77.6620808,appartment,hornavu_banaswadi,2.546452162806108,1.3047212331297855,5,6,6,358
Shri Sadan,13.0235665,77.6538333,appartment,hornavu_banaswadi,1.569467756751943,0.9059959684464202,7,8,7,481
Bangalore room,13.022386,77.654068,appartment,hornavu_banaswadi,1.620433707878779,0.7991717198468818,5,6,5,345
Ivy Terrace,13.0236937,77.6520602,appartment,hornavu_banaswadi,1.3776924562018487,0.8621527497493096,6,7,6,411
Praveena house,13.0245165,77.6575019,appartment,hornavu_banaswadi,1.9521156136288995,1.2047658247913835,5,6,5,362
Soorya Symphony,13.0284288,77.6598933,appartment,hornavu_banaswadi,2.2246802991396195,1.707483347271337,6,7,6,445
Shree Sankalp,13.0239052,77.6549725,appartment,hornavu_banaswadi,1.6862291657619164,0.9944208291869683,6,7,6,408
Sai Enclave,13.0232445,77.6530608,appartment,hornavu_banaswadi,1.4933799877100102,0.842246396717831,6,7,6,403
Nisarga Palace Apartment,13.0197639,77.6599804,appartment,hornavu_banaswadi,2.3154470225718273,1.1040005166596922,5,6,5,335
Pooja Garden,13.0256772,77.6560074,appartment,hornavu_banaswadi,1.7848584824653018,1.2211130563688561,6,7,6,423
Oakwood Apartment,13.0307757,77.6651108,appartment,hornavu_banaswadi,2.825134578098963,2.273313901324945,8,10,8,592
Srinivasa Apartment,13.0239077,77.6533497,appartment,hornavu_banaswadi,1.5119618736619553,0.9221904181896781,7,8,7,500
SP.M.RAMAN,13.0256814,77.6577432,appartment,hornavu_banaswadi,1.9728935228377638,1.323365785012037,6,7,6,402
Sai Avenue,13.0274273,77.6554919,appartment,hornavu_banaswadi,1.7380978177556246,1.3713628727964862,7,8,7,466
Sai Satyam,13.0323402,77.6494741,appartment,hornavu_banaswadi,1.2980356967472975,1.810685199429934,10,12,10,692
Dharam Jyoti Ashish,13.0259992,77.6533004,appartment,hornavu_banaswadi,1.4916499877291156,1.1426759465639722,7,8,7,457
Galaxy Apartment,13.0312946,77.6600756,appartment,hornavu_banaswadi,2.307118046384228,1.9829589421143807,9,11,9,641
Vinayaka Heights Apartment,13.0175759,77.657745,appartment,hornavu_banaswadi,2.175806287411263,0.8006518771676466,6,7,7,419
Nava Sannidhi,13.0222169,77.663758,appartment,hornavu_banaswadi,2.6549285947844643,1.5884227391159909,7,8,7,501
Dina Residency,13.0243425,77.6575687,appartment,hornavu_banaswadi,1.9608636894022968,1.1943945014758754,5,6,5,358
Radhe Nilay Pandey house,13.0263117,77.6548626,appartment,hornavu_banaswadi,1.6616458024090959,1.2305772649481952,7,8,7,454
Vinayak Rana,13.0241825,77.6550684,appartment,hornavu_banaswadi,1.6929328666416346,1.0264368780453859,6,7,6,401
SLV Nakshatra Apartment,13.0296557,77.6605922,appartment,hornavu_banaswadi,2.3208962587527724,1.8622900325533691,7,8,7,489
Meenakshi Orchid,13.026661,77.6625022,appartment,hornavu_banaswadi,2.4901253666131464,1.7518318356013338,6,8,7,461
ASN Galaxy,13.0293163,77.6610486,appartment,hornavu_banaswadi,2.363023960680488,1.8617432648043482,8,9,8,553
King%E2%80%99s PG,13.0201502,77.6556242,appartment,hornavu_banaswadi,1.8539429624465533,0.7145043974987467,3,4,4,229
Harsha Landmark,13.022917,77.6640296,appartment,hornavu_banaswadi,2.6734892147780154,1.6494092275614343,7,8,7,492
BSR Splendor Park Apartments,13.0190077,77.6617772,appartment,hornavu_banaswadi,2.526264811812678,1.2626597206983643,5,6,6,360
Radha Residency,13.0187509,77.661044,appartment,hornavu_banaswadi,2.4595913669240494,1.178577527727842,5,6,6,356
Sri Manjunatha Enclave,13.026098,77.655203,appartment,hornavu_banaswadi,1.6979117087051758,1.2235041719788362,6,7,6,438
Sai Nandanam Palace,13.0218106,77.6598805,appartment,hornavu_banaswadi,2.249110268176221,1.1977360244300632,5,6,5,343
White Cloud Apartment,13.032205,77.6488993,appartment,hornavu_banaswadi,1.2381792634853805,1.8006612982202579,10,12,10,700
Samar Apartment,13.0239417,77.6656359,appartment,hornavu_banaswadi,2.8356224458538493,1.8564642966513611,7,9,8,510
VBC Group Oracle Shine,13.022831,77.6607675,appartment,hornavu_banaswadi,2.324427316097439,1.340184423822197,6,6,6,385
"Sri Balaji Homes, Gopal Reddy Layout, Banaswadi, 560043",13.0161425,77.6560128,appartment,hornavu_banaswadi,2.084853417698429,0.5957389122148654,4,4,4,243
Oceanus Greendale,13.0205977,77.6642,appartment,hornavu_banaswadi,2.7348080585635417,1.565187257529877,9,10,9,607
SBC Sansu Regency,13.0295518,77.6590457,appartment,hornavu_banaswadi,2.154173282164356,1.7594391725196572,7,8,7,486
Manju Mansion,13.013647,77.6552792,appartment,hornavu_banaswadi,2.177986010391397,0.5832357568662334,4,4,4,250
Suvega Sunrise Apartment,13.0303779,77.6496264,appartment,hornavu_banaswadi,1.2050445805802659,1.5918858870766104,10,11,11,654
Sai Sun Rise Apartment,13.0191432,77.6666414,appartment,hornavu_banaswadi,3.029345418518885,1.7799036708408646,9,10,9,610
Gokulam,13.0199942,77.6662831,appartment,hornavu_banaswadi,2.969642400295912,1.7627145378855698,8,9,8,547
Pranaam Enclave,13.0273555,77.6562524,appartment,hornavu_banaswadi,1.819306212275207,1.3986470241530338,7,8,8,504
CSR Aster Apartments,13.0164231,77.6606013,appartment,hornavu_banaswadi,2.510489364011196,1.0934522516690226,5,6,6,372
House no 27,13.0239275,77.6656647,appartment,hornavu_banaswadi,2.838850913063921,1.8584770851470862,7,9,8,510
Anjanaadri Appartment,13.0237757,77.6537733,appartment,hornavu_banaswadi,1.55948412887294,0.9248923727227286,7,8,7,492
Ramesh Apartment,13.0198968,77.6572248,appartment,hornavu_banaswadi,2.0268451237808605,0.8413795093100052,3,4,4,252
Ashwini Flora,13.0300019,77.6579713,appartment,hornavu_banaswadi,2.0508309673343414,1.745387261527842,7,9,8,517
Muneshwara Swamy Nilaya,13.0238473,77.6632928,appartment,hornavu_banaswadi,2.5834172763438468,1.631246793195445,7,8,7,453
S2 Carnation Apartment,13.0379577,77.6500603,appartment,hornavu_banaswadi,1.7666453444072254,2.4323112612992284,12,14,12,818
YD Lotus pond Apartments,13.0071855,77.649544,appartment,hornavu_banaswadi,2.33917403904279,0.9954680046518753,4,4,4,266
Sri Laxmi Venkateshwara Nilaya,13.0197051,77.6561429,appartment,hornavu_banaswadi,1.9238220910641983,0.730500408330856,3,3,3,208
Indira Towers,13.021497,77.6537882,appartment,hornavu_banaswadi,1.6175978202024701,0.6982615399415303,8,9,8,522
DS-MAX Scarlet,13.0208279,77.6636755,appartment,hornavu_banaswadi,2.6738748067189886,1.5201530642563859,10,11,10,643
Good Hope Residency,13.034746,77.654179,appartment,hornavu_banaswadi,1.8712967895745252,2.112335462939329,10,11,10,667
Royal nest apts Banaswadi,13.0082974,77.6519097,appartment,hornavu_banaswadi,2.3656250774847645,0.8793596562515434,4,4,4,260
Prestige Gulmohar,13.0288113,77.665061,appartment,hornavu_banaswadi,2.785454081528494,2.1178207391359067,8,10,8,592
NCN PRIDE,13.0231237,77.6556125,appartment,hornavu_banaswadi,1.7677009843971372,0.9576726661780852,5,5,5,328
Neeraja Paradise,13.0250111,77.6680029,appartment,hornavu_banaswadi,3.0856317729915093,2.1387437804271667,9,11,9,653
Prabhat Royal Apartments,13.017767,77.6554761,appartment,hornavu_banaswadi,1.9457793409894313,0.5690621539295095,4,4,4,254
Arka Grandeur,13.0068216,77.6460403,appartment,hornavu_banaswadi,2.227504029218702,1.1386804256037075,4,5,4,306
Krishneel Nest Apartment,13.0174256,77.6575883,appartment,hornavu_banaswadi,2.1675721520565236,0.7806939447128516,6,7,7,429
Sethna Power Tower,13.0254276,77.651166,appartment,hornavu_banaswadi,1.2610675188644709,1.040926559745396,6,7,6,422
Oceanus Red Rock Apartment,13.020384,77.6649123,appartment,hornavu_banaswadi,2.8152716132144855,1.6313593565710214,9,10,9,582
Sekhar Olympus,13.031391,77.6575948,appartment,hornavu_banaswadi,2.05230870068519,1.8665334706727832,8,10,9,580
329 Apartments,13.011066,77.6578623,appartment,hornavu_banaswadi,2.5761084898266735,0.9724081637531009,4,5,5,315
SKYLINE Estate,13.025011,77.6573338,appartment,hornavu_banaswadi,1.9305986200621976,1.2370568890498814,5,6,6,386
Sai Green Leaf Apartment,13.0148711,77.6637268,appartment,hornavu_banaswadi,2.890253017627607,1.437812201308794,7,7,7,447
Sri Laxmi Arcade,13.0272291,77.6558112,appartment,hornavu_banaswadi,1.770429786947673,1.3653020099569826,7,8,7,482
Kolte-Patil Mirabilis,13.0317201,77.661615,appartment,hornavu_banaswadi,2.480457676651915,2.113687121464289,9,10,9,625
604 Apartment,13.0098113,77.6558177,appartment,hornavu_banaswadi,2.506601632696613,0.904014744743761,4,5,4,297
Ganesha Kuteeram,13.0238913,77.6537377,appartment,hornavu_banaswadi,1.553838539192781,0.9353390182379288,7,8,7,497
Gardenia Apartment,13.0234649,77.6693096,appartment,hornavu_banaswadi,3.236526273272655,2.1952436043568264,9,11,9,663
Prerana Tranquil,13.02769,77.6624477,appartment,hornavu_banaswadi,2.4911317807076863,1.8264007303328202,8,10,8,575
Apartment,13.0062748,77.6497352,appartment,hornavu_banaswadi,2.4386689707486333,1.0944274459556347,4,5,5,308
Janani,13.0252593,77.6575498,appartment,hornavu_banaswadi,1.9528896735542143,1.2731791981423604,5,6,6,385
Apartment,13.0188178,77.6685836,appartment,hornavu_banaswadi,3.242246698340001,1.9809893026393115,9,10,9,627
Pink berry mrp shop,13.0236483,77.6587221,appartment,hornavu_banaswadi,2.092917074106062,1.2237013214163377,4,5,5,324
Verdan%E2%80%99s Villas,13.0234675,77.67162,appartment,hornavu_banaswadi,3.4860357878169363,2.429312223575725,11,13,11,786
Unishire La Vida,13.0283996,77.6405416,appartment,hornavu_banaswadi,0.3065372290176105,1.7439599121335987,10,10,10,623
Exodus Apartment,13.0278513,77.6553493,appartment,hornavu_banaswadi,1.7282452804363944,1.4090168850850198,7,8,7,496
Apartment,13.0025131,77.6598546,appartment,hornavu_banaswadi,3.400905627996045,1.8172736079221927,7,9,8,520
SMR Builders Private Limited,13.0188401,77.6567306,appartment,hornavu_banaswadi,2.0185234846965088,0.7397405499935314,3,4,3,215
Vineyard Cornerstone Villa %2Fapartments,13.0197021,77.6646554,appartment,hornavu_banaswadi,2.8055279206250825,1.5838540957748788,9,10,9,619
Golden Enclave Horamavu,13.026273,77.6578685,appartment,hornavu_banaswadi,1.9870286685644245,1.3847083656921553,6,7,6,419
Golden enclave Horamavu,13.0248075,77.6595534,appartment,hornavu_banaswadi,2.171883261238905,1.3780616927442593,6,8,7,456
Room for Rent,13.011755,77.6691624,appartment,hornavu_banaswadi,3.5709286301688916,2.076982628874912,8,9,8,550
Horamavu Banaswadi,13.0252116,77.6550442,appartment,hornavu_banaswadi,1.6818176618999003,1.1269781205650364,6,7,6,425
Coconut Grove Layout,13.0273665,77.6557601,appartment,hornavu_banaswadi,1.766333104720657,1.376885802106029,7,8,7,488
SmartFix Solutions,13.0191911,77.6554601,appartment,hornavu_banaswadi,1.8765370533794619,0.6373197920925542,8,9,8,535
Modern interiors,13.0227306,77.6578954,appartment,hornavu_banaswadi,2.0188503292343785,1.0885908812978735,4,5,4,290
Horamavu Signal,13.018364,77.655049,appartment,hornavu_banaswadi,1.874516075221148,0.5526486081911273,4,4,4,257
BWSSB Office,13.003565,77.657735,office,kasturi_nagar,3.164652635892915,1.5971911245452812,6,7,7,446
Kappa Office,13.0043077,77.6626607,office,kasturi_nagar,3.464464908203637,1.8567688096425001,8,10,9,590
BBMP Office Ward No. 50,13.0009012,77.6625248,office,kasturi_nagar,3.726260702713865,2.131877601818809,8,10,9,604
Bangalore One,13.0000081,77.6622472,office,kasturi_nagar,3.7810584124024627,2.193810469699548,8,10,8,572
Company,13.0101736,77.6582306,office,kasturi_nagar,2.6705685918270072,1.063659521801172,6,7,6,410
"RTO, Kasturinagara",13.0043343,77.6645808,office,kasturi_nagar,3.615813598702526,2.0076428354445977,9,10,9,592
CampusHunt.in Kasturinagar office,13.0074645,77.6588703,office,kasturi_nagar,2.925196168313045,1.3187184182010259,6,7,6,390
LLI Office,13.0079001,77.6588288,office,kasturi_nagar,2.8883432403519818,1.280762586877825,6,7,6,402
"Swiggy Delivery Boy Onboarding Center, Kasturi nagar",13.0078383,77.662383,office,kasturi_nagar,3.1824762277622844,1.5795301384406342,7,9,8,518
safenest offices,13.0016141,77.6627956,office,kasturi_nagar,3.6876738839270446,2.0882213025360157,9,10,9,618
Kasturi Nivasa Residents Welfare Association,13.0079587,77.6609138,office,kasturi_nagar,3.0515644447779193,1.4444785434565086,7,8,7,482
BESCOM Post office (Banaswadi branch),13.0038567,77.6623834,office,kasturi_nagar,3.477838144371915,1.8717159969081296,8,10,9,592
RSSN and Associates,13.0053026,77.6575946,office,kasturi_nagar,3.006015375542756,1.4236176520613706,6,8,7,464
BBMP Office,13.0008931,77.6625916,office,kasturi_nagar,3.7317715456501936,2.137014754427136,8,10,9,605
The Rook India,13.0022165,77.6604024,office,kasturi_nagar,3.46454613638657,1.877971355746319,7,8,7,500
Eureka Office,13.009539,77.6568625,office,kasturi_nagar,2.6084500388967937,1.0016554118225243,5,6,5,339
BWSSB East Service Station 1,13.0037904,77.6578095,office,kasturi_nagar,3.1501556665620196,1.5794113267423693,6,7,7,445
Food Corporation Of India District Office Bengaluru,13.0017193,77.6674755,office,kasturi_nagar,4.043367587673585,2.435058026440592,11,12,11,728
T.k M Company,13.0060924,77.6594498,office,kasturi_nagar,3.0773397676794794,1.4739443622742585,6,7,6,421
Securitas,13.0071515,77.6617838,office,kasturi_nagar,3.1815521603295966,1.5742060679774221,7,8,7,480
Office,13.0050128,77.6595318,office,kasturi_nagar,3.1701179635673093,1.5719598396500782,8,9,8,535
Arvind office,13.004371,77.6624291,office,kasturi_nagar,3.441478443911699,1.8340637624592422,8,10,9,573
Lighting Technologies India - Corporate office,13.0038075,77.6628153,office,kasturi_nagar,3.5151077048828467,1.9080786441918867,8,10,9,584
safenest offices,13.0016141,77.6627956,office,kasturi_nagar,3.6876738839270446,2.0882213025360157,9,10,9,618
R logistics services,13.0020586,77.6615462,office,kasturi_nagar,3.559675508870139,1.9652269862845815,8,9,8,568
Eureka Office,13.009539,77.6568625,office,kasturi_nagar,2.6084500388967937,1.0016554118225243,5,6,5,339
BBMP Office,13.0008931,77.6625916,office,kasturi_nagar,3.7317715456501936,2.137014754427136,8,10,9,605
RSSN and Associates,13.0053026,77.6575946,office,kasturi_nagar,3.006015375542756,1.4236176520613706,6,8,7,464
Sri Hari Towers,13.0071112,77.6591504,office,kasturi_nagar,2.9743558106818297,1.3681256740861123,6,7,6,395
BAYA CONSULTANCY SERVICES PVT LTD,13.006804,77.659233,office,kasturi_nagar,3.0047027872064573,1.3992693738567976,6,7,6,403
ALOKI GROUP,13.0069278,77.6592718,office,kasturi_nagar,2.998025780175248,1.3920061296772401,6,7,6,400
SandoraS,13.0025574,77.6624099,office,kasturi_nagar,3.582778081351858,1.9810560600784384,9,10,9,601
MC Junction,13.0037982,77.6628826,office,kasturi_nagar,3.5210627485178203,1.9139166941114272,8,10,9,587
Merabhoomi Realty Pvt Ltd,13.0068668,77.6591832,office,kasturi_nagar,2.9959552599137997,1.3904754771963659,6,7,6,401
Outsource Dataworks,13.001079,77.662937,office,kasturi_nagar,3.7416974266600773,2.144000167980277,9,10,9,604
"V K Computers, SCDL ATC, Computer Training Center",13.0028595,77.6611581,office,kasturi_nagar,3.465506367602401,1.8690765636078854,7,9,8,521
OnePOS Retail Solutions,13.0072835,77.6590826,office,kasturi_nagar,2.9557159114303424,1.3491461251276526,6,7,6,391
Cuefin Solutions Pvt Ltd,13.0038038,77.6605994,office,kasturi_nagar,3.347316174179688,1.7491793251065504,7,8,7,490
ROCK INTERIORS,13.0022532,77.6614322,office,kasturi_nagar,3.53534024359317,1.9405413829148404,8,9,8,540
Sri Laasya Enterprise Sodahub,13.0076732,77.6610158,office,kasturi_nagar,3.0806665804303823,1.4730728350615723,7,8,7,473
Bharat Financial Inclusion Ltd.,13.0036874,77.6593972,office,kasturi_nagar,3.2696350457775853,1.6815150532691812,7,8,7,493
Work2Gather,13.0051547,77.6628337,office,kasturi_nagar,3.41393866007189,1.8053800676014289,8,9,8,569
Adithya future group,12.9997019,77.661562,office,kasturi_nagar,3.7594137111230386,2.180022625696627,8,9,8,555
Studio DM,13.0052981,77.6597401,office,kasturi_nagar,3.1626133443758113,1.5615798702635286,6,7,7,446
